"release_number","event_id","facility_id","site_name","address","city","zip","state","county","status","release_date","closure_date","no_further_action_type","contact","phone","email","latitude","longitude","latitude_longitude","release_source","release_cause","reimbursement_total","release_record_link"
"REL-000053","2","9250","7-Eleven #19088","1011 37th St","Evans","80620","CO","Weld","Closed","4/12/1993","11/8/1999","Pre-RBCA","Tim Kelley","303-318-4357","cdle_ops_public_record_center@state.co.us","40.377573","-104.694558","40.377573, -104.694558",,,,"https://socgov18.force.com/s/release/a183h000003KVGp"
"REL-011133","3","10529","Sterling Coca-cola Bottling Co","530 S 6th Ave","Sterling","80751","CO","Logan","Closed","3/18/1987","2/6/2012","Tier I","Tom Fox","303-318-8535","tom.fox@state.co.us","40.620812","-103.221496","40.620812, -103.221496","Unknown",,,"https://socgov18.force.com/s/release/a183h000003KY9X"
"REL-005490","4","9974","Firestone Service Center","1130 8th Ave","Greeley","80631","CO","Weld","Closed",,"8/27/1996","Pre-RBCA","Steve Noel","303-318-4357","cdle_ops_public_record_center@state.co.us","40.420097","-104.690488","40.420097, -104.690488",,,,"https://socgov18.force.com/s/release/a183h000003KWgW"
"REL-009740","5","11723","Randy Lehr Property","Warner Enterprises Spill I-25 & Rt 18","Longmont","80501","CO","Boulder","Closed",,"10/30/1990","Pre-RBCA","Larry Delin","303-318-4357","cdle_ops_public_record_center@state.co.us","40.11611","-104.97889","40.11611, -104.97889",,,,"https://socgov18.force.com/s/release/a183h000003KXn4"
"REL-004485","6","6762","Sunstate Equipment Co LLC","4228 E Mulberry St","Fort Collins","80524","CO","Larimer","Closed","8/21/1990","10/13/1994","Pre-RBCA","Joe'l Lambe","303-318-4357","cdle_ops_public_record_center@state.co.us","40.581925","-104.997464","40.581925, -104.997464",,,,"https://socgov18.force.com/s/release/a183h000003KWQJ"
"REL-002222","7","11118","Capri Electronics","1238 Bayfield Pkwy","Bayfield","81122","CO","La Plata","Closed","12/11/2002","4/8/2016","Tier III","Tom Fox","303-318-8535","tom.fox@state.co.us","37.225832","-107.603088","37.225832, -107.603088","Historical contamination",,,"https://socgov18.force.com/s/release/a183h000003KVpo"
"REL-003277","10","4605","CDOW Watson Lake Rearing Unit","4936 W Larimer CR 52 E","Bellvue","80512","CO","Larimer","Closed","12/26/1989","2/27/1995","Pre-RBCA","Ed Larock","303-318-4357","cdle_ops_public_record_center@state.co.us","40.654944","-105.451524","40.654944, -105.451524",,,,"https://socgov18.force.com/s/release/a183h000003KW6p"
"REL-008242","11","12139","Marshdale Bus Terminal","7000 Hwy 73","Evergreen","80439","CO","Jefferson","Closed","11/29/1990","7/28/1994","Pre-RBCA","Joe'l Lambe","303-318-4357","cdle_ops_public_record_center@state.co.us","39.58846","-105.309075","39.58846, -105.309075",,,,"https://socgov18.force.com/s/release/a183h000003KXOu"
"REL-006804","12","11390","Hudson Energy Corp Inc","16101 E Colfax Ave","Aurora","80011","CO","Adams","Closed","7/12/1993","4/21/1999","Pre-RBCA","Robert Shoup","303-318-4357","cdle_ops_public_record_center@state.co.us","39.74071","-104.799945","39.74071, -104.799945",,,,"https://socgov18.force.com/s/release/a183h000003KX1i"
"REL-005094","13","6417","ACME Distribution Center","17751 E Colfax Ave","Aurora","80011","CO","Adams","Closed","10/7/1996","5/16/1997","Pre-RBCA","Julie Cotter","303-318-4357","cdle_ops_public_record_center@state.co.us","39.740261","-104.785718","39.740261, -104.785718",,,,"https://socgov18.force.com/s/release/a183h000003KWa8"
"REL-002689","14","4095","Pit Stop Conoco","11870 N Washington St","Northglenn","80233","CO","Adams","Closed","1/29/1992","10/24/2006","Tier I","Jennifer Steffes","303-318-4357","cdle_ops_public_record_center@state.co.us","39.912005","-104.977244","39.912005, -104.977244",,,,"https://socgov18.force.com/s/release/a183h000003KVxL"
"REL-001494","15","2248","Power Motive Corp","2239 Commericial Blvd","Colorado Springs","80906","CO","El Paso","Closed","11/20/1989","5/28/1996","Pre-RBCA","Ed Larock","303-318-4357","cdle_ops_public_record_center@state.co.us","38.800227","-104.799019","38.800227, -104.799019",,,,"https://socgov18.force.com/s/release/a183h000003KVe4"
"REL-003245","16","12395","CDOW Dry Creek Basin","6 Mi S Of Basin","Norwood","81423","CO","San Miguel","Closed",,"2/9/1993","Pre-RBCA","Edgar Ethington","303-318-4357","cdle_ops_public_record_center@state.co.us","38.055775","-108.539463","38.055775, -108.539463",,,,"https://socgov18.force.com/s/release/a183h000003KW6J"
"REL-006016","17","2999","Gas-rite #3040","1701 N Union Blvd","Colorado Springs","80909","CO","El Paso","Closed","3/13/1992","2/8/1994","Pre-RBCA","Joe'l Lambe","303-318-4357","cdle_ops_public_record_center@state.co.us","38.85717","-104.793739","38.85717, -104.793739",,,,"https://socgov18.force.com/s/release/a183h000003KWp0"
"REL-006723","18","810","Udderly Country Store","128 E 3rd St","Palisade","81526","CO","Mesa","Closed","8/20/1990","6/8/1994","Pre-RBCA","Ed Larock","303-318-4357","cdle_ops_public_record_center@state.co.us","39.110494","-108.350272","39.110494, -108.350272",,,,"https://socgov18.force.com/s/release/a183h000003KX0P"
"REL-010366","19","10250","My Goods Market #6505","3375 28th St","Boulder","80301","CO","Boulder","Closed","9/5/1989","5/7/1997","Pre-RBCA","Craig Workman","303-318-4357","cdle_ops_public_record_center@state.co.us","40.036111","-105.258948","40.036111, -105.258948",,,,"https://socgov18.force.com/s/release/a183h000003KXxA"
"REL-009289","20","1667","Honnen Equipment Co","5055 E 72nd Ave","Commerce City","80022","CO","Adams","Closed","12/6/1993","8/1/1996","Pre-RBCA","Eric Gillespie","303-318-4357","cdle_ops_public_record_center@state.co.us","39.827999","-104.928249","39.827999, -104.928249",,,,"https://socgov18.force.com/s/release/a183h000003KXfn"
"REL-006647","21","12908","Hewit Hawn Joint Venture","10480 Sheridan Blvd","Westminster","80030","CO","Adams","Closed","10/21/1993","4/26/1995","Pre-RBCA","Null User7","303-318-4357","cdle_ops_public_record_center@state.co.us","39.886637","-105.052986","39.886637, -105.052986",,,,"https://socgov18.force.com/s/release/a183h000003KWzB"
"REL-006581","22","3966","Havana Plant","2900 S Havana St","Aurora","80014","CO","Arapahoe","Closed","1/13/1992","12/15/1992","Pre-RBCA","Edgar Ethington","303-318-4357","cdle_ops_public_record_center@state.co.us","39.66432","-104.86543","39.66432, -104.86543",,,,"https://socgov18.force.com/s/release/a183h000003KWy7"
"REL-005348","23","7200","Maxim Motors","2850 North Ave","Grand Junction","81501","CO","Mesa","Closed","10/18/1994","4/8/1997","Pre-RBCA","Joe'l Lambe","303-318-4357","cdle_ops_public_record_center@state.co.us","39.077797","-108.524137","39.077797, -108.524137",,,,"https://socgov18.force.com/s/release/a183h000003KWeE"
"REL-006137","24","14038","Gerold Rennels","402 Vasquez Blvd","Platteville","80651","CO","Weld","Closed","3/16/1990","3/13/1997","Pre-RBCA","Dennis Hotovec","303-318-4357","cdle_ops_public_record_center@state.co.us","40.216902","-104.821992","40.216902, -104.821992",,,,"https://socgov18.force.com/s/release/a183h000003KWqx"
"REL-000369","25","4851","7E CO 5, LLC","303 Broadway","Denver","80203","CO","Denver","Closed","1/18/1994","7/18/1995","Pre-RBCA","Kathy Kosklin","303-318-4357","cdle_ops_public_record_center@state.co.us","39.721191","-104.987928","39.721191, -104.987928",,,,"https://socgov18.force.com/s/release/a183h000003KVLv"
"REL-006639","26","3964","Hertz Rent A Car Inc","1760 14th St","Boulder","80303","CO","Boulder","Closed","7/18/1996","8/7/1997","Pre-RBCA","Jane Bral","303-318-8510","jane.bral@state.co.us","40.015691","-105.276451","40.015691, -105.276451",,,,"https://socgov18.force.com/s/release/a183h000003KWz3"
"REL-003257","27","11796","CDOW Little Hills Wildlife Area","Little Hills Wildlife Area","Meeker","81641","CO","Rio Blanco","Closed","1/29/1990","1/7/1993","Pre-RBCA","Edgar Ethington","303-318-4357","cdle_ops_public_record_center@state.co.us",,,",",,,,"https://socgov18.force.com/s/release/a183h000003KW6V"
"REL-002421","28","13436","Continental Airlines Cal 10","SW Of Bldg 32 Stapleton Int'l Airport","Denver","80207","CO","Denver","Closed",,"12/28/1995","Pre-RBCA","Ed Larock","303-318-4357","cdle_ops_public_record_center@state.co.us",,,",",,,,"https://socgov18.force.com/s/release/a183h000003KVt1"
"REL-006644","29","12417","Hesperus Country Store","10868 Hwy 160","Hesperus","81326","CO","La Plata","Closed","9/18/1991","4/8/1992","Pre-RBCA","Larry Delin","303-318-4357","cdle_ops_public_record_center@state.co.us","37.290548","-108.040205","37.290548, -108.040205",,,,"https://socgov18.force.com/s/release/a183h000003KWz8"
"REL-010367","30","10250","My Goods Market #6505","3375 28th St","Boulder","80301","CO","Boulder","Implementing CAP","3/15/1996",,,"Tom Fox","303-318-8535","tom.fox@state.co.us","40.036111","-105.258948","40.036111, -105.258948",,,,"https://socgov18.force.com/s/release/a183h000003KXxB"
"REL-010460","31","8261","Cowen Transfer & Storage","3235 N El Paso","Colorado Springs","80907","CO","El Paso","Closed",,"2/6/1998","Pre-RBCA","Dennis Hotovec","303-318-4357","cdle_ops_public_record_center@state.co.us","38.879941","-104.812605","38.879941, -104.812605",,,,"https://socgov18.force.com/s/release/a183h000003KXyg"
"REL-005216","32","4567","AT&T Prospect Valley Rs Co0450","40821 Hwy 52","Roggen","80652","CO","Weld","Closed","11/7/1994","12/29/1995","Pre-RBCA","Ed Larock","303-318-4357","cdle_ops_public_record_center@state.co.us","40.073261","-104.285157","40.073261, -104.285157",,,,"https://socgov18.force.com/s/release/a183h000003KWc6"
"REL-007394","33","1410","Macaluso Oil Co","306 Central Ave","Dolores","81323","CO","Montezuma","Closed","11/2/1995",,"Administrative","Vinny Secondo","303-318-4357","cdle_ops_public_record_center@state.co.us","37.473678","-108.504939","37.473678, -108.504939","Overfill - spill bucket",,,"https://socgov18.force.com/s/release/a183h000003KXBE"
"REL-011584","34","2492","The Colorado College","1144 Glen Ave","Colorado Springs","80905","CO","El Paso","Closed","9/10/1990","5/14/1997","Pre-RBCA","Dennis Hotovec","303-318-4357","cdle_ops_public_record_center@state.co.us","38.850543","-104.830319","38.850543, -104.830319",,,,"https://socgov18.force.com/s/release/a183h000003KYGo"
"REL-008391","35","13095","Mesa County Facilities Mng","636 South Ave","Grand Junction","81501","CO","Mesa","Closed","5/3/1994","5/27/1994","Pre-RBCA","Donna Stoner","303-318-4357","cdle_ops_public_record_center@state.co.us","39.063718","-108.562149","39.063718, -108.562149",,,,"https://socgov18.force.com/s/release/a183h000003KXRJ"
"REL-013074","36","1685","Youmans Store","Gunnison CR 29","Powderhorn","81243","CO","Gunnison","Closed","8/12/1993","5/23/1996","Pre-RBCA","Ed Larock","303-318-4357","cdle_ops_public_record_center@state.co.us","38.278776","-107.108823","38.278776, -107.108823",,,,"https://socgov18.force.com/s/release/a183h000003KYeq"
"REL-000969","37","12008","CDOW Headquarters","6060 N Broadway","Commerce City","80022","CO","Adams","Closed","11/12/1992","7/6/1995","Pre-RBCA","Ed Larock","303-318-4357","cdle_ops_public_record_center@state.co.us","39.806268","-104.985507","39.806268, -104.985507",,,,"https://socgov18.force.com/s/release/a183h000003KVVb"
"REL-005918","38","9702","Fort Collins Main Central Office","124 W Magnolia Ave","Fort Collins","80524","CO","Larimer","Closed",,"5/20/1993","Pre-RBCA","Doug Pratto","303-318-4357","cdle_ops_public_record_center@state.co.us","40.58319","-105.078456","40.58319, -105.078456",,,,"https://socgov18.force.com/s/release/a183h000003KWnQ"
"REL-006340","39","12983","Grant Middle School","1751 S Washington St","Denver","80210","CO","Denver","Closed",,,"Administrative","Scott Pieratt","303-318-4357","cdle_ops_public_record_center@state.co.us","39.685455","-104.979837","39.685455, -104.979837",,,,"https://socgov18.force.com/s/release/a183h000003KWuE"
"REL-000824","40","5436","Rex Oil","107 W 7th St","Loveland","80537","CO","Larimer","Closed","11/18/1992","7/18/2001","Tier I","Greg Johnson","303-318-4357","cdle_ops_public_record_center@state.co.us","40.398722","-105.077455","40.398722, -105.077455",,,,"https://socgov18.force.com/s/release/a183h000003KVTG"
"REL-000106","41","9052","7-Eleven #19565","421 Hwy 24 S","Buena Vista","81211","CO","Chaffee","Closed","12/17/1994","3/21/1995","Pre-RBCA","Edgar Ethington","303-318-4357","cdle_ops_public_record_center@state.co.us","38.837514","-106.129514","38.837514, -106.129514",,,,"https://socgov18.force.com/s/release/a183h000003KVHg"
"REL-011705","42","13397","Tobias Property","3738 Morrison Rd","Denver","80219","CO","Denver","Closed","5/2/1995","6/19/1995","Pre-RBCA","Cindy Silva-Burbach","303-318-4357","cdle_ops_public_record_center@state.co.us","39.707689","-105.03678","39.707689, -105.03678",,,,"https://socgov18.force.com/s/release/a183h000003KYIl"
"REL-011034","43","815","Goodyear Auto Center #8120","17226 S Golden Rd","Golden","80401","CO","Jefferson","Closed",,"7/22/1997","Pre-RBCA","Julie Cotter","303-318-4357","cdle_ops_public_record_center@state.co.us","39.739009","-105.19685","39.739009, -105.19685",,,,"https://socgov18.force.com/s/release/a183h000003KY7w"
"REL-000970","44","12008","CDOW Headquarters","6060 N Broadway","Commerce City","80022","CO","Adams","Closed",,"6/9/1999","Pre-RBCA","Jennifer Steffes","303-318-4357","cdle_ops_public_record_center@state.co.us","39.806268","-104.985507","39.806268, -104.985507",,,,"https://socgov18.force.com/s/release/a183h000003KVVc"
"REL-003575","45","11121","United Rental","9215 Federal Blvd","Denver","80221","CO","Adams","Closed","2/16/1994","6/1/1994","Pre-RBCA","Doug Pratto","303-318-4357","cdle_ops_public_record_center@state.co.us","39.864084","-105.025608","39.864084, -105.025608",,,,"https://socgov18.force.com/s/release/a183h000003KWBd"
"REL-003953","47","10619","Bob's Service","1414 Santa Fe Trail","Trinidad","81082","CO","Las Animas","Closed","7/31/1996","9/9/1998","Pre-RBCA","Jennifer Steffes","303-318-4357","cdle_ops_public_record_center@state.co.us","37.159306","-104.511698","37.159306, -104.511698",,,,"https://socgov18.force.com/s/release/a183h000003KWHj"
"REL-012535","48","4609","Citaula Brothers #7","803 Riverside Ave","Fort Collins","80524","CO","Larimer","Closed","5/10/1996","4/27/2000","Pre-RBCA","Jane Bral","303-318-8510","jane.bral@state.co.us","40.580971","-105.063172","40.580971, -105.063172",,,,"https://socgov18.force.com/s/release/a183h000003KYW9"
"REL-003242","49","539","CDOW Crystal River Hatchery","2957 Hwy 133","Carbondale","81623","CO","Garfield","Closed","6/10/1992","6/12/1992","Pre-RBCA","Mark Walker","303-318-4357","cdle_ops_public_record_center@state.co.us","39.378143","-107.203842","39.378143, -107.203842",,,,"https://socgov18.force.com/s/release/a183h000003KW6G"
"REL-003408","50","7468","CDOT Thornton","7800 N I-25","Thornton","80229","CO","Adams","Closed","5/23/1994","6/30/1995","Pre-RBCA","Andy Flurkey","303-318-4357","cdle_ops_public_record_center@state.co.us","39.809523","-104.983267","39.809523, -104.983267",,,,"https://socgov18.force.com/s/release/a183h000003KW8w"
"REL-001839","51","12093","Eleanor Olmsted Property","736 Main St","Longmont","80501","CO","Boulder","Closed","11/10/1992","3/8/1995","Pre-RBCA","Mark Walker","303-318-4357","cdle_ops_public_record_center@state.co.us","40.17222","-105.10222","40.17222, -105.10222",,,,"https://socgov18.force.com/s/release/a183h000003KVjd"
"REL-011139","52","12536","Sterling Regional Medcenter","615 Fairhurst St","Sterling","80751","CO","Logan","Closed","11/22/1991","11/12/1993","Pre-RBCA","Ed Larock","303-318-4357","cdle_ops_public_record_center@state.co.us","40.612822","-103.22058","40.612822, -103.22058",,,,"https://socgov18.force.com/s/release/a183h000003KY9d"
"REL-009998","53","2757","Hutchings Enterprises Bldg #1","8100 Dahlia St","Henderson","80640","CO","Adams","Closed","12/2/1990","4/17/1996","Pre-RBCA","Jennifer Steffes","303-318-4357","cdle_ops_public_record_center@state.co.us","39.844258","-104.928182","39.844258, -104.928182",,,,"https://socgov18.force.com/s/release/a183h000003KXrE"
"REL-001058","54","1679","Everyday Store #5715","300 E Pagosa St","Pagosa Springs","81147","CO","Archuleta","Closed","9/8/1995","8/24/2000","Pre-RBCA","Scott Winters","303-318-4357","cdle_ops_public_record_center@state.co.us","37.269641","-106.998235","37.269641, -106.998235",,,,"https://socgov18.force.com/s/release/a183h000003KVX2"
"REL-005394","55","3767","Carousel Ice Cream","2500 N Federal Blvd","Denver","80211","CO","Denver","Closed","11/1/1990","9/16/2003","Tier I","Tim Kelley","303-318-4357","cdle_ops_public_record_center@state.co.us","39.753895","-105.024781","39.753895, -105.024781",,,,"https://socgov18.force.com/s/release/a183h000003KWey"
"REL-012324","56","6527","US West","12680 CR 58","Greeley","80634","CO","Weld","Closed","7/22/1993","11/3/1994","Pre-RBCA","Ed Larock","303-318-4357","cdle_ops_public_record_center@state.co.us","40.406029","-104.820042","40.406029, -104.820042",,,,"https://socgov18.force.com/s/release/a183h000003KYSk"
"REL-007679","57","19841","JAP Convenience Store","3116 S Parker Rd","Aurora","80014","CO","Arapahoe","Closed",,,"Administrative","Robert Shoup","303-318-4357","cdle_ops_public_record_center@state.co.us","39.660133","-104.852043","39.660133, -104.852043",,,,"https://socgov18.force.com/s/release/a183h000003KXFp"
"REL-009203","58","6764","Pedota Greenhouses","4580 Garrison St","Wheat Ridge","80033","CO","Jefferson","Closed",,"8/17/1993","Pre-RBCA","Doug Pratto","303-318-4357","cdle_ops_public_record_center@state.co.us","39.78072","-105.100211","39.78072, -105.100211",,,,"https://socgov18.force.com/s/release/a183h000003KXeP"
"REL-005174","59","4606","AT&T Cedarwood R S","89 M NW  Of Cedarwood","Pueblo","81001","CO","Pueblo","Closed","9/11/1993","10/20/1994","Pre-RBCA","Edgar Ethington","303-318-4357","cdle_ops_public_record_center@state.co.us",,,",",,,,"https://socgov18.force.com/s/release/a183h000003KWbQ"
"REL-004958","60","6508","Amoco #5211","2990 S Broadway","Englewood","80110","CO","Arapahoe","Closed","10/2/1996","7/9/1997","Pre-RBCA","Jennifer Steffes","303-318-4357","cdle_ops_public_record_center@state.co.us","39.662642","-104.987214","39.662642, -104.987214",,,,"https://socgov18.force.com/s/release/a183h000003KWXw"
"REL-008097","61","1882","Lowry Air Force Base","8496 E Academy Pkwy","Denver","80230","CO","Denver","Closed","2/26/1992","3/16/2004","Tier I","Jane Bral","303-318-8510","jane.bral@state.co.us","39.719067","-104.896966","39.719067, -104.896966","Tank",,,"https://socgov18.force.com/s/release/a183h000003KXMZ"
"REL-010449","62","7851","Sears Roebuck & Co","205 E Foothills Pkwy","Fort Collins","80525","CO","Larimer","Closed","12/7/1993","9/9/1997","Pre-RBCA","Dennis Hotovec","303-318-4357","cdle_ops_public_record_center@state.co.us","40.542014","-105.075096","40.542014, -105.075096",,,,"https://socgov18.force.com/s/release/a183h000003KXyV"
"REL-008098","63","1882","Lowry Air Force Base","8496 E Academy Pkwy","Denver","80230","CO","Denver","Closed","2/26/1992","1/17/2002","Tier I","Steve Noel","303-318-4357","cdle_ops_public_record_center@state.co.us","39.719067","-104.896966","39.719067, -104.896966",,,,"https://socgov18.force.com/s/release/a183h000003KXMa"
"REL-008821","64","10794","Garnsey & Wheeler Co","804 W Main","New Castle","81647","CO","Garfield","Closed","10/25/1993","1/5/1994","Pre-RBCA","Donna Stoner","303-318-4357","cdle_ops_public_record_center@state.co.us","39.570818","-107.540555","39.570818, -107.540555",,,,"https://socgov18.force.com/s/release/a183h000003KXYF"
"REL-006239","65","12955","Good Times Burgers","2175 Sheridan Blvd","Edgewater","80214","CO","Jefferson","Closed","4/26/1994","3/23/1995","Pre-RBCA","Andy Flurkey","303-318-4357","cdle_ops_public_record_center@state.co.us","39.749251","-105.05334","39.749251, -105.05334",,,,"https://socgov18.force.com/s/release/a183h000003KWsb"
"REL-012350","67","9652","Century Tel - La Junta Central Ofc","610 Colorado Ave","La Junta","81050","CO","Otero","Closed","8/30/1994","2/15/1995","Pre-RBCA","Dennis Hotovec","303-318-4357","cdle_ops_public_record_center@state.co.us","37.982301","-103.54317","37.982301, -103.54317",,,,"https://socgov18.force.com/s/release/a183h000003KYTA"
"REL-008102","68","1882","Lowry Air Force Base","8496 E Academy Pkwy","Denver","80230","CO","Denver","Closed","2/26/1992","2/9/1995","Pre-RBCA","Andy Flurkey","303-318-4357","cdle_ops_public_record_center@state.co.us","39.719067","-104.896966","39.719067, -104.896966",,,,"https://socgov18.force.com/s/release/a183h000003KXMe"
"REL-009155","69","13383","Parkway Market Center","6000 Dahlia St","Commerce City","80022","CO","Adams","Closed",,"5/25/1995","Pre-RBCA","Ed Larock","303-318-4357","cdle_ops_public_record_center@state.co.us","39.805193","-104.931206","39.805193, -104.931206",,,,"https://socgov18.force.com/s/release/a183h000003KXdd"
"REL-002889","70","5384","Cliff Brice Station","701 W 4th St","Pueblo","81003","CO","Pueblo","Closed","9/8/1995","12/12/1995","Pre-RBCA","Andy Flurkey","303-318-4357","cdle_ops_public_record_center@state.co.us","38.270837","-104.616686","38.270837, -104.616686",,,,"https://socgov18.force.com/s/release/a183h000003KW0Z"
"REL-004437","71","6460","Twin Star Energy #535","16920 E Quincy Ave","Aurora","80015","CO","Arapahoe","Closed","10/2/1996","7/8/1997","Pre-RBCA","Jennifer Steffes","303-318-4357","cdle_ops_public_record_center@state.co.us","39.638041","-104.789866","39.638041, -104.789866",,,,"https://socgov18.force.com/s/release/a183h000003KWPX"
"REL-009756","72","8479","Rawhide Energy Station","2700 E Larimer CR 82","Wellington","80549","CO","Larimer","Closed",,"7/22/1994","Pre-RBCA","Robert Shoup","303-318-4357","cdle_ops_public_record_center@state.co.us","40.841348","-105.026233","40.841348, -105.026233",,,,"https://socgov18.force.com/s/release/a183h000003KXnK"
"REL-008491","73","12909","Mill Site #29 - Mountain Casino Properties","110 Main St","Black Hawk","80422","CO","Gilpin","Closed","4/13/1992","12/17/1997","Pre-RBCA","Dennis Hotovec","303-318-4357","cdle_ops_public_record_center@state.co.us","39.801642","-105.493382","39.801642, -105.493382",,,,"https://socgov18.force.com/s/release/a183h000003KXSv"
"REL-004383","74","1628","Belleview Service Center","1800 W Sheri Ln","Littleton","80120","CO","Arapahoe","Closed","4/9/1992","11/18/1994","Pre-RBCA","Larry Delin","303-318-4357","cdle_ops_public_record_center@state.co.us","39.622811","-105.008458","39.622811, -105.008458",,,,"https://socgov18.force.com/s/release/a183h000003KWOf"
"REL-011223","75","8047","Stop N Save #3","723 Horizon Dr","Grand Junction","81506","CO","Mesa","Closed","1/31/1991","2/25/2022","Tier II","John Ritchie","303-318-8548","john.ritchie@state.co.us","39.109701","-108.542561","39.109701, -108.542561","Historical contamination","Other",,"https://socgov18.force.com/s/release/a183h000003KYAz"
"REL-010835","76","8233","King Soopers #40 Fuel Center","198 S Union Blvd","Lakewood","80228","CO","Jefferson","Closed",,"5/24/1996","Pre-RBCA","Ed Larock","303-318-4357","cdle_ops_public_record_center@state.co.us","39.712029","-105.132709","39.712029, -105.132709",,,,"https://socgov18.force.com/s/release/a183h000003KY4j"
"REL-008879","77","4363","Spradley Lincoln Mercury","2500 W 104th Ave","Denver","80234","CO","Adams","Closed",,"8/7/1996","Pre-RBCA","Eric Gillespie","303-318-4357","cdle_ops_public_record_center@state.co.us","39.884148","-105.017356","39.884148, -105.017356",,,,"https://socgov18.force.com/s/release/a183h000003KXZB"
"REL-003366","79","7437","CDOT Las Animas","52 Bent Ave","Las Animas","81054","CO","Bent","Closed","12/23/1989","7/21/2000","Pre-RBCA","Eric Gillespie","303-318-4357","cdle_ops_public_record_center@state.co.us","38.073068","-103.219899","38.073068, -103.219899",,,,"https://socgov18.force.com/s/release/a183h000003KW8G"
"REL-010173","80","12241","Rulison Compressor Station","10 Mi S Of Silt","Silt","81652","CO","Garfield","Closed","11/19/1992","12/11/1992","Pre-RBCA","Edgar Ethington","303-318-4357","cdle_ops_public_record_center@state.co.us","39.452","-107.903","39.452, -107.903",,,,"https://socgov18.force.com/s/release/a183h000003KXu3"
"REL-008103","81","1882","Lowry Air Force Base","8496 E Academy Pkwy","Denver","80230","CO","Denver","Closed","2/26/1992","6/7/1995","Pre-RBCA","Andy Flurkey","303-318-4357","cdle_ops_public_record_center@state.co.us","39.719067","-104.896966","39.719067, -104.896966",,,,"https://socgov18.force.com/s/release/a183h000003KXMf"
"REL-011106","82","12510","State Steamplant PSC","1341 Sherman St","Denver","80203","CO","Denver","Closed","11/27/1991","1/28/1992","Pre-RBCA","Lisa Weers","303-318-4357","cdle_ops_public_record_center@state.co.us","39.737797","-104.984977","39.737797, -104.984977",,,,"https://socgov18.force.com/s/release/a183h000003KY96"
"REL-005941","83","3724","Conocar Service Center","1395 Peoria St","Aurora","80011","CO","Adams","Closed","5/1/1989","9/12/2007","Tier II","Mike Kwiecinski","303-318-4357","cdle_ops_public_record_center@state.co.us","39.738528","-104.847451","39.738528, -104.847451",,,,"https://socgov18.force.com/s/release/a183h000003KWnn"
"REL-008104","84","1882","Lowry Air Force Base","8496 E Academy Pkwy","Denver","80230","CO","Denver","Closed","2/26/1992","5/9/2000","Pre-RBCA","Steve Noel","303-318-4357","cdle_ops_public_record_center@state.co.us","39.719067","-104.896966","39.719067, -104.896966",,,,"https://socgov18.force.com/s/release/a183h000003KXMg"
"REL-006111","85","12772","Geneva Financial Corp","4001 W 32nd Ave","Denver","80212","CO","Denver","Closed","8/6/1993","6/24/1994","Pre-RBCA","Kathy Kosklin","303-318-4357","cdle_ops_public_record_center@state.co.us","39.762364","-105.039627","39.762364, -105.039627",,,,"https://socgov18.force.com/s/release/a183h000003KWqX"
"REL-001837","86","11550","Eldora Mountain Resort","2861 Eldora Ski Rd 140","Nederland","80466","CO","Boulder","Closed","1/27/1992","12/3/1993","Pre-RBCA","Joe'l Lambe","303-318-4357","cdle_ops_public_record_center@state.co.us","39.936816","-105.58111","39.936816, -105.58111",,,,"https://socgov18.force.com/s/release/a183h000003KVjb"
"REL-001117","87","10633","Clear Creek Distributing","I-70 Exit 243 Hidden Valley","Idaho Springs","80452","CO","Clear Creek","Closed","10/26/1993","4/19/2005","Tier II","John Gould","303-318-4357","cdle_ops_public_record_center@state.co.us","39.747595","-105.461926","39.747595, -105.461926",,,,"https://socgov18.force.com/s/release/a183h000003KVXz"
"REL-012900","88","2958","Crested Butte Mountain Resorts","12 Snowmass Rd Whetstone Bldg","Crested Butte","81224","CO","Gunnison","Closed","9/10/1996","9/13/1996","Pre-RBCA","Robert Shoup","303-318-4357","cdle_ops_public_record_center@state.co.us","38.898902","-106.965861","38.898902, -106.965861",,,,"https://socgov18.force.com/s/release/a183h000003KYc2"
"REL-011649","89","12357","Thompson Garage","810 N 11th Ave","Greeley","80631","CO","Weld","Closed","8/7/1991","11/14/1997","Pre-RBCA","Dennis Hotovec","303-318-4357","cdle_ops_public_record_center@state.co.us","40.442729","-104.696679","40.442729, -104.696679",,,,"https://socgov18.force.com/s/release/a183h000003KYHr"
"REL-004261","90","13716","Auto Repair Shop","218 3rd St","Paonia","81428","CO","Delta","Closed",,"11/6/1997","Pre-RBCA","Steve Noel","303-318-4357","cdle_ops_public_record_center@state.co.us","38.868705","-107.596854","38.868705, -107.596854",,,,"https://socgov18.force.com/s/release/a183h000003KWMh"
"REL-007188","91","5266","K&s Automotive","3042 W Pikes Peak Ave","Colorado Springs","80909","CO","El Paso","Closed",,"2/9/1995","Pre-RBCA","Cindy Silva-Burbach","303-318-4357","cdle_ops_public_record_center@state.co.us","38.853648","-104.871221","38.853648, -104.871221",,,,"https://socgov18.force.com/s/release/a183h000003KX7u"
"REL-001232","93","2187","Consolidated Freightways","1270 Boston Ave","Longmont","80501","CO","Boulder","Closed","8/5/1994","6/27/1996","Pre-RBCA","Andy Flurkey","303-318-4357","cdle_ops_public_record_center@state.co.us","40.158844","-105.113874","40.158844, -105.113874",,,,"https://socgov18.force.com/s/release/a183h000003KVZq"
"REL-011020","94","13004","Spears Chiropractic Hospital","927 Jersey St","Denver","80220","CO","Denver","Closed","2/21/1997",,"Administrative","Greg Johnson","303-318-4357","cdle_ops_public_record_center@state.co.us","39.730718","-104.919582","39.730718, -104.919582",,,,"https://socgov18.force.com/s/release/a183h000003KY7i"
"REL-009387","95","4172","Pikes Peak Highway Garage","Pikes Peak Summit 6 Mi From Tollgate","Cascade","80809","CO","El Paso","Closed","9/29/1993","2/27/1997","Pre-RBCA","Robert Shoup","303-318-4357","cdle_ops_public_record_center@state.co.us","38.919783","-105.021311","38.919783, -105.021311",,,,"https://socgov18.force.com/s/release/a183h000003KXhN"
"REL-009746","96","7848","Rangely RCLR","2 Mi S On Hwy 139","Rangely","81648","CO","Rio Blanco","Closed",,"2/14/1997","Pre-RBCA","Julie Cotter","303-318-4357","cdle_ops_public_record_center@state.co.us",,,",",,,,"https://socgov18.force.com/s/release/a183h000003KXnA"
"REL-006145","97","12624","Giambrocco Food Service","3608 Wazee St","Denver","80216","CO","Denver","Closed","10/10/1991","5/28/1996","Pre-RBCA","Ed Larock","303-318-4357","cdle_ops_public_record_center@state.co.us","39.769667","-104.976217","39.769667, -104.976217",,,,"https://socgov18.force.com/s/release/a183h000003KWr5"
"REL-000653","98","5121","Barter Machinery & Supply","100 S Santa Fe Dr","Denver","80223","CO","Denver","Closed","1/27/1993","1/31/1996","Pre-RBCA","Ed Larock","303-318-4357","cdle_ops_public_record_center@state.co.us","39.714642","-104.998136","39.714642, -104.998136",,,,"https://socgov18.force.com/s/release/a183h000003KVQV"
"REL-004586","99","3253","Alpine Motor Sports Inc","1020 Motor City Dr","Colorado Springs","80906","CO","El Paso","Closed","6/16/1993","7/26/1993","Pre-RBCA","Edgar Ethington","303-318-4357","cdle_ops_public_record_center@state.co.us","38.819557","-104.837188","38.819557, -104.837188",,,,"https://socgov18.force.com/s/release/a183h000003KWRw"
"REL-003000","100","10019","Amoco #3705","6390 E Hampden Ave","Denver","80222","CO","Denver","Closed","10/1/1990","6/9/1997","Pre-RBCA","Julie Cotter","303-318-4357","cdle_ops_public_record_center@state.co.us","39.653028","-104.914561","39.653028, -104.914561",,,,"https://socgov18.force.com/s/release/a183h000003KW2M"
"REL-011019","101","13004","Spears Chiropractic Hospital","927 Jersey St","Denver","80220","CO","Denver","Closed","1/13/1994","6/30/1995","Pre-RBCA","Eric Gillespie","303-318-4357","cdle_ops_public_record_center@state.co.us","39.730718","-104.919582","39.730718, -104.919582",,,,"https://socgov18.force.com/s/release/a183h000003KY7h"
"REL-009385","102","4172","Pikes Peak Highway Garage","Pikes Peak Summit 6 Mi From Tollgate","Cascade","80809","CO","El Paso","Closed","11/6/1990","2/26/1997","Pre-RBCA","Robert Shoup","303-318-4357","cdle_ops_public_record_center@state.co.us","38.919783","-105.021311","38.919783, -105.021311",,,,"https://socgov18.force.com/s/release/a183h000003KXhL"
"REL-009115","103","3248","Sheltair Aviation Denver LLC","9616 Metro Airport Ave","Broomfield","80021","CO","Broomfield","Closed",,"7/12/1999","Pre-RBCA","Dennis Hotovec","303-318-4357","cdle_ops_public_record_center@state.co.us","39.910916","-105.104909","39.910916, -105.104909",,,,"https://socgov18.force.com/s/release/a183h000003KXcz"
"REL-006443","104","1355","Grimm Construction Co Inc","5989 W Louviers Ave","Louviers","80131","CO","Douglas","Closed",,"8/1/1995","Pre-RBCA","Cindy Silva-Burbach","303-318-4357","cdle_ops_public_record_center@state.co.us","39.481325","-104.996183","39.481325, -104.996183",,,,"https://socgov18.force.com/s/release/a183h000003KWvt"
"REL-009765","105","8810","Raymond F Visintin Property","2300 E 40th Ave","Denver","80205","CO","Denver","Closed",,,"Administrative","Larry Delin","303-318-4357","cdle_ops_public_record_center@state.co.us","39.77198","-104.958871","39.77198, -104.958871",,,,"https://socgov18.force.com/s/release/a183h000003KXnT"
"REL-002195","106","2027","Denver Housing Authority","1100 W Colfax Ave","Denver","80204","CO","Denver","Closed","6/9/1998","6/10/1998","Pre-RBCA","Dennis Hotovec","303-318-4357","cdle_ops_public_record_center@state.co.us","39.739635","-105.002195","39.739635, -105.002195",,,,"https://socgov18.force.com/s/release/a183h000003KVpN"
"REL-008086","107","1882","Lowry Air Force Base","8496 E Academy Pkwy","Denver","80230","CO","Denver","Closed","2/26/1992","2/9/1995","Pre-RBCA","Andy Flurkey","303-318-4357","cdle_ops_public_record_center@state.co.us","39.719067","-104.896966","39.719067, -104.896966",,,,"https://socgov18.force.com/s/release/a183h000003KXMO"
"REL-004431","108","12652","Bannock Center Properties","875 Bannock St","Denver","80204","CO","Denver","Closed","1/1/1984","10/30/1996","Pre-RBCA","Steve Noel","303-318-4357","cdle_ops_public_record_center@state.co.us","39.730332","-104.990606","39.730332, -104.990606",,,,"https://socgov18.force.com/s/release/a183h000003KWPR"
"REL-007796","109","9656","Liquid Air Corp","1450 5th St","Denver","80204","CO","Denver","Closed","7/9/1990","5/7/1997","Pre-RBCA","Dennis Hotovec","303-318-4357","cdle_ops_public_record_center@state.co.us","39.743933","-105.012748","39.743933, -105.012748",,,,"https://socgov18.force.com/s/release/a183h000003KXHi"
"REL-003951","110","492","Jazz Car Wash & Detailing","6095 S Santa Fe Dr","Littleton","80120","CO","Arapahoe","Closed",,"1/12/1998","Pre-RBCA","Julie Cotter","303-318-4357","cdle_ops_public_record_center@state.co.us","39.606334","-105.021132","39.606334, -105.021132",,,,"https://socgov18.force.com/s/release/a183h000003KWHh"
"REL-012147","111","220","UPS Boulder Center","3795 Frontier St","Boulder","80302","CO","Boulder","Closed","11/25/1992","12/31/1996","Pre-RBCA","Joe'l Lambe","303-318-4357","cdle_ops_public_record_center@state.co.us","40.022105","-105.246207","40.022105, -105.246207",,,,"https://socgov18.force.com/s/release/a183h000003KYPt"
"REL-008915","112","7242","Northlake Park","29th & Taft Ave","Loveland","80537","CO","Larimer","Closed",,"4/8/1994","Pre-RBCA","Kathy Kosklin","303-318-4357","cdle_ops_public_record_center@state.co.us","40.421671","-105.096814","40.421671, -105.096814",,,,"https://socgov18.force.com/s/release/a183h000003KXZl"
"REL-001576","113","2446","Clarence M & Jerry Carosella","6212 W Colfax Ave","Lakewood","80214","CO","Jefferson","Closed","9/14/1992","11/28/1995","Pre-RBCA","Cindy Silva-Burbach","303-318-4357","cdle_ops_public_record_center@state.co.us","39.740041","-105.065231","39.740041, -105.065231",,,,"https://socgov18.force.com/s/release/a183h000003KVfO"
"REL-002290","114","6807","Daniels Motors Inc","320 S 8th St","Colorado Springs","80903","CO","El Paso","Closed","12/18/1990","6/21/1995","Pre-RBCA","Cindy Silva-Burbach","303-318-4357","cdle_ops_public_record_center@state.co.us","38.830236","-104.840802","38.830236, -104.840802",,,,"https://socgov18.force.com/s/release/a183h000003KVqu"
"REL-009496","115","9657","Poudre Valley Rea Inc","4809 S College Ave","Fort Collins","80525","CO","Larimer","Closed","8/1/1990","8/25/1995","Pre-RBCA","Joe'l Lambe","303-318-4357","cdle_ops_public_record_center@state.co.us","40.520305","-105.078658","40.520305, -105.078658",,,,"https://socgov18.force.com/s/release/a183h000003KXj8"
"REL-008617","116","1359","Montrose Armory","1100 S Townsend Ave","Montrose","81401","CO","Montrose","Closed","6/9/1993","4/14/1995","Pre-RBCA","Edgar Ethington","303-318-4357","cdle_ops_public_record_center@state.co.us","38.470038","-107.868356","38.470038, -107.868356",,,,"https://socgov18.force.com/s/release/a183h000003KXUx"
"REL-005844","117","3524","Mancinellis Inc","375 Logan St","Denver","80203","CO","Denver","Closed","8/3/1990","8/16/1996","Pre-RBCA","Jennifer Steffes","303-318-4357","cdle_ops_public_record_center@state.co.us","39.722283","-104.983034","39.722283, -104.983034",,,,"https://socgov18.force.com/s/release/a183h000003KWmE"
"REL-008378","118","13646","Meridian Golf Club","9742 S Meridian Blvd","Englewood","80112","CO","Arapahoe","Closed","2/13/1996","11/26/1997","Pre-RBCA","Marilyn Hajicek","303-318-4357","cdle_ops_public_record_center@state.co.us","39.542626","-104.852414","39.542626, -104.852414",,,,"https://socgov18.force.com/s/release/a183h000003KXR6"
"REL-011115","119","8049","Steamboat Springs Maintenance","Moffat Ave","Steamboat Springs","80477","CO","Routt","Closed","8/23/1996","12/10/1996","Pre-RBCA","Robert Shoup","303-318-4357","cdle_ops_public_record_center@state.co.us","40.495549","-106.883854","40.495549, -106.883854",,,,"https://socgov18.force.com/s/release/a183h000003KY9F"
"REL-002451","120","10522","CSP Dowd Junction #49431","41413 Hwy 6 & 40","Avon","81620","CO","Eagle","Closed","10/24/1991","8/6/1996","Pre-RBCA","Ed Larock","303-318-4357","cdle_ops_public_record_center@state.co.us","39.62104","-106.469","39.62104, -106.469",,,,"https://socgov18.force.com/s/release/a183h000003KVtV"
"REL-006881","121","12110","Inland Riggle Oil Co","430 2nd Ave","Grand Junction","81505","CO","Mesa","Closed","2/25/2002","9/8/2006","Tier II","Dawn Anderson","303-318-4357","cdle_ops_public_record_center@state.co.us","39.060698","-108.558509","39.060698, -108.558509",,,,"https://socgov18.force.com/s/release/a183h000003KX2x"
"REL-008872","122","10634","North Jeffco Recreation & Parks","7273 W 56th Pl","Arvada","80002","CO","Jefferson","Closed","10/1/1992","8/29/1995","Pre-RBCA","Dennis Hotovec","303-318-4357","cdle_ops_public_record_center@state.co.us","39.798586","-105.078021","39.798586, -105.078021",,,,"https://socgov18.force.com/s/release/a183h000003KXZ4"
"REL-012897","123","2958","Crested Butte Mountain Resorts","12 Snowmass Rd Whetstone Bldg","Crested Butte","81224","CO","Gunnison","Closed","12/19/1990","4/20/1998","Pre-RBCA","Robert Shoup","303-318-4357","cdle_ops_public_record_center@state.co.us","38.898902","-106.965861","38.898902, -106.965861",,,,"https://socgov18.force.com/s/release/a183h000003KYbz"
"REL-002962","124","330","City Of Arvada Indiana Maintenance Shop","6701 Indiana St","Arvada","80007","CO","Jefferson","Closed","4/23/1991","12/15/1994","Administrative","Steve Noel","303-318-4357","cdle_ops_public_record_center@state.co.us","39.817497","-105.167927","39.817497, -105.167927",,,,"https://socgov18.force.com/s/release/a183h000003KW1k"
"REL-010003","125","11455","Robert P Marx","201 Main St","Longmont","80501","CO","Boulder","Closed","2/28/1991","3/18/1998","Pre-RBCA","Dennis Hotovec","303-318-4357","cdle_ops_public_record_center@state.co.us","40.162034","-105.102642","40.162034, -105.102642",,,,"https://socgov18.force.com/s/release/a183h000003KXrJ"
"REL-012261","126","2514","Leadville National Fish Hatch","2844 Hwy 300","Leadville","80461","CO","Lake","Closed",,"7/18/1997","Sent to Another Agency","Julie Cotter","303-318-4357","cdle_ops_public_record_center@state.co.us","39.225377","-106.390222","39.225377, -106.390222",,,,"https://socgov18.force.com/s/release/a183h000003KYRj"
"REL-004338","127","7209","FKA: Arvada Glass","9602 Ralston Rd","Arvada","80004","CO","Jefferson","Closed","4/9/1993","7/26/1995","Pre-RBCA","Cindy Silva-Burbach","303-318-4357","cdle_ops_public_record_center@state.co.us","39.803583","-105.105586","39.803583, -105.105586",,,,"https://socgov18.force.com/s/release/a183h000003KWNw"
"REL-000783","128","5238","S Cherokee Property","1350 S Cherokee St","Denver","80223","CO","Denver","Closed","12/18/1993","4/26/1995","Pre-RBCA","Ed Larock","303-318-4357","cdle_ops_public_record_center@state.co.us","39.691846","-104.990162","39.691846, -104.990162",,,,"https://socgov18.force.com/s/release/a183h000003KVSb"
"REL-007028","129","6312","G & S Campus Corner","830 N Nevada","Colorado Springs","80903","CO","El Paso","Closed","12/19/1990","10/20/1994","Pre-RBCA","Ed Larock","303-318-4357","cdle_ops_public_record_center@state.co.us","38.846111","-104.821448","38.846111, -104.821448",,,,"https://socgov18.force.com/s/release/a183h000003KX5K"
"REL-006092","130","2289","General Air Service & Supply Co","1105 Zuni St","Denver","80204","CO","Denver","Closed","4/30/1995","6/19/1995","Pre-RBCA","Cindy Silva-Burbach","303-318-4357","cdle_ops_public_record_center@state.co.us","39.734549","-105.016083","39.734549, -105.016083",,,,"https://socgov18.force.com/s/release/a183h000003KWqE"
"REL-000732","131","13342","Boston Chicken","150 Wadsworth Blvd","Lakewood","80226","CO","Jefferson","Closed","1/6/1995","3/13/1995","Pre-RBCA","Dennis C. Hotovec","303-318-4357","cdle_ops_public_record_center@state.co.us","39.719621","-105.081018","39.719621, -105.081018",,,,"https://socgov18.force.com/s/release/a183h000003KVRm"
"REL-005871","132","7327","Frito-lay","7502 S Grant St","Littleton","80122","CO","Arapahoe","Closed","2/5/1993","3/8/1993","Pre-RBCA","Edgar Ethington","303-318-4357","cdle_ops_public_record_center@state.co.us","39.580079","-104.983997","39.580079, -104.983997",,,,"https://socgov18.force.com/s/release/a183h000003KWmf"
"REL-011080","133","13568","Stapleton Braniff Fuel Farm","8200 E Martin Luther King Blvd","Denver","80207","CO","Denver","Closed","10/4/1996",,"Administrative","Steve Noel","303-318-4357","cdle_ops_public_record_center@state.co.us",,,",",,,,"https://socgov18.force.com/s/release/a183h000003KY8g"
"REL-008240","134","12323","Marshall Paper Recycling Plant","1/4 Mi S Of Marshall Rd On S-66 Road","Boulder","80303","CO","Boulder","Closed","7/30/1991","3/6/1995","Pre-RBCA","Kathy Kosklin","303-318-4357","cdle_ops_public_record_center@state.co.us","39.95861","-105.19861","39.95861, -105.19861",,,,"https://socgov18.force.com/s/release/a183h000003KXOs"
"REL-006840","135","3609","I-70 & Washington Conoco","4605 N Washington","Denver","80216","CO","Denver","Closed","11/29/1990","9/18/1992","Pre-RBCA","Larry Delin","303-318-4357","cdle_ops_public_record_center@state.co.us","39.780366","-104.97913","39.780366, -104.97913",,,,"https://socgov18.force.com/s/release/a183h000003KX2I"
"REL-001982","136","7099","Dixon Paper Co","3900 Lima St","Denver","80239","CO","Denver","Closed","3/19/1990","10/6/1997","Pre-RBCA","Dennis Hotovec","303-318-4357","cdle_ops_public_record_center@state.co.us","39.771239","-104.854853","39.771239, -104.854853",,,,"https://socgov18.force.com/s/release/a183h000003KVlw"
"REL-011474","137","10907","Texaco","2712 E Fountain Blvd","Colorado Springs","80910","CO","El Paso","Closed","1/21/1992","1/14/2002","Tier I","Mahesh Albuquerque","303-318-4357","cdle_ops_public_record_center@state.co.us","38.817844","-104.78121","38.817844, -104.78121",,,,"https://socgov18.force.com/s/release/a183h000003KYF2"
"REL-004525","138","322","Academy Maintenance Facility","10221 Lexington Dr","Colorado Springs","80920","CO","El Paso","Closed",,"8/30/1995","Pre-RBCA","Joe'l Lambe","303-318-4357","cdle_ops_public_record_center@state.co.us","38.978827","-104.776315","38.978827, -104.776315",,,,"https://socgov18.force.com/s/release/a183h000003KWQx"
"REL-003893","139","12164","Bridgestone-Firestone Inc","7200 W Alameda Ave","Lakewood","80226","CO","Jefferson","Closed","10/8/1992","5/28/1996","Pre-RBCA","Ed Larock","303-318-4357","cdle_ops_public_record_center@state.co.us","39.710032","-105.080614","39.710032, -105.080614",,,,"https://socgov18.force.com/s/release/a183h000003KWGl"
"REL-004079","140","10895","Boyd Distributing Co","350 Osage St","Denver","80223","CO","Denver","Closed","12/30/1991","4/30/1992","Pre-RBCA","Joe'l Lambe","303-318-4357","cdle_ops_public_record_center@state.co.us","39.720976","-105.005561","39.720976, -105.005561",,,,"https://socgov18.force.com/s/release/a183h000003KWJl"
"REL-011780","141","9758","Mile High Gas","301 Havana St","Aurora","80010","CO","Adams","Closed","3/22/1993","2/9/1996","Pre-RBCA","Tom Fox","303-318-8535","tom.fox@state.co.us","39.720403","-104.866441","39.720403, -104.866441","Unknown","Unknown",,"https://socgov18.force.com/s/release/a183h000003KYJy"
"REL-011287","142","12705","Summit Observatory","Mount Evans","Idaho Springs","80452","CO","Clear Creek","Closed","7/8/1993","12/17/1996","Pre-RBCA","Robert Shoup","303-318-4357","cdle_ops_public_record_center@state.co.us","39.713508","-105.581619","39.713508, -105.581619",,,,"https://socgov18.force.com/s/release/a183h000003KYC1"
"REL-009745","143","605","Rangely Compressor Station","68847 Hwy 139","Rangely","81648","CO","Rio Blanco","Closed","9/17/1990","9/17/1990","Pre-RBCA","Joe'l Lambe","303-318-4357","cdle_ops_public_record_center@state.co.us","40.066812","-108.770476","40.066812, -108.770476",,,,"https://socgov18.force.com/s/release/a183h000003KXn9"
"REL-012149","144","8885","United Parcel Service","3101 S Platte River Dr","Englewood","80110","CO","Arapahoe","Closed","12/6/1995","1/12/1996","Pre-RBCA","Andy Flurkey","303-318-4357","cdle_ops_public_record_center@state.co.us","39.659113","-105.006046","39.659113, -105.006046",,,,"https://socgov18.force.com/s/release/a183h000003KYPv"
"REL-005896","145","13112","Frontier Station","Hwy 160","Pagosa Springs","81147","CO","Archuleta","Closed","5/31/1994","10/18/1994","Pre-RBCA","Lauri Lundie","303-318-4357","cdle_ops_public_record_center@state.co.us","37.338085","-106.942694","37.338085, -106.942694",,,,"https://socgov18.force.com/s/release/a183h000003KWn4"
"REL-006122","146","13007","George Washington High School","655 S Monaco Blvd","Denver","80224","CO","Denver","Closed",,,"Sent to Another Agency","Winifred Bromley","303-318-4357","cdle_ops_public_record_center@state.co.us","39.705762","-104.915052","39.705762, -104.915052",,,,"https://socgov18.force.com/s/release/a183h000003KWqi"
"REL-012832","147","1479","Roundup Compressor Sta","3064 Rd I","Wiggins","80654","CO","Morgan","Closed","1/10/1990","5/1/1996","Pre-RBCA","Jennifer Steffes","303-318-4357","cdle_ops_public_record_center@state.co.us","40.116875","-104.092786","40.116875, -104.092786",,,,"https://socgov18.force.com/s/release/a183h000003KYaw"
"REL-002639","148","601","Colowyo Mine","5731 Hwy 13","Meeker","81641","CO","Rio Blanco","Closed","9/19/1991","10/21/1992","Pre-RBCA","Edgar Ethington","303-318-4357","cdle_ops_public_record_center@state.co.us","40.29648","-107.785329","40.29648, -107.785329",,,,"https://socgov18.force.com/s/release/a183h000003KVwX"
"REL-001145","149","12679","Colorado Interstate Gas Spindle Plant","CR 19 & CR 14","Fort Lupton","80621","CO","Weld","Closed","6/18/1993","7/15/1993","Pre-RBCA","Edgar Ethington","303-318-4357","cdle_ops_public_record_center@state.co.us","40.09","-104.88333","40.09, -104.88333",,,,"https://socgov18.force.com/s/release/a183h000003KVYR"
"REL-004451","150","6557","Amoco #5477","505 E 84th Ave","Thornton","80229","CO","Adams","Closed","4/22/1988","3/8/2019","Tier IV","Tom Fox","303-318-8535","tom.fox@state.co.us","39.849383","-104.980113","39.849383, -104.980113",,,,"https://socgov18.force.com/s/release/a183h000003KWPl"
"REL-008868","151","1471","North Douglas Compressor Station","10 Mi S On Hwy 139","Rangely","81648","CO","Rio Blanco","Closed",,"4/4/1997","Pre-RBCA","Julie Cotter","303-318-4357","cdle_ops_public_record_center@state.co.us",,,",",,,,"https://socgov18.force.com/s/release/a183h000003KXZ0"
"REL-010200","152","10362","Summitville Mining","325 Grand Ave","Del Norte","81132","CO","Rio Grande","Closed",,"4/12/1996","Pre-RBCA","John Axelson","303-318-4357","cdle_ops_public_record_center@state.co.us","37.679173","-106.358254","37.679173, -106.358254",,,,"https://socgov18.force.com/s/release/a183h000003KXuU"
"REL-004447","153","4692","AT&T Pagosa Springs Rs","20 Mi SW Of Pagosa Springs","Pagosa Springs","81147","CO","Archuleta","Closed","10/21/1992","6/24/1996","Pre-RBCA","Robert Shoup","303-318-4357","cdle_ops_public_record_center@state.co.us",,,",",,,,"https://socgov18.force.com/s/release/a183h000003KWPh"
"REL-006622","154","3806","Hensley Battery & Supply","2031 Bryant St","Denver","80211","CO","Denver","Closed","5/21/1992","7/27/1992","Pre-RBCA","Doug Pratto","303-318-4357","cdle_ops_public_record_center@state.co.us","39.748217","-105.019199","39.748217, -105.019199",,,,"https://socgov18.force.com/s/release/a183h000003KWym"
"REL-004319","155","11751","Arco Product","11th & Spruce","Boulder","80302","CO","Boulder","Closed","8/15/1990","12/9/1991","Pre-RBCA","Larry Delin","303-318-4357","cdle_ops_public_record_center@state.co.us","40.01861","-105.28111","40.01861, -105.28111",,,,"https://socgov18.force.com/s/release/a183h000003KWNd"
"REL-002983","156","13517","City Of Canon City","322 Main St","Canon City","81215","CO","Fremont","Closed","10/10/1995","11/29/1996","Pre-RBCA","Julie Cotter","303-318-4357","cdle_ops_public_record_center@state.co.us","38.439445","-105.242228","38.439445, -105.242228",,,,"https://socgov18.force.com/s/release/a183h000003KW25"
"REL-012400","157","10070","Ute Water Conservancy Dist","2512 W Pinyon Ave","Grand Junction","81505","CO","Mesa","Closed",,"7/18/1997","Pre-RBCA","Julie Cotter","303-318-4357","cdle_ops_public_record_center@state.co.us","39.085872","-108.585515","39.085872, -108.585515",,,,"https://socgov18.force.com/s/release/a183h000003KYTy"
"REL-002344","158","11901","Datatrac Property","7581 N Broadway","Denver","80221","CO","Adams","Closed","6/12/1992","2/25/2000","Pre-RBCA","Winifred Bromley","303-318-4357","cdle_ops_public_record_center@state.co.us","39.834182","-104.987869","39.834182, -104.987869",,,,"https://socgov18.force.com/s/release/a183h000003KVrm"
"REL-012145","159","2042","United Materials Inc","1777 W 13th Ave","Denver","80204","CO","Denver","Closed","10/31/1991","1/12/1993","Pre-RBCA","Joe'l Lambe","303-318-4357","cdle_ops_public_record_center@state.co.us","39.736895","-105.011148","39.736895, -105.011148",,,,"https://socgov18.force.com/s/release/a183h000003KYPr"
"REL-006384","160","3982","Valley Stock Farm","27035 Hwy 36","Idalia","80735","CO","Yuma","Closed","1/29/1993","5/12/1999","Pre-RBCA","Steve Noel","303-318-4357","cdle_ops_public_record_center@state.co.us","39.702439","-102.290867","39.702439, -102.290867",,,,"https://socgov18.force.com/s/release/a183h000003KWuw"
"REL-005829","161","10366","Frank Paxton Lumber Co","4837 Jackson St","Denver","80216","CO","Denver","Closed","8/2/1993","11/12/1993","Pre-RBCA","Joe'l Lambe","303-318-4357","cdle_ops_public_record_center@state.co.us","39.785002","-104.943341","39.785002, -104.943341",,,,"https://socgov18.force.com/s/release/a183h000003KWlz"
"REL-010526","162","3092","Diamond Shamrock 646","4101 N Colorado Blvd","Denver","80216","CO","Denver","Closed","9/15/1989","9/21/2016","Tier IV","Vinny Secondo","303-318-4357","cdle_ops_public_record_center@state.co.us","39.77412","-104.941001","39.77412, -104.941001",,,,"https://socgov18.force.com/s/release/a183h000003KXzk"
"REL-003400","163","7719","CDOT Nunn","589 Adams Ave","Nunn","80648","CO","Weld","Closed","1/29/1991","2/7/1991","Pre-RBCA","Lisa Weers","303-318-4357","cdle_ops_public_record_center@state.co.us","40.702083","-104.779114","40.702083, -104.779114",,,,"https://socgov18.force.com/s/release/a183h000003KW8o"
"REL-002963","165","330","City Of Arvada Indiana Maintenance Shop","6701 Indiana St","Arvada","80007","CO","Jefferson","Closed","7/13/1993","12/15/1994","Pre-RBCA","Andy Flurkey","303-318-4357","cdle_ops_public_record_center@state.co.us","39.817497","-105.167927","39.817497, -105.167927",,,,"https://socgov18.force.com/s/release/a183h000003KW1l"
"REL-003884","166","12267","Breeze Ski Rental","11355 W 6th Ave","Lakewood","80228","CO","Jefferson","Closed","2/9/1993","5/31/1994","Pre-RBCA","Mark Walker","303-318-4357","cdle_ops_public_record_center@state.co.us","39.72626","-105.125597","39.72626, -105.125597",,,,"https://socgov18.force.com/s/release/a183h000003KWGc"
"REL-012202","167","13604","University Hills West Shopping Center","2553 S Colorado Blvd","Denver","80222","CO","Denver","Closed","11/21/1995",,"Administrative","Scott Winters","303-318-4357","cdle_ops_public_record_center@state.co.us","39.670621","-104.941533","39.670621, -104.941533",,,,"https://socgov18.force.com/s/release/a183h000003KYQm"
"REL-007296","168","12029","Killer Bee Motorcycle Shop","457 S 5th Ave","Grand Junction","81501","CO","Mesa","Closed",,,"Administrative","Dennis Hotovec","303-318-4357","cdle_ops_public_record_center@state.co.us","39.063847","-108.564731","39.063847, -108.564731",,,,"https://socgov18.force.com/s/release/a183h000003KX9e"
"REL-012302","169","7967","Qwest Safety & Environment","1855 S Flatiron Ct","Boulder","80301","CO","Boulder","Closed",,"12/27/1997","Pre-RBCA","Steve Noel","303-318-4357","cdle_ops_public_record_center@state.co.us","40.019675","-105.218556","40.019675, -105.218556",,,,"https://socgov18.force.com/s/release/a183h000003KYSO"
"REL-011090","170","1928","Vehicle Maintenance Center","8800 E Smith Rd","Denver","80207","CO","Denver","Closed",,"1/2/1996","Pre-RBCA","Ed Larock","303-318-4357","cdle_ops_public_record_center@state.co.us","39.769326","-104.876668","39.769326, -104.876668",,,,"https://socgov18.force.com/s/release/a183h000003KY8q"
"REL-002541","171","3366","Conoco East","210 E Olive St","Lamar","81052","CO","Prowers","Closed","8/30/1993","1/25/1995","Pre-RBCA","Ed Larock","303-318-4357","cdle_ops_public_record_center@state.co.us","38.088037","-102.616917","38.088037, -102.616917",,,,"https://socgov18.force.com/s/release/a183h000003KVux"
"REL-011945","172","12729","Tri-state Tool","2587 Hwy 6 & 50","Grand Junction","81505","CO","Mesa","Closed","11/27/1991","3/27/1998","Pre-RBCA","Dennis Hotovec","303-318-4357","cdle_ops_public_record_center@state.co.us",,,",",,,,"https://socgov18.force.com/s/release/a183h000003KYMd"
"REL-006656","173","11632","Hiawatha Colorado","62 Mi S from Rock Springs on Hwy 430","Maybell","81640","CO","Moffat","Closed","10/20/1995",,"Sent to Another Agency","Tim Kelley","303-318-4357","cdle_ops_public_record_center@state.co.us","0","0","0, 0",,,,"https://socgov18.force.com/s/release/a183h000003KWzK"
"REL-002141","174","10900","Rocky Ford Mini Mart","1305 Swink Ave","Rocky Ford","81067","CO","Otero","Closed","10/5/1989","1/24/2000","Pre-RBCA","Mahesh Albuquerque","303-318-4357","cdle_ops_public_record_center@state.co.us","38.052244","-103.713383","38.052244, -103.713383",,,,"https://socgov18.force.com/s/release/a183h000003KVoV"
"REL-008488","175","60","Mile-hi Culligan Water","2333 W Hampden Ave","Englewood","80110","CO","Arapahoe","Closed","11/12/1991","12/9/1991","Pre-RBCA","Joe'l Lambe","303-318-4357","cdle_ops_public_record_center@state.co.us","39.654031","-105.015586","39.654031, -105.015586",,,,"https://socgov18.force.com/s/release/a183h000003KXSs"
"REL-008853","176","13983","Nor-Colorado Distributing Co","2155 Midpoint","Fort Collins","80525","CO","Larimer","Closed","1/22/1990","9/30/1997","Pre-RBCA","Dennis Hotovec","303-318-4357","cdle_ops_public_record_center@state.co.us","40.564275","-105.037462","40.564275, -105.037462",,,,"https://socgov18.force.com/s/release/a183h000003KXYl"
"REL-003932","177","11819","BMC West Lumber","38005 Hwy 82","Aspen","81611","CO","Pitkin","Closed","11/7/1990","1/5/1995","Pre-RBCA","Joe'l Lambe","303-318-4357","cdle_ops_public_record_center@state.co.us","39.216619","-106.860494","39.216619, -106.860494",,,,"https://socgov18.force.com/s/release/a183h000003KWHO"
"REL-011756","178","13273","Top Of Lift #8 Sast 12","Snowmass Ski Area","Snowmass","81654","CO","Pitkin","Closed","12/2/1995","3/23/1995","Pre-RBCA","Joe'l Lambe","303-318-4357","cdle_ops_public_record_center@state.co.us",,,",",,,,"https://socgov18.force.com/s/release/a183h000003KYJa"
"REL-001827","179","11487","Downhill Pick-up","314 3rd St","Silverthorne","80498","CO","Summit","Closed","3/4/1990",,"Administrative","Dennis C. Hotovec","303-318-4357","cdle_ops_public_record_center@state.co.us","39.629589","-106.076992","39.629589, -106.076992",,,,"https://socgov18.force.com/s/release/a183h000003KVjR"
"REL-003783","180","1848","Buckley AFB Bldg 407","Bldg 407","Aurora","80011","CO","Arapahoe","Closed","12/1/1993","10/3/1997","Pre-RBCA","Edgar Ethington","303-318-4357","cdle_ops_public_record_center@state.co.us","39.702553","-104.757928","39.702553, -104.757928",,,,"https://socgov18.force.com/s/release/a183h000003KWEz"
"REL-010273","181","4049","Sales Oil Co","1900 S Pearl St","Denver","80210","CO","Denver","Closed","8/21/1991","2/20/1997","Pre-RBCA","Dennis Hotovec","303-318-4357","cdle_ops_public_record_center@state.co.us","39.681997","-104.980191","39.681997, -104.980191",,,,"https://socgov18.force.com/s/release/a183h000003KXvf"
"REL-003933","182","11819","BMC West Lumber","38005 Hwy 82","Aspen","81611","CO","Pitkin","Closed",,,"Administrative","Joe'l Lambe","303-318-4357","cdle_ops_public_record_center@state.co.us","39.216619","-106.860494","39.216619, -106.860494",,,,"https://socgov18.force.com/s/release/a183h000003KWHP"
"REL-010783","184","13313","Silver Street ROW","Silver St & 3rd St","Lake City","81235","CO","Hinsdale","Closed","3/31/1995","8/30/1995","Pre-RBCA","Dennis Hotovec","303-318-4357","cdle_ops_public_record_center@state.co.us","38.029533","-107.316913","38.029533, -107.316913",,,,"https://socgov18.force.com/s/release/a183h000003KY3t"
"REL-001483","185","13258","Edgewater Jeep Service","5397 W 25th Ave","Edgewater","80214","CO","Jefferson","Closed","11/5/1994","7/12/1999","Pre-RBCA","Winifred Bromley","303-318-4357","cdle_ops_public_record_center@state.co.us","39.753223","-105.055265","39.753223, -105.055265",,,,"https://socgov18.force.com/s/release/a183h000003KVdt"
"REL-011156","186","4907","Stevinson Nissan","2285 28th St","Boulder","80301","CO","Boulder","Closed","1/9/1992","5/21/1992","Pre-RBCA","Edgar Ethington","303-318-4357","cdle_ops_public_record_center@state.co.us","40.025213","-105.258899","40.025213, -105.258899",,,,"https://socgov18.force.com/s/release/a183h000003KY9u"
"REL-004970","187","11807","Arm Venture I","5975 N Washington","Denver","80216","CO","Denver","Closed","11/13/1989","5/1/1996","Pre-RBCA","Jennifer Steffes","303-318-4357","cdle_ops_public_record_center@state.co.us","39.804577","-104.978192","39.804577, -104.978192",,,,"https://socgov18.force.com/s/release/a183h000003KWY8"
"REL-008654","188","9929","Morgan County Rea","20169 US-34","Fort Morgan","80701","CO","Morgan","Closed","7/10/1991","6/30/1995","Pre-RBCA","Joe'l Lambe","303-318-4357","cdle_ops_public_record_center@state.co.us","40.254007","-103.768599","40.254007, -103.768599",,,,"https://socgov18.force.com/s/release/a183h000003KXVY"
"REL-002298","189","6003","Dare Co","800 N College Ave","Fort Collins","80524","CO","Larimer","Closed","7/17/1989","8/22/1996","Pre-RBCA","Eric Gillespie","303-318-4357","cdle_ops_public_record_center@state.co.us","40.597999","-105.076238","40.597999, -105.076238",,,,"https://socgov18.force.com/s/release/a183h000003KVr2"
"REL-000908","190","13590","CDOT Construction Project","5095 S Broadway","Englewood","80110","CO","Arapahoe","Closed","11/17/1995","3/3/1998","Pre-RBCA","Winifred Bromley","303-318-4357","cdle_ops_public_record_center@state.co.us","39.653528","-104.98769","39.653528, -104.98769",,,,"https://socgov18.force.com/s/release/a183h000003KVUc"
"REL-010566","191","8649","Diamond Shamrock 4068","429 S Nevada","Colorado Springs","80903","CO","El Paso","Closed","11/22/1996","8/11/2005","Tier II","Steve Noel","303-318-4357","cdle_ops_public_record_center@state.co.us","38.827016","-104.821621","38.827016, -104.821621",,,,"https://socgov18.force.com/s/release/a183h000003KY0O"
"REL-010051","193","12295","Rocky Mountain National Park","Hidden Valley Ski Lodgetrail Ridge Rd Hwy 34","Estes Park","80517","CO","Larimer","Closed","6/21/1991","9/21/1999","Pre-RBCA","Dennis Hotovec","303-318-4357","cdle_ops_public_record_center@state.co.us",,,",",,,,"https://socgov18.force.com/s/release/a183h000003KXs5"
"REL-003221","195","9286","BNRR Maintenance","I-25 Goddard Exit","Trinidad","81082","CO","Las Animas","Closed","2/26/1991","8/7/1996","Pre-RBCA","Robert Shoup","303-318-4357","cdle_ops_public_record_center@state.co.us","0","0","0, 0",,,,"https://socgov18.force.com/s/release/a183h000003KW5v"
"REL-006108","196","5173","Genes Pharmacy Mart","2406 Glen Ave","Glenwood Springs","81601","CO","Garfield","Closed","8/13/1993","11/26/1997","Pre-RBCA","Marilyn Hajicek","303-318-4357","cdle_ops_public_record_center@state.co.us","39.528417","-107.323896","39.528417, -107.323896",,,,"https://socgov18.force.com/s/release/a183h000003KWqU"
"REL-007184","197","2245","K N Sterling Colorado Garage","115 Broadway","Sterling","80751","CO","Logan","Closed","3/7/1988","2/25/1991","Pre-RBCA","Joe'l Lambe","303-318-4357","cdle_ops_public_record_center@state.co.us","40.632885","-103.199666","40.632885, -103.199666",,,,"https://socgov18.force.com/s/release/a183h000003KX7q"
"REL-003301","198","6600","Cedar Village Mobile Home Park","1611 Cedar Ave","Canon City","81212","CO","Fremont","Closed","4/9/1993","5/28/1996","Pre-RBCA","Ed Larock","303-318-4357","cdle_ops_public_record_center@state.co.us","38.42093","-105.208754","38.42093, -105.208754",,,,"https://socgov18.force.com/s/release/a183h000003KW7D"
"REL-001028","199","10584","Amoco Oil Co","3333 N Elizabeth St","Pueblo","81008","CO","Pueblo","Closed","7/3/1988","5/24/1996","Pre-RBCA","Ed Larock","303-318-4357","cdle_ops_public_record_center@state.co.us","38.304506","-104.615746","38.304506, -104.615746",,,,"https://socgov18.force.com/s/release/a183h000003KVWY"
"REL-011097","200","13027","Star Oil Co Bulk Plant","350 W D St","Pueblo","81002","CO","Pueblo","Closed","1/12/1994","10/26/1999","Pre-RBCA","Winifred Bromley","303-318-4357","cdle_ops_public_record_center@state.co.us","38.266153","-104.617242","38.266153, -104.617242",,,,"https://socgov18.force.com/s/release/a183h000003KY8x"
"REL-006058","201","6262","Alta  Convenience #6129","1500 N Main St","Longmont","80501","CO","Boulder","Closed","1/18/1990","6/29/2004","Tier I","Mike Kwiecinski","303-318-4357","cdle_ops_public_record_center@state.co.us","40.185132","-105.102229","40.185132, -105.102229",,,,"https://socgov18.force.com/s/release/a183h000003KWpg"
"REL-008369","202","4213","UCH-MHS","1400 E Boulder St","Colorado Springs","80909","CO","El Paso","Closed",,,"Administrative","Julie Cotter","303-318-4357","cdle_ops_public_record_center@state.co.us","38.839385","-104.799426","38.839385, -104.799426",,,,"https://socgov18.force.com/s/release/a183h000003KXQx"
"REL-010417","203","2498","Loaf N Jug #828","561 Big Thompson Ave","Estes Park","80517","CO","Larimer","Closed","4/5/1993","1/3/2012","Tier II","Dawn Anderson","303-318-4357","cdle_ops_public_record_center@state.co.us","40.379701","-105.514366","40.379701, -105.514366",,,,"https://socgov18.force.com/s/release/a183h000003KXxz"
"REL-008712","205","1415","City of Westminster - Municipal Service Center","6545 W 88th Ave","Westminster","80031","CO","Jefferson","Closed","9/23/1994","11/17/1995","Pre-RBCA","Larry Delin","303-318-4357","cdle_ops_public_record_center@state.co.us","39.856836","-105.069572","39.856836, -105.069572",,,,"https://socgov18.force.com/s/release/a183h000003KXWU"
"REL-006261","206","5317","Best West Tire","3287 S Academy Blvd","Colorado Springs","80916","CO","El Paso","Closed",,"2/8/1994","Pre-RBCA","Dennis Hotovec","303-318-4357","cdle_ops_public_record_center@state.co.us","38.784912","-104.757311","38.784912, -104.757311",,,,"https://socgov18.force.com/s/release/a183h000003KWsx"
"REL-005806","207","6258","Fountain Valley School","6155 Fountain Valley School Rd","Colorado Springs","80911","CO","El Paso","Closed","10/15/1990","11/24/2004","Tier I","Dawn Anderson","303-318-4357","cdle_ops_public_record_center@state.co.us","38.743189","-104.711107","38.743189, -104.711107","Tank",,,"https://socgov18.force.com/s/release/a183h000003KWlc"
"REL-009906","208","5554","Rifle Correctional Center","0200 CR 219","Rifle","81650","CO","Garfield","Closed","3/28/1996","6/8/2000","Tier I","Mahesh Albuquerque","303-318-4357","cdle_ops_public_record_center@state.co.us","39.653581","-107.778844","39.653581, -107.778844",,,,"https://socgov18.force.com/s/release/a183h000003KXpk"
"REL-012065","209","11879","U-save Auto Rental","2803 E Fountain Blvd","Colorado Springs","80910","CO","El Paso","Closed","12/18/1989","4/3/1998","Pre-RBCA","Dennis Hotovec","303-318-4357","cdle_ops_public_record_center@state.co.us","38.817249","-104.779817","38.817249, -104.779817",,,,"https://socgov18.force.com/s/release/a183h000003KYOZ"
"REL-008713","210","1415","City of Westminster - Municipal Service Center","6545 W 88th Ave","Westminster","80031","CO","Jefferson","Implementing CAP","1/23/1991",,,"Kyle Campbell","303-318-4357","cdle_ops_public_record_center@state.co.us","39.856836","-105.069572","39.856836, -105.069572","Line - connections",,,"https://socgov18.force.com/s/release/a183h000003KXWV"
"REL-005256","211","8846","CCOD Fire Station #17","4500 Tennyson St","Denver","80212","CO","Denver","Closed",,"9/25/1992","Pre-RBCA","Edgar Ethington","303-318-4357","cdle_ops_public_record_center@state.co.us","39.778599","-105.043629","39.778599, -105.043629",,,,"https://socgov18.force.com/s/release/a183h000003KWck"
"REL-005113","212","3307","My Goods Market #6513","507 W Garden Of The Gods Rd","Colorado Springs","80907","CO","El Paso","Closed","1/16/1992","6/2/1999","Pre-RBCA","Joe'l Lambe","303-318-4357","cdle_ops_public_record_center@state.co.us","38.896294","-104.832351","38.896294, -104.832351",,,,"https://socgov18.force.com/s/release/a183h000003KWaR"
"REL-002453","213","3361","Convenience Plus #22","128 2nd St","La Salle","80645","CO","Weld","Closed",,"12/26/1995","Pre-RBCA","Cindy Silva-Burbach","303-318-4357","cdle_ops_public_record_center@state.co.us","40.35111","-104.703","40.35111, -104.703",,,,"https://socgov18.force.com/s/release/a183h000003KVtX"
"REL-002383","214","12030","Denver Post","650 15th St","Denver","80202","CO","Denver","Closed","2/27/1991","10/1/1997","Pre-RBCA","Dennis Hotovec","303-318-4357","cdle_ops_public_record_center@state.co.us","39.743536","-104.993413","39.743536, -104.993413",,,,"https://socgov18.force.com/s/release/a183h000003KVsP"
"REL-007377","215","8288","Kmart #9048","1115 W Main St","Sterling","80751","CO","Logan","Closed","1/5/1990","12/8/1995","Pre-RBCA","Richard Young","303-318-4357","cdle_ops_public_record_center@state.co.us","40.623794","-103.229543","40.623794, -103.229543",,,,"https://socgov18.force.com/s/release/a183h000003KXAx"
"REL-007333","216","9087","Kistler Graphics Inc","4000 Dahlia St","Denver","80216","CO","Denver","Closed",,"2/15/1995","Pre-RBCA","Ed Larock","303-318-4357","cdle_ops_public_record_center@state.co.us","39.772805","-104.930814","39.772805, -104.930814",,,,"https://socgov18.force.com/s/release/a183h000003KXAF"
"REL-010715","217","12294","Sherwin Williams Paint Store","874 North Ave","Grand Junction","81501","CO","Mesa","Closed","11/17/1992","8/5/1996","Pre-RBCA","Donna Stoner","303-318-4357","cdle_ops_public_record_center@state.co.us","39.077681","-108.557776","39.077681, -108.557776",,,,"https://socgov18.force.com/s/release/a183h000003KY2n"
"REL-008196","218","12563","Makris Property","15970 S Old Golden Rd","Golden","80401","CO","Jefferson","Closed","12/20/1991","6/28/1995","Pre-RBCA","Joe'l Lambe","303-318-4357","cdle_ops_public_record_center@state.co.us","39.728776","-105.129299","39.728776, -105.129299",,,,"https://socgov18.force.com/s/release/a183h000003KXOA"
"REL-011882","219","4650","Tract C-A","13188 CR 24","Rifle","81650","CO","Garfield","Closed","9/6/1989","7/21/1997","Pre-RBCA","Dennis Hotovec","303-318-4357","cdle_ops_public_record_center@state.co.us","39.923329","-108.483467","39.923329, -108.483467",,,,"https://socgov18.force.com/s/release/a183h000003KYLc"
"REL-003478","220","12812","CDOT Boyero","Hwy 40 MP 419","Boyero","80806","CO","Lincoln","Closed","8/4/1993","9/1/2000","Pre-RBCA","Jane Bral","303-318-8510","jane.bral@state.co.us","38.937074","-103.207467","38.937074, -103.207467",,,,"https://socgov18.force.com/s/release/a183h000003KWA4"
"REL-008932","221","10034","Nucon Construction Corp","5490 W 13th Ave","Lakewood","80214","CO","Jefferson","Closed","2/22/1990","9/8/1997","Pre-RBCA","Dennis Hotovec","303-318-4357","cdle_ops_public_record_center@state.co.us","39.73618","-105.056858","39.73618, -105.056858",,,,"https://socgov18.force.com/s/release/a183h000003KXa2"
"REL-011870","222","13950","Parking Lot for Palmer Lake Town Hall","28 Valley Crescent St","Palmer Lake","80133","CO","El Paso","Closed","8/29/1990","7/15/1997","Pre-RBCA","Dennis Hotovec","303-318-4357","cdle_ops_public_record_center@state.co.us","39.120048","-104.916635","39.120048, -104.916635",,,,"https://socgov18.force.com/s/release/a183h000003KYLQ"
"REL-008714","223","8449","Boulder Service Center","5050 Pearl St","Boulder","80301","CO","Boulder","Closed","6/16/1993","8/26/1997","Pre-RBCA","Dennis Hotovec","303-318-4357","cdle_ops_public_record_center@state.co.us","40.025224","-105.235441","40.025224, -105.235441",,,,"https://socgov18.force.com/s/release/a183h000003KXWW"
"REL-010296","224","13184","Sam's Knob Tank Farm Sast 06-08","Snowmass Mountain Tank Area","Aspen","81612","CO","Pitkin","Closed","2/14/1994","8/29/1994","Pre-RBCA","Joe'l Lambe","303-318-4357","cdle_ops_public_record_center@state.co.us",,,",",,,,"https://socgov18.force.com/s/release/a183h000003KXw2"
"REL-010955","225","11174","South Broadway Texaco","274 S Broadway","Cortez","81321","CO","Montezuma","Closed","10/11/1991","12/9/1992","Pre-RBCA","Julia Fraser","303-318-8504","julia.fraser@state.co.us","37.345717","-108.594798","37.345717, -108.594798",,,,"https://socgov18.force.com/s/release/a183h000003KY6f"
"REL-006435","226","8651","Greiner Engineering Sciences","4309 Elati St","Denver","80216","CO","Denver","Closed","7/19/1993","5/5/2005","Tier I","Tim Kelley","303-318-4357","cdle_ops_public_record_center@state.co.us","39.775854","-104.993941","39.775854, -104.993941",,,,"https://socgov18.force.com/s/release/a183h000003KWvl"
"REL-006797","227","11126","Fort Carson Army Base - 704th SPT","Bldg 8300","Fort Carson","80913","CO","El Paso","Closed","5/24/1993","11/24/1999","Pre-RBCA","Winifred Bromley","303-318-4357","cdle_ops_public_record_center@state.co.us","38.739729","-104.790999","38.739729, -104.790999",,,,"https://socgov18.force.com/s/release/a183h000003KX1b"
"REL-004818","228","3041","Acorn Petroleum Inc","403 W 7th St","Walsenburg","81089","CO","Huerfano","Closed","5/24/1996","1/6/2005","Tier I","Tim Kelley","303-318-4357","cdle_ops_public_record_center@state.co.us","37.620738","-104.785504","37.620738, -104.785504",,,,"https://socgov18.force.com/s/release/a183h000003KWVg"
"REL-012460","229","14050","21st Century Equipment Inc","18793 Hwy 6","Sterling","80751","CO","Logan","Closed",,"9/5/1997","Pre-RBCA","Dennis Hotovec","303-318-4357","cdle_ops_public_record_center@state.co.us","40.597597","-103.226331","40.597597, -103.226331",,,,"https://socgov18.force.com/s/release/a183h000003KYUw"
"REL-001196","231","10307","My Goods Market #6504","4981 E 64th Ave","Commerce City","80022","CO","Adams","Closed","8/5/1989","7/24/1996","Pre-RBCA","Andy Flurkey","303-318-4357","cdle_ops_public_record_center@state.co.us","39.813201","-104.929885","39.813201, -104.929885",,,,"https://socgov18.force.com/s/release/a183h000003KVZG"
"REL-004464","233","4649","AT&T Wild Horse Rs","4 Mi S On Cr","Wild Horse","80862","CO","Cheyenne","Closed","3/9/1994","5/10/1995","Pre-RBCA","Lauri Lundie","303-318-4357","cdle_ops_public_record_center@state.co.us",,,",",,,,"https://socgov18.force.com/s/release/a183h000003KWPy"
"REL-000902","234","7497","CDOT Bayfield","650 US Hwy 160","Bayfield","81122","CO","La Plata","Closed","1/13/1992","3/10/1992","Pre-RBCA","Edgar Ethington","303-318-4357","cdle_ops_public_record_center@state.co.us","37.228563","-107.614986","37.228563, -107.614986",,,,"https://socgov18.force.com/s/release/a183h000003KVUW"
"REL-012139","235","13744","United Concourse A & B Hydrant System","Stapleton Int'l Airport Quebec St","Denver","80207","CO","Denver","Closed",,,"Administrative","Steve Noel","303-318-4357","cdle_ops_public_record_center@state.co.us",,,",",,,,"https://socgov18.force.com/s/release/a183h000003KYPl"
"REL-010765","236","11877","Silco Gas","850 Hwy 74 In El Rancho","Golden","80401","CO","Jefferson","Closed","7/25/1990","8/21/1997","Pre-RBCA","Dennis Hotovec","303-318-4357","cdle_ops_public_record_center@state.co.us","39.69884","-105.333","39.69884, -105.333",,,,"https://socgov18.force.com/s/release/a183h000003KY3b"
"REL-007839","237","2210","Konvenience Korner #211","1720 Constitution Rd","Pueblo","81001","CO","Pueblo","Closed","9/12/1996","4/10/1997","Pre-RBCA","Julie Cotter","303-318-4357","cdle_ops_public_record_center@state.co.us","38.287577","-104.574171","38.287577, -104.574171",,,,"https://socgov18.force.com/s/release/a183h000003KXIP"
"REL-001021","238","12166","Chevron USA  Inc #70258","300 E 6th Ave","Denver","80203","CO","Denver","Closed","5/3/1991","2/25/1993","Pre-RBCA","Joe'l Lambe","303-318-4357","cdle_ops_public_record_center@state.co.us","39.725378","-104.983139","39.725378, -104.983139",,,,"https://socgov18.force.com/s/release/a183h000003KVWR"
"REL-004892","239","6808","Gasamat #102","11985 N Washington St","Northglenn","80233","CO","Adams","Closed","11/2/1989","8/30/2017","Tier IV","Orren Doss","303-318-4357","cdle_ops_public_record_center@state.co.us","39.913637","-104.978179","39.913637, -104.978179","Tank",,,"https://socgov18.force.com/s/release/a183h000003KWWs"
"REL-011405","240","10030","Tamarron Resort","40292 US-550","Durango","81301","CO","La Plata","Closed","1/21/1992","5/10/1995","Pre-RBCA","Cindy Silva-Burbach","303-318-4357","cdle_ops_public_record_center@state.co.us","37.509784","-107.815854","37.509784, -107.815854",,,,"https://socgov18.force.com/s/release/a183h000003KYDv"
"REL-003734","241","3042","Browns Trading Post Inc","44414 Poudre Canyon","Bellvue","80512","CO","Larimer","Closed","12/15/1993","2/9/1994","Pre-RBCA","Joe'l Lambe","303-318-4357","cdle_ops_public_record_center@state.co.us","40.676652","-105.781557","40.676652, -105.781557",,,,"https://socgov18.force.com/s/release/a183h000003KWEC"
"REL-003979","242","5752","Broadway Amc/jeep Inc","5600 S Broadway","Littleton","80121","CO","Arapahoe","Closed","4/17/1990","4/25/1997","Pre-RBCA","Dennis Hotovec","303-318-4357","cdle_ops_public_record_center@state.co.us","39.613882","-104.986949","39.613882, -104.986949",,,,"https://socgov18.force.com/s/release/a183h000003KWI9"
"REL-003401","243","1526","CDOT Mead","533 4th St","Mead","80542","CO","Weld","Closed","2/4/1991","10/15/2009","Tier II","Mike Kwiecinski","303-318-4357","cdle_ops_public_record_center@state.co.us","40.276362","-105.058212","40.276362, -105.058212","Unknown",,,"https://socgov18.force.com/s/release/a183h000003KW8p"
"REL-007365","244","8314","Kmart #4347","2829 W 10th St","Greeley","80631","CO","Weld","Closed","3/6/1991","4/19/1991","Pre-RBCA","Larry Delin","303-318-4357","cdle_ops_public_record_center@state.co.us","40.422941","-104.72636","40.422941, -104.72636",,,,"https://socgov18.force.com/s/release/a183h000003KXAl"
"REL-001656","245","973","Equity Oil Co","6388 Co Rd 26","Rifle","81650","CO","Garfield","Closed",,"12/26/1991","Pre-RBCA","Larry Delin","303-318-4357","cdle_ops_public_record_center@state.co.us","39.840603","-108.395949","39.840603, -108.395949",,,,"https://socgov18.force.com/s/release/a183h000003KVgg"
"REL-009543","246","2601","Project 7 Water Authority","69128 US-50","Montrose","81401","CO","Montrose","Closed",,"10/15/1992","Pre-RBCA","Mark Walker","303-318-4357","cdle_ops_public_record_center@state.co.us","38.487797","-107.800265","38.487797, -107.800265",,,,"https://socgov18.force.com/s/release/a183h000003KXjt"
"REL-011036","247","8163","SPO LOC","Stapleton Airport","Aurora","80010","CO","Adams","Closed",,,"Administrative","Steve Noel","303-318-4357","cdle_ops_public_record_center@state.co.us","39.760654","-104.891996","39.760654, -104.891996",,,,"https://socgov18.force.com/s/release/a183h000003KY7y"
"REL-011785","248","9811","Diamond Shamrock 4129","1343 Main St","Longmont","80501","CO","Boulder","Closed","3/4/1992","2/24/2009","Tier I","Mike Kwiecinski","303-318-4357","cdle_ops_public_record_center@state.co.us","40.182827","-105.102849","40.182827, -105.102849","Overfill - spill bucket",,,"https://socgov18.force.com/s/release/a183h000003KYK3"
"REL-006020","249","4046","Total #2627","741 N College","Fort Collins","80521","CO","Larimer","Closed","2/20/1990","9/13/2004","Tier I","Bobby Sonnier","303-318-4357","cdle_ops_public_record_center@state.co.us","40.596227","-105.076772","40.596227, -105.076772",,,,"https://socgov18.force.com/s/release/a183h000003KWp4"
"REL-006665","250","10953","High Country Market","10000 Hwy 131","Toponas","80479","CO","Routt","Closed",,"9/12/1996","Pre-RBCA","Eric Gillespie","303-318-4357","cdle_ops_public_record_center@state.co.us","40.061492","-106.811198","40.061492, -106.811198",,,,"https://socgov18.force.com/s/release/a183h000003KWzT"
"REL-000434","251","13126","ABC Rail Corp","2300 S Freeway","Pueblo","81004","CO","Pueblo","Closed",,"3/3/1995","Pre-RBCA","Andy Flurkey","303-318-4357","cdle_ops_public_record_center@state.co.us","38.289428","-104.606472","38.289428, -104.606472",,,,"https://socgov18.force.com/s/release/a183h000003KVMy"
"REL-007156","252","13321","Junction Station","517 N First St","Grand Junction","81501","CO","Mesa","Closed",,"9/20/1995","Pre-RBCA","Null User7","303-318-4357","cdle_ops_public_record_center@state.co.us","39.0717","-108.571344","39.0717, -108.571344",,,,"https://socgov18.force.com/s/release/a183h000003KX7O"
"REL-004902","253","6607","Food & Gas Mart","7590 Pecos St","Denver","80221","CO","Adams","Closed","8/16/1990","6/13/2016","Tier III","Vinny Secondo","303-318-4357","cdle_ops_public_record_center@state.co.us","39.834339","-105.005661","39.834339, -105.005661","Tank",,,"https://socgov18.force.com/s/release/a183h000003KWX2"
"REL-003543","254","12057","Casa Loma Apartment Building","3850 Alcott St","Denver","80211","CO","Denver","Closed","4/8/1991","11/2/1999","Pre-RBCA","Winifred Bromley","303-318-4357","cdle_ops_public_record_center@state.co.us","39.76986","-105.017095","39.76986, -105.017095",,,,"https://socgov18.force.com/s/release/a183h000003KWB7"
"REL-012542","255","8161","Vidmar Motor Co","600 N Albany St","Pueblo","81003","CO","Pueblo","Closed","4/21/1993","6/1/2000","Pre-RBCA","Dennis Hotovec","303-318-4357","cdle_ops_public_record_center@state.co.us","38.272989","-104.605018","38.272989, -104.605018",,,,"https://socgov18.force.com/s/release/a183h000003KYWG"
"REL-000904","256","12188","CDOT Colorado Springs","Colorado Springs","Colorado Springs","80907","CO","El Paso","Closed","10/7/1992","8/30/1995","Pre-RBCA","Dennis Hotovec","303-318-4357","cdle_ops_public_record_center@state.co.us",,,",",,,,"https://socgov18.force.com/s/release/a183h000003KVUY"
"REL-003740","257","13755","Brown Property","446 Oak Ridge Rd","Snowmass Village","81615","CO","Pitkin","Closed",,"12/10/1996","Pre-RBCA","Robert Shoup","303-318-4357","cdle_ops_public_record_center@state.co.us","39.227101","-106.932056","39.227101, -106.932056",,,,"https://socgov18.force.com/s/release/a183h000003KWEI"
"REL-003713","258","7362","CDOT Fairplay","1185 CR 16","Fairplay","80440","CO","Park","Closed",,"5/28/1997","Pre-RBCA","Jennifer Steffes","303-318-4357","cdle_ops_public_record_center@state.co.us","39.221088","-105.863003","39.221088, -105.863003",,,,"https://socgov18.force.com/s/release/a183h000003KWDr"
"REL-002943","259","4690","Henderson Mill","19302 Grand CR 3","Parshall","80468","CO","Grand","Closed","6/30/1992","2/16/2000","Pre-RBCA","John Axelson","303-318-4357","cdle_ops_public_record_center@state.co.us","39.856637","-106.081635","39.856637, -106.081635",,,,"https://socgov18.force.com/s/release/a183h000003KW1R"
"REL-006550","260","12318","Hardy's Crossroads Travel Plaza","27080 Hwy 287","Springfield","81073","CO","Baca","Closed","12/18/1992","12/23/1992","Pre-RBCA","Edgar Ethington","303-318-4357","cdle_ops_public_record_center@state.co.us","37.384559","-102.615453","37.384559, -102.615453",,,,"https://socgov18.force.com/s/release/a183h000003KWxc"
"REL-003276","261","12590","CDOW Two Buttes Wildlife Area","Two Buttes Wildlife Area","Two Buttes","81084","CO","Baca","Closed","12/17/1991","1/9/1992","Pre-RBCA","Lauri Lundie","303-318-4357","cdle_ops_public_record_center@state.co.us","37.645623","-102.570689","37.645623, -102.570689",,,,"https://socgov18.force.com/s/release/a183h000003KW6o"
"REL-002871","262","1778","Thornton Parks Department","8651 Colorado Blvd","Thornton","80229","CO","Adams","Closed","5/12/1992","11/10/1992","Pre-RBCA","Larry Delin","303-318-4357","cdle_ops_public_record_center@state.co.us","39.853363","-104.941164","39.853363, -104.941164",,,,"https://socgov18.force.com/s/release/a183h000003KW0H"
"REL-000452","263","11145","ADCO General Corp","1080 Kalamath St","Denver","80204","CO","Denver","Closed","10/8/1993","6/26/1995","Pre-RBCA","Andy Flurkey","303-318-4357","cdle_ops_public_record_center@state.co.us","39.733423","-104.999748","39.733423, -104.999748",,,,"https://socgov18.force.com/s/release/a183h000003KVNG"
"REL-006850","264","5798","Idarado Mine","12 Mi S On Hwy 550","Ouray","81427","CO","Ouray","Closed",,"6/6/1996","Pre-RBCA","Dennis Hotovec","303-318-4357","cdle_ops_public_record_center@state.co.us",,,",",,,,"https://socgov18.force.com/s/release/a183h000003KX2S"
"REL-008368","265","2858","Memorial Gardens Cemetery","3825 Airport Rd","Colorado Springs","80910","CO","El Paso","Closed","4/13/1992","6/11/1992","Pre-RBCA","Mark Walker","303-318-4357","cdle_ops_public_record_center@state.co.us","38.824171","-104.754381","38.824171, -104.754381",,,,"https://socgov18.force.com/s/release/a183h000003KXQw"
"REL-011439","266","8488","Ted & Bob Service","4000 W 32nd Ave","Denver","80212","CO","Denver","Closed","9/12/1995","12/15/2000","Tier I","Tim Kelley","303-318-4357","cdle_ops_public_record_center@state.co.us","39.76198","-105.039621","39.76198, -105.039621",,,,"https://socgov18.force.com/s/release/a183h000003KYET"
"REL-005030","267","13945","Adam II Construction","1475 Pierce","Lakewood","80226","CO","Jefferson","Closed","5/11/1990","1/1/1876","Pre-RBCA","Winifred Bromley","303-318-4357","cdle_ops_public_record_center@state.co.us","39.73962","-105.072647","39.73962, -105.072647",,,,"https://socgov18.force.com/s/release/a183h000003KWZ6"
"REL-012890","268","12937","Wheat Ridge City Municipal Building","7500 W 29th Ave","Wheat Ridge","80034","CO","Jefferson","Closed","7/28/1994","3/13/1995","Pre-RBCA","Kathy Kosklin","303-318-4357","cdle_ops_public_record_center@state.co.us","39.757139","-105.08052","39.757139, -105.08052",,,,"https://socgov18.force.com/s/release/a183h000003KYbs"
"REL-004465","269","4689","AT&T Wolf Creek Pass RS","155 Mi SW Of South Fork","South Fork","81154","CO","Rio Grande","Closed","10/27/1992","7/6/1995","Pre-RBCA","Ed Larock","303-318-4357","cdle_ops_public_record_center@state.co.us","0","0","0, 0",,,,"https://socgov18.force.com/s/release/a183h000003KWPz"
"REL-000275","270","9329","7-Eleven #26289","2500 E 88th Ave","Thornton","80229","CO","Adams","Closed","6/13/1996","6/27/1997","Pre-RBCA","Marilyn Hajicek","303-318-4357","cdle_ops_public_record_center@state.co.us","39.855783","-104.956197","39.855783, -104.956197",,,,"https://socgov18.force.com/s/release/a183h000003KVKP"
"REL-004078","271","9126","Browning-Ferris Industries","50633 Hwy 6 & 24","Glenwood Springs","81601","CO","Garfield","Closed",,"8/15/1996","Pre-RBCA","Doug Pratto","303-318-4357","cdle_ops_public_record_center@state.co.us","39.56205","-107.37","39.56205, -107.37",,,,"https://socgov18.force.com/s/release/a183h000003KWJk"
"REL-012352","272","13516","US West Monument Central Office","1446 W Hwy 105","Monument","80132","CO","El Paso","Closed",,"1/4/1996","Pre-RBCA","Joe'l Lambe","303-318-4357","cdle_ops_public_record_center@state.co.us","39.093223","-104.855759","39.093223, -104.855759",,,,"https://socgov18.force.com/s/release/a183h000003KYTC"
"REL-012033","273","10090","Tynan Volkswagon","700 S Havana St","Aurora","80012","CO","Arapahoe","Closed","7/20/1992","7/22/1997","Pre-RBCA","Jennifer Steffes","303-318-4357","cdle_ops_public_record_center@state.co.us","39.703315","-104.865283","39.703315, -104.865283",,,,"https://socgov18.force.com/s/release/a183h000003KYO3"
"REL-009893","274","12055","Ridge Village Shopping Center","3817 Sheridan Blvd","Wheat Ridge","80033","CO","Jefferson","Closed","9/10/1992","10/7/1992","Pre-RBCA","Joe'l Lambe","303-318-4357","cdle_ops_public_record_center@state.co.us","39.770325","-105.053724","39.770325, -105.053724",,,,"https://socgov18.force.com/s/release/a183h000003KXpX"
"REL-003643","275","12957","Burnside Property","2903 S Wyandot St","Englewood","80110","CO","Arapahoe","Closed","11/10/1993","11/10/1997","Pre-RBCA","Dennis Hotovec","303-318-4357","cdle_ops_public_record_center@state.co.us","39.663649","-105.014807","39.663649, -105.014807",,,,"https://socgov18.force.com/s/release/a183h000003KWCj"
"REL-008106","276","1882","Lowry Air Force Base","8496 E Academy Pkwy","Denver","80230","CO","Denver","Closed","2/26/1992","5/9/2000","Pre-RBCA","Steve Noel","303-318-4357","cdle_ops_public_record_center@state.co.us","39.719067","-104.896966","39.719067, -104.896966",,,,"https://socgov18.force.com/s/release/a183h000003KXMi"
"REL-003256","277","10414","Amoco SS","1298 E 104th Ave","Thornton","80229","CO","Adams","Closed","4/6/1990","3/17/1992","Pre-RBCA","Joe'l Lambe","303-318-4357","cdle_ops_public_record_center@state.co.us","39.884704","-104.970826","39.884704, -104.970826",,,,"https://socgov18.force.com/s/release/a183h000003KW6U"
"REL-002616","278","13967","Colorado State University","Strol Farm","Fort Collins","80523","CO","Larimer","Closed",,,"Administrative","Unknown","303-318-4357","cdle_ops_public_record_center@state.co.us","40.654613","-104.999503","40.654613, -104.999503",,,,"https://socgov18.force.com/s/release/a183h000003KVwA"
"REL-000659","279","13285","Battle Mountain Trading Post","1031 Main St","Minturn","81645","CO","Eagle","Closed","12/19/1994","4/17/1995","Pre-RBCA","Edgar Ethington","303-318-4357","cdle_ops_public_record_center@state.co.us","39.5781","-106.417855","39.5781, -106.417855",,,,"https://socgov18.force.com/s/release/a183h000003KVQb"
"REL-012762","280","12441","Western Auto Recycling","6100 Federal Blvd","Denver","80221","CO","Adams","Closed","1/11/1996","11/17/1998","Pre-RBCA","M Arndt","303-318-4357","cdle_ops_public_record_center@state.co.us","39.806887","-105.024423","39.806887, -105.024423",,,,"https://socgov18.force.com/s/release/a183h000003KYZo"
"REL-009405","281","7971","Pink Willson Co","2121 1st Ave","Greeley","80632","CO","Weld","Closed","3/16/1990","3/24/1997","Pre-RBCA","Dennis Hotovec","303-318-4357","cdle_ops_public_record_center@state.co.us","40.403306","-104.678799","40.403306, -104.678799",,,,"https://socgov18.force.com/s/release/a183h000003KXhf"
"REL-006185","282","11828","Glenarm Assoc","515 W Colfax Ave","Denver","80204","CO","Denver","Closed",,"11/30/1990","Pre-RBCA","Sue Summers","303-318-4357","cdle_ops_public_record_center@state.co.us","39.74014","-104.995211","39.74014, -104.995211",,,,"https://socgov18.force.com/s/release/a183h000003KWrj"
"REL-013100","283","7148","Smoky Hill Pump Station","16801 E Smoky Hill Rd","Aurora","80015","CO","Arapahoe","Closed","6/28/1996","6/27/1997","Pre-RBCA","Marilyn Hajicek","303-318-4357","cdle_ops_public_record_center@state.co.us","39.626861","-104.793181","39.626861, -104.793181",,,,"https://socgov18.force.com/s/release/a183h000003KYfG"
"REL-008021","284","4289","Loveland Country Store","5518 Hwy 34 E","Loveland","80537","CO","Larimer","Closed","2/11/1991","4/12/2000","Pre-RBCA","Robert Shoup","303-318-4357","cdle_ops_public_record_center@state.co.us","40.406689","-104.997205","40.406689, -104.997205",,,,"https://socgov18.force.com/s/release/a183h000003KXLL"
"REL-012913","285","8052","Wholesale Specialties","2950 Blake St","Denver","80205","CO","Denver","Closed",,"8/4/1998","Pre-RBCA","Julie Cotter","303-318-4357","cdle_ops_public_record_center@state.co.us","39.762968","-104.982597","39.762968, -104.982597",,,,"https://socgov18.force.com/s/release/a183h000003KYcF"
"REL-000816","286","12354","Burlington Northern Railroad","225 8th Ave","Greeley","80631","CO","Weld","Closed","9/24/1991","4/23/1997","Pre-RBCA","Dennis Hotovec","303-318-4357","cdle_ops_public_record_center@state.co.us","40.43139","-104.69139","40.43139, -104.69139",,,,"https://socgov18.force.com/s/release/a183h000003KVT8"
"REL-003419","287","8926","CCOD Parks & Rec - Overland Golf","800 W Jewell Ave","Denver","80223","CO","Denver","Closed","3/31/1993","1/12/1995","Pre-RBCA","Andy Flurkey","303-318-4357","cdle_ops_public_record_center@state.co.us","39.680981","-104.998747","39.680981, -104.998747",,,,"https://socgov18.force.com/s/release/a183h000003KW97"
"REL-000832","288","104","Colorado Retail Ventures Services","315 E Edison St","Brush","80723","CO","Morgan","Closed","8/24/1995","4/20/2012","Tier II","Erik Gessert","303-318-4357","cdle_ops_public_record_center@state.co.us","40.25548","-103.62259","40.25548, -103.62259","Dispenser",,,"https://socgov18.force.com/s/release/a183h000003KVTO"
"REL-012504","289","2603","Verns Place","4120 W CR 54G","Laporte","80535","CO","Larimer","Closed","8/3/1990","2/20/1992","Pre-RBCA","Michelle Howard","303-318-8507","michelle.howard@state.co.us","40.633058","-105.154","40.633058, -105.154",,,,"https://socgov18.force.com/s/release/a183h000003KYVe"
"REL-012293","290","8167","AT&T Information Systems","2551 E 40th Ave","Denver","80205","CO","Denver","Closed",,,"Administrative","Unknown","303-318-4357","cdle_ops_public_record_center@state.co.us","39.772924","-104.956833","39.772924, -104.956833",,,,"https://socgov18.force.com/s/release/a183h000003KYSF"
"REL-004121","291","13584","Brotherton Chiropractic Clinic","1700 W Mulberry","Fort Collins","80521","CO","Larimer","Closed","10/4/1990","2/24/2011","Tier II","Vinny Secondo","303-318-4357","cdle_ops_public_record_center@state.co.us","40.582186","-105.106754","40.582186, -105.106754",,,,"https://socgov18.force.com/s/release/a183h000003KWKR"
"REL-008320","292","11934","MCI Telecommunications","601 E 18th Ave","Denver","80203","CO","Denver","Closed","1/4/1991","3/26/1992","Pre-RBCA","Edgar Ethington","303-318-4357","cdle_ops_public_record_center@state.co.us","39.74523","-104.979292","39.74523, -104.979292",,,,"https://socgov18.force.com/s/release/a183h000003KXQA"
"REL-002225","293","13354","Custer County Medical Clinic","5th & Rosita Ave","Westcliffe","81252","CO","Custer","Closed","3/3/1995","4/21/1995","Pre-RBCA","Doug Pratto","303-318-4357","cdle_ops_public_record_center@state.co.us","38.134805","-105.464979","38.134805, -105.464979",,,,"https://socgov18.force.com/s/release/a183h000003KVpr"
"REL-012616","294","10683","Wallers Vehicle Repair Center Inc","1683 W Sheri Ln","Littleton","80120","CO","Arapahoe","Closed","9/28/1990","4/24/1997","Pre-RBCA","Dennis Hotovec","303-318-4357","cdle_ops_public_record_center@state.co.us","39.623145","-105.00754","39.623145, -105.00754",,,,"https://socgov18.force.com/s/release/a183h000003KYXS"
"REL-000886","295","14104","CCOD Waste Water Management","10500 E Smith Rd","Denver","80239","CO","Denver","Closed","7/26/1990",,"Administrative","Dennis C. Hotovec","303-318-4357","cdle_ops_public_record_center@state.co.us","39.768469","-104.865554","39.768469, -104.865554",,,,"https://socgov18.force.com/s/release/a183h000003KVUG"
"REL-002967","296","3874","Aspen Streets Department","1080 Power Plant Rd","Aspen","81611","CO","Pitkin","Closed","10/29/1992","3/20/1995","Administrative","Lauri Lundie","303-318-4357","cdle_ops_public_record_center@state.co.us","39.195772","-106.833715","39.195772, -106.833715",,,,"https://socgov18.force.com/s/release/a183h000003KW1p"
"REL-007634","297","5273","Lambert Auto Electric","4619 Brighton Blvd","Denver","80216","CO","Denver","Closed","11/10/1993","6/19/1997","Pre-RBCA","Craig Workman","303-318-4357","cdle_ops_public_record_center@state.co.us","39.780928","-104.966868","39.780928, -104.966868",,,,"https://socgov18.force.com/s/release/a183h000003KXF6"
"REL-010718","298","13054","Shockley Trucking","120 18th St","Greeley","80631","CO","Weld","Closed",,"3/25/1994","Pre-RBCA","Ed Larock","303-318-4357","cdle_ops_public_record_center@state.co.us","40.409739","-104.679411","40.409739, -104.679411",,,,"https://socgov18.force.com/s/release/a183h000003KY2q"
"REL-007770","299","4288","Glenns Scaffolding","981 E 64th Ave","Denver","80229","CO","Adams","Closed","8/28/1991","8/23/1999","Pre-RBCA","Winifred Bromley","303-318-4357","cdle_ops_public_record_center@state.co.us","39.81334","-104.97531","39.81334, -104.97531",,,,"https://socgov18.force.com/s/release/a183h000003KXHI"
"REL-001177","300","8726","Commerce City Public Works","4407 E 60th Ave","Commerce City","80022","CO","Adams","Closed","11/14/1991","1/18/2000","Pre-RBCA","Eric Gillespie","303-318-4357","cdle_ops_public_record_center@state.co.us","39.806039","-104.935363","39.806039, -104.935363",,,,"https://socgov18.force.com/s/release/a183h000003KVYx"
"REL-008781","301","12862","National Renewable Energy Lab","1617 Cole Blvd","Golden","80401","CO","Jefferson","Closed","3/23/1992","9/9/1992","Pre-RBCA","Joe'l Lambe","303-318-4357","cdle_ops_public_record_center@state.co.us","39.744491","-105.152","39.744491, -105.152",,,,"https://socgov18.force.com/s/release/a183h000003KXXb"
"REL-006597","302","7115","Dinosaur National Monument","Box 210","Dinosaur","81610","CO","Moffat","Closed",,"7/8/1993","Pre-RBCA","Doug Pratto","303-318-4357","cdle_ops_public_record_center@state.co.us",,,",",,,,"https://socgov18.force.com/s/release/a183h000003KWyN"
"REL-004073","303","3412","Bevington Antiques","223 E 1st St","Salida","81201","CO","Chaffee","Closed",,,"Administrative","Ed Larock","303-318-4357","cdle_ops_public_record_center@state.co.us","38.5352","-105.990581","38.5352, -105.990581",,,,"https://socgov18.force.com/s/release/a183h000003KWJf"
"REL-000044","304","8930","7-Eleven #20308","283 Hwy 105","Monument","80132","CO","El Paso","Closed","11/8/1993","4/26/1995","Pre-RBCA","Lauri Lundie","303-318-4357","cdle_ops_public_record_center@state.co.us","39.09283","-104.824939","39.09283, -104.824939",,,,"https://socgov18.force.com/s/release/a183h000003KVGg"
"REL-007150","305","12268","Jt Septic Tank Co","3676 S Natches Ct","Englewood","80110","CO","Arapahoe","Closed","8/22/1991","8/6/1997","Pre-RBCA","Dennis Hotovec","303-318-4357","cdle_ops_public_record_center@state.co.us","39.651486","-105.003928","39.651486, -105.003928",,,,"https://socgov18.force.com/s/release/a183h000003KX7I"
"REL-012559","306","4491","Speedway 9497","25 N Pagosa Blvd","Pagosa Springs","81147","CO","Archuleta","Closed",,"6/20/1997","Pre-RBCA","Robert Shoup","303-318-4357","cdle_ops_public_record_center@state.co.us","37.296224","-107.112479","37.296224, -107.112479",,,,"https://socgov18.force.com/s/release/a183h000003KYWX"
"REL-008436","307","13341","Metzger Property","5450 Wadsworth Bypass","Arvada","80002","CO","Jefferson","Closed","2/14/1995","12/4/1995","Pre-RBCA","Cindy Silva-Burbach","303-318-4357","cdle_ops_public_record_center@state.co.us","39.794904","-105.077768","39.794904, -105.077768",,,,"https://socgov18.force.com/s/release/a183h000003KXS2"
"REL-008956","308","866","AppOgee Kazmira","34501 E Quincy Ave","Watkins","80137","CO","Arapahoe","Closed",,"5/28/1996","Pre-RBCA","Ed Larock","303-318-4357","cdle_ops_public_record_center@state.co.us","39.645264","-104.575278","39.645264, -104.575278",,,,"https://socgov18.force.com/s/release/a183h000003KXaQ"
"REL-012915","309","324","Widefield Conoco","1 Widefield Blvd","Fountain","80817","CO","El Paso","Closed","7/1/1994","11/2/1995","Pre-RBCA","Cindy Silva-Burbach","303-318-4357","cdle_ops_public_record_center@state.co.us","38.736898","-104.729469","38.736898, -104.729469",,,,"https://socgov18.force.com/s/release/a183h000003KYcH"
"REL-010505","310","12703","Diamond Shamrock","520 Hwy 24 W","Woodland Park","80863","CO","Teller","Closed",,"8/25/1995","Pre-RBCA","Robert Shoup","303-318-4357","cdle_ops_public_record_center@state.co.us","38.993738","-105.058942","38.993738, -105.058942",,,,"https://socgov18.force.com/s/release/a183h000003KXzP"
"REL-004242","311","6307","D & R Service Station","19001 E Quincy Ave","Aurora","80015","CO","Arapahoe","Closed","9/7/1995","4/8/1997","Pre-RBCA","Steve Noel","303-318-4357","cdle_ops_public_record_center@state.co.us","39.638949","-104.766725","39.638949, -104.766725",,,,"https://socgov18.force.com/s/release/a183h000003KWMO"
"REL-001127","313","2720","Farmland Co-Op Inc","17292 US Hwy 34","Fort Morgan","80701","CO","Morgan","Closed","4/3/1996","1/5/2012","Tier I","Erik Gessert","303-318-4357","cdle_ops_public_record_center@state.co.us","40.253988","-103.823764","40.253988, -103.823764","Unknown",,,"https://socgov18.force.com/s/release/a183h000003KVY9"
"REL-001933","314","10904","Durango-La Plata County Airport","1300 CR 309","Durango","81301","CO","La Plata","Closed",,"5/16/1997","Pre-RBCA","Null User7","303-318-4357","cdle_ops_public_record_center@state.co.us","37.157884","-107.752311","37.157884, -107.752311",,,,"https://socgov18.force.com/s/release/a183h000003KVl9"
"REL-000959","315","7321","CDOT Villa Grove","Hwy 285 MP 10494","Villa Grove","81155","CO","Saguache","Closed",,"6/6/1996","Pre-RBCA","Mark Walker","303-318-4357","cdle_ops_public_record_center@state.co.us",,,",",,,,"https://socgov18.force.com/s/release/a183h000003KVVR"
"REL-003618","316","8886","CCOD Fire Station #1","745 W Colfax Ave","Denver","80204","CO","Denver","Closed","6/13/1991","5/4/1995","Pre-RBCA","Ed Larock","303-318-4357","cdle_ops_public_record_center@state.co.us","39.740418","-104.997511","39.740418, -104.997511",,,,"https://socgov18.force.com/s/release/a183h000003KWCK"
"REL-005875","317","7324","Frito-Lay Distribution","11645 E 37th Ave Bldg B","Denver","80239","CO","Denver","Closed",,"3/30/1998","Pre-RBCA","Jennifer Steffes","303-318-4357","cdle_ops_public_record_center@state.co.us","39.769254","-104.852979","39.769254, -104.852979",,,,"https://socgov18.force.com/s/release/a183h000003KWmj"
"REL-008192","318","12163","Maintenance Shop","78900 US Hwy 40","Winter Park","80482","CO","Grand","Closed","8/31/1992","9/12/1997","Pre-RBCA","Dennis Hotovec","303-318-4357","cdle_ops_public_record_center@state.co.us","39.917911","-105.784345","39.917911, -105.784345",,,,"https://socgov18.force.com/s/release/a183h000003KXO6"
"REL-012314","319","9527","CenturyLink - Vail Central Office","169 N Frontage Rd","Vail","81657","CO","Eagle","Closed",,"4/4/1994","Pre-RBCA","Kathy Kosklin","303-318-4357","cdle_ops_public_record_center@state.co.us","39.645156","-106.378976","39.645156, -106.378976",,,,"https://socgov18.force.com/s/release/a183h000003KYSa"
"REL-011235","320","3604","Alta Convenience #3501","3213 Main St","Alamosa","81101","CO","Alamosa","Closed","8/22/1996","7/10/2000","Pre-RBCA","Jennifer Steffes","303-318-4357","cdle_ops_public_record_center@state.co.us","37.478037","-105.900885","37.478037, -105.900885",,,,"https://socgov18.force.com/s/release/a183h000003KYBB"
"REL-002050","321","12703","Diamond Shamrock","520 Hwy 24 W","Woodland Park","80863","CO","Teller","Closed","7/2/1993","10/28/1993","Pre-RBCA","Dennis Hotovec","303-318-4357","cdle_ops_public_record_center@state.co.us","38.993738","-105.058942","38.993738, -105.058942",,,,"https://socgov18.force.com/s/release/a183h000003KVn2"
"REL-010570","322","9756","Shamrock #4077","495 S Colorado Blvd","Denver","80222","CO","Denver","Closed","10/13/1994","12/27/2000","Tier I","Eric Gillespie","303-318-4357","cdle_ops_public_record_center@state.co.us","39.707536","-104.940837","39.707536, -104.940837",,,,"https://socgov18.force.com/s/release/a183h000003KY0S"
