"geometry_point","latitude","longitude","type","year_const","rim_elev","ward_name","neighbourhood_name","neighbourhood_id","road_name"
"POINT (-113.4396436363796 53.44308578600979)","53.44308578600979","-113.4396436363796","STORM","1976","691.707","Karhiio Ward","Menisa","6450","69 STREET NW"
"POINT (-113.64605207995717 53.508131130466204)","53.508131130466204","-113.64605207995717","STORM","1983","683.869","sipiwiyiniwak Ward","Lymburn","4270","74 AVENUE NW"
"POINT (-113.455220627319 53.50292648231066)","53.50292648231066","-113.455220627319","STORM","1955","670.313","papastew Ward","Argyll","6010","64 AVENUE NW"
"POINT (-113.36403990168222 53.61509612514443)","53.61509612514443","-113.36403990168222","STORM","2013","647.974","Dene Ward","Fraser","2280","14 STREET NW"
"POINT (-113.48303118484812 53.50668354098471)","53.50668354098471","-113.48303118484812","STORM","1973","673.321","papastew Ward","Hazeldean","6290","70 AVENUE NW"
"POINT (-113.39119271529641 53.58910043351382)","53.58910043351382","-113.39119271529641","STORM","1975","647.896","Dene Ward","Belmont","2070","130 AVENUE NW"
"POINT (-113.408989074604 53.54424846251774)","53.54424846251774","-113.408989074604","STORM","0","661.184","Métis Ward","Gold Bar","6270","102 AVENUE NW"
"POINT (-113.3902307155065 53.591788303040616)","53.591788303040616","-113.3902307155065","STORM","1975","648.178","Dene Ward","Belmont","2070","131 AVENUE NW"
"POINT (-113.38017551141228 53.61464626325067)","53.61464626325067","-113.38017551141228","STORM","2019","649.07","Dene Ward","Kirkness","2430","28 STREET NW"
"POINT (-113.81375983325508 53.3527108207178)","53.3527108207178","-113.81375983325508","STORM","2014","708.578",,,,"HIGHWAY 19"
"POINT (-113.42554877775306 53.60100326279593)","53.60100326279593","-113.42554877775306","STORM","1993","660.599","Dene Ward","York","2720","138A AVENUE NW"
"POINT (-113.37996577725019 53.61592165892357)","53.61592165892357","-113.37996577725019","STORM","0","649.531","Dene Ward","Kirkness","2430","153 AVENUE NW"
"POINT (-113.54785337066144 53.55403165594386)","53.55403165594386","-113.54785337066144","STORM","1950","668.076","O-day'min Ward","Westmount","3440","131 STREET NW"
"POINT (-113.43602424132412 53.63968573230311)","53.63968573230311","-113.43602424132412","STORM","2015","682.229","Dene Ward","McConachie","2522","63A STREET NW"
"POINT (-113.42961141164095 53.41800060086095)","53.41800060086095","-113.42961141164095","STORM","2012","716.51","Karhiio Ward","Walker","6662","18 AVENUE SW"
"POINT (-113.51347909992309 53.6119722136527)","53.6119722136527","-113.51347909992309","STORM","2005","675.22","Anirniq Ward","Griesbach","3111","MCCRAE AVENUE NW"
"POINT (-113.45327798391651 53.44559644403466)","53.44559644403466","-113.45327798391651","STORM","9999","687","Karhiio Ward","Menisa","6450","15 AVENUE NW"
"POINT (-113.67095148768927 53.480364245709026)","53.480364245709026","-113.67095148768927","STORM","2012","696.088","sipiwiyiniwak Ward","The Hamptons","4461","44 AVENUE NW"
"POINT (-113.4235566862014 53.440710470079054)","53.440710470079054","-113.4235566862014","STORM","1977","704.548","Karhiio Ward","Sakaw","6670","55 STREET NW"
"POINT (-113.41438618376904 53.61131813910642)","53.61131813910642","-113.41438618376904","STORM","1997","666.637","Dene Ward","Miller","2541","48 STREET NW"
"POINT (-113.41940198658341 53.42005076060198)","53.42005076060198","-113.41940198658341","STORM","2014","722.85","Karhiio Ward","Walker","6662","51 STREET SW"
"POINT (-113.66190176140145 53.593835898854365)","53.593835898854365","-113.66190176140145","STORM","2014","676.503","Nakota Isga Ward","Starling","4474","HUMMINGBIRD WAY NW"
"POINT (-113.40047453415723 53.6096335008396)","53.6096335008396","-113.40047453415723","STORM","2014","652.67","Dene Ward","Ebbers","2251","EBBERS WAY NW"
"POINT (-113.44694149553762 53.439972598437556)","53.439972598437556","-113.44694149553762","STORM","1976","689.462","Karhiio Ward","Menisa","6450","11 AVENUE NW"
"POINT (-113.49898919224864 53.447034144511235)","53.447034144511235","-113.49898919224864","STORM","1978","680.106","Ipiihkoohkanipiaohtsi Ward","Keheewin","5250","18 AVENUE NW"
"POINT (-113.57835052612407 53.408062028409496)","53.408062028409496","-113.57835052612407","STORM","2016","693.999","Ipiihkoohkanipiaohtsi Ward","Chappelle Area","5462","COUGHLAN GREEN SW"
"POINT (-113.49741365034188 53.515282881391244)","53.515282881391244","-113.49741365034188","STORM","1912","671.35","papastew Ward","Strathcona Junction","5151","104 STREET NW"
"POINT (-113.46138057008224 53.45777871371537)","53.45777871371537","-113.46138057008224","STORM","1995","681.892","Karhiio Ward","Meyonohk","6470","27 AVENUE NW"
"POINT (-113.5635177851518 53.48948947273699)","53.48948947273699","-113.5635177851518","STORM","1964","670.009","pihêsiwin Ward","Brookside","5090","52 AVENUE NW"
"POINT (-113.40717347285934 53.56773604341094)","53.56773604341094","-113.40717347285934","STORM","1958","654.653","Métis Ward","Beverly Heights","2100","115 AVENUE NW"
"POINT (-113.41305155577612 53.442537936518804)","53.442537936518804","-113.41305155577612","STORM","1978","709.281","Sspomitapi Ward","Crawford Plains","6140","13 AVENUE NW"
"POINT (-113.52292434316601 53.51519657039211)","53.51519657039211","-113.52292434316601","STORM","1954","668.512","papastew Ward","McKernan","5290","113 STREET NW"
"POINT (-113.49905586542178 53.61944246798436)","53.61944246798436","-113.49905586542178","STORM","1978","677.086","tastawiyiniwak Ward","Beaumaris","3040","158 AVENUE NW"
"POINT (-113.47726844565507 53.61109484247394)","53.61109484247394","-113.47726844565507","STORM","1970","677.649","tastawiyiniwak Ward","Evansdale","2260","150 AVENUE NW"
"POINT (-113.58229090300425 53.57436779823717)","53.57436779823717","-113.58229090300425","STORM","1980","675.22","Anirniq Ward","Mitchell Industrial","4330","152 STREET NW"
"POINT (-113.64925027185554 53.52191499109872)","53.52191499109872","-113.64925027185554","STORM","1992","682.328","Nakota Isga Ward","Belmead","4040","189 STREET NW"
"POINT (-113.45202234271966 53.611306333086866)","53.611306333086866","-113.45202234271966","STORM","1990","681.259","tastawiyiniwak Ward","Kilkenny","2410","149A AVENUE NW"
"POINT (-113.46396291360678 53.56265223228201)","53.56265223228201","-113.46396291360678","STORM","1913","658.944","Métis Ward","Cromdale","1070","80 STREET NW"
"POINT (-113.4954341498535 53.54234169801278)","53.54234169801278","-113.4954341498535","STORM","1918","669.307","O-day'min Ward","Downtown","1090","102 STREET NW"
"POINT (-113.50085479788936 53.5855621901308)","53.5855621901308","-113.50085479788936","STORM","1955","668.383","Anirniq Ward","Lauderdale","3260","128 AVENUE NW"
"POINT (-113.59814442551415 53.465604736761)","53.465604736761","-113.59814442551415","STORM","1980","676.889","pihêsiwin Ward","Henderson Estates","5230","HENDERSON STREET NW"
"POINT (-113.42286506224838 53.44722973106286)","53.44722973106286","-113.42286506224838","STORM","1977","698.742","Karhiio Ward","Meyokumin","6460","17A AVENUE NW"
"POINT (-113.53852135070953 53.55170140487542)","53.55170140487542","-113.53852135070953","STORM","1959","666.419","O-day'min Ward","Westmount","3440","107 AVENUE [WESTBOUND SIDE] NW"
"POINT (-113.53662305485211 53.44165733860554)","53.44165733860554","-113.53662305485211","STORM","1996","680.903","Ipiihkoohkanipiaohtsi Ward","Twin Brooks","5511","117 STREET NW"
"POINT (-113.43438636665992 53.55220783693865)","53.55220783693865","-113.43438636665992","STORM","1956","654.85","Métis Ward","Capilano","6061","69 STREET NW"
"POINT (-113.49966721143402 53.59067620694164)","53.59067620694164","-113.49966721143402","STORM","1961","670.429","Anirniq Ward","Lauderdale","3260","105 STREET NW"
"POINT (-113.48183818349959 53.59233146167872)","53.59233146167872","-113.48183818349959","STORM","1961","671.837","tastawiyiniwak Ward","Glengarry","2290","132 AVENUE NW"
"POINT (-113.49113390722673 53.575289867220405)","53.575289867220405","-113.49113390722673","STORM","1978","665.163","Métis Ward","Alberta Avenue","1010","121 AVENUE NW"
"POINT (-113.43339201343987 53.55364095723483)","53.55364095723483","-113.43339201343987","STORM","1957","655.331","Métis Ward","Capilano","6061","107 AVENUE NW"
"POINT (-113.44526015573396 53.50685456409355)","53.50685456409355","-113.44526015573396","STORM","1956","672.124","Métis Ward","Coronet Addition Industrial","6090","77 STREET NW"
"POINT (-113.6012972531532 53.516753012305415)","53.516753012305415","-113.6012972531532","STORM","1959","670.767","sipiwiyiniwak Ward","Elmwood","4140","83 AVENUE NW"
"POINT (-113.60444344831275 53.5401902734947)","53.5401902734947","-113.60444344831275","STORM","1961","674.98","Nakota Isga Ward","Glenwood","4180","164 STREET NW"
"POINT (-113.56088786711977 53.51738130072258)","53.51738130072258","-113.56088786711977","STORM","1958","662.421","sipiwiyiniwak Ward","Laurier Heights","3270","85 AVENUE NW"
"POINT (-113.49906556487606 53.566141478000404)","53.566141478000404","-113.49906556487606","STORM","1954","662.639","O-day'min Ward","Spruce Avenue","1230","104 STREET NW"
"POINT (-113.54953540528554 53.55655774590111)","53.55655774590111","-113.54953540528554","STORM","1987","668.301","O-day'min Ward","Westmount","3440","132 STREET NW"
"POINT (-113.57324649863969 53.51929101698182)","53.51929101698182","-113.57324649863969","STORM","1957","667.527","sipiwiyiniwak Ward","Laurier Heights","3270","87 AVENUE NW"
"POINT (-113.60759709778632 53.50645342073329)","53.50645342073329","-113.60759709778632","STORM","1973","671.232","sipiwiyiniwak Ward","Westridge","4610","WESTRIDGE ROAD NW"
"POINT (-113.58419304401302 53.555901584136926)","53.555901584136926","-113.58419304401302","STORM","1995","674.007","Nakota Isga Ward","High Park","4200","110 AVENUE NW"
"POINT (-113.48897464848692 53.57825026397257)","53.57825026397257","-113.48897464848692","STORM","1979","665.521","Métis Ward","Delton","1080","123 AVENUE NW"
"POINT (-113.55961956682508 53.523992880019485)","53.523992880019485","-113.55961956682508","STORM","1958","664.88","sipiwiyiniwak Ward","Parkview","3330","138 STREET NW"
"POINT (-113.52792423816825 53.60032898532157)","53.60032898532157","-113.52792423816825","STORM","1978","676.098","Anirniq Ward","Carlisle","3090","138 AVENUE NW"
"POINT (-113.41598582994382 53.51502470449395)","53.51502470449395","-113.41598582994382","STORM","0","671.13","Métis Ward","Morris Industrial","6540","SHERWOOD PARK FREEWAY [WESTBOUND SIDE] NW"
"POINT (-113.42584687364706 53.43927460458489)","53.43927460458489","-113.42584687364706","STORM","1977","703.733","Karhiio Ward","Sakaw","6670","56 STREET NW"
"POINT (-113.6303732202355 53.510068388273275)","53.510068388273275","-113.6303732202355","STORM","1976","678.216","sipiwiyiniwak Ward","Lymburn","4270","178 STREET [SOUTHBOUND SIDE] NW"
"POINT (-113.4937839389363 53.57839246915365)","53.57839246915365","-113.4937839389363","STORM","1955","666.417","O-day'min Ward","Westwood","1250","101 STREET NW"
"POINT (-113.40031723280947 53.46625037155184)","53.46625037155184","-113.40031723280947","STORM","1979","710.401","Sspomitapi Ward","Kiniski Gardens","6370","37 STREET NW"
"POINT (-113.46145403103101 53.52929523855193)","53.52929523855193","-113.46145403103101","STORM","1981","662.766","Métis Ward","Strathearn","6710","93 AVENUE NW"
"POINT (-113.45975580153824 53.50205678217519)","53.50205678217519","-113.45975580153824","STORM","1955","671.443","papastew Ward","Argyll","6010","86 STREET NW"
"POINT (-113.34649832837653 53.50548149075726)","53.50548149075726","-113.34649832837653","STORM","2010","709.83","Sspomitapi Ward","Maple Ridge Industrial","6420","69 AVENUE NW"
"POINT (-113.47427054249785 53.54219244164507)","53.54219244164507","-113.47427054249785","STORM","1952","629.231","O-day'min Ward","Riverdale","1210","94 STREET NW"
"POINT (-113.4391580036948 53.45184923731406)","53.45184923731406","-113.4391580036948","STORM","1974","693.054","Karhiio Ward","Ekota","6200","68 STREET NW"
"POINT (-113.46559336848472 53.59310969804563)","53.59310969804563","-113.46559336848472","STORM","1965","669.242","tastawiyiniwak Ward","Delwood","2230","132A AVENUE NW"
"POINT (-113.44283179896114 53.58349253465954)","53.58349253465954","-113.44283179896114","STORM","1983","654","Dene Ward","Belvedere","2080","66 STREET NW"
"POINT (-113.54126908590115 53.459635808287146)","53.459635808287146","-113.54126908590115","STORM","1979","671.624","Ipiihkoohkanipiaohtsi Ward","Blue Quill Estates","5070","123 STREET NW"
"POINT (-113.61941920978917 53.57213127442078)","53.57213127442078","-113.61941920978917","STORM","1983","680.587","Nakota Isga Ward","Armstrong Industrial","4030","YELLOWHEAD TRAIL [EASTBOUND SIDE] NW"
"POINT (-113.52203733170252 53.59989106151309)","53.59989106151309","-113.52203733170252","STORM","1976","676.939","Anirniq Ward","Carlisle","3090","137 AVENUE [WESTBOUND SIDE] NW"
"POINT (-113.60554238100342 53.518477831826644)","53.518477831826644","-113.60554238100342","STORM","1962","672.641","sipiwiyiniwak Ward","Elmwood","4140","164 STREET NW"
"POINT (-113.56661131662109 53.51356100654241)","53.51356100654241","-113.56661131662109","STORM","1957","664.368","sipiwiyiniwak Ward","Laurier Heights","3270","143 STREET NW"
"POINT (-113.65210721445365 53.50528562792378)","53.50528562792378","-113.65210721445365","STORM","1988","685.417","sipiwiyiniwak Ward","Lymburn","4270","190A STREET NW"
"POINT (-113.45863605168958 53.44906235902993)","53.44906235902993","-113.45863605168958","STORM","1974","685.78","Karhiio Ward","Satoo","6680","19 AVENUE NW"
"POINT (-113.61583466966111 53.41620038702838)","53.41620038702838","-113.61583466966111","STORM","2018","692.571","pihêsiwin Ward","Keswick","5574","170 STREET SW"
"POINT (-113.41486000411338 53.466254542901495)","53.466254542901495","-113.41486000411338","STORM","1979","701.108","Sspomitapi Ward","Minchau","6530","48 STREET NW"
"POINT (-113.43051928669189 53.511259121759)","53.511259121759","-113.43051928669189","STORM","1981","671.497","Métis Ward","Davies Industrial East","6160","67 STREET NW"
"POINT (-113.56292112205442 53.587518907000074)","53.587518907000074","-113.56292112205442","STORM","1966","677.773","Anirniq Ward","Bonaventure Industrial","4050","ST ALBERT TRAIL [SOUTHBOUND SIDE] NW"
"POINT (-113.50101833916078 53.53573722186964)","53.53573722186964","-113.50101833916078","STORM","1950","653.542","O-day'min Ward","Downtown","1090","105 STREET NW"
"POINT (-113.50930355743613 53.54407743739552)","53.54407743739552","-113.50930355743613","STORM","1912","661.714","O-day'min Ward","Downtown","1090","103 AVENUE NW"
"POINT (-113.4588483961969 53.5708951301179)","53.5708951301179","-113.4588483961969","STORM","1954","660.121","Métis Ward","Eastwood","1100","COLISEUM TRANSIT CENTRE [NORTHBOUND SIDE] NW"
"POINT (-113.52525890778416 53.49224794664678)","53.49224794664678","-113.52525890778416","STORM","1962","667.105","papastew Ward","Lendrum Place","5270","55 AVENUE NW"
"POINT (-113.60952168153712 53.51235835364525)","53.51235835364525","-113.60952168153712","STORM","1986","670.412","sipiwiyiniwak Ward","Elmwood","4140","WHITEMUD DRIVE [WESTBOUND SIDE] NW"
"POINT (-113.52108732259029 53.47850459711029)","53.47850459711029","-113.52108732259029","STORM","1966","671.317","papastew Ward","Royal Gardens","5430","43 AVENUE NW"
"POINT (-113.49566088141557 53.459789679229424)","53.459789679229424","-113.49566088141557","STORM","1976","677.848","Ipiihkoohkanipiaohtsi Ward","Ermineskin","5180","28A AVENUE NW"
"POINT (-113.37734233022516 53.57921098906709)","53.57921098906709","-113.37734233022516","STORM","1978","635.203","Dene Ward","Canon Ridge","2120","HYNDMAN CRESCENT NW"
"POINT (-113.4757577623904 53.517078288436046)","53.517078288436046","-113.4757577623904","STORM","1939","663.133","papastew Ward","Ritchie","6610","81 AVENUE NW"
"POINT (-113.53586995255353 53.582452755741784)","53.582452755741784","-113.53586995255353","STORM","1959","673.595","Anirniq Ward","Hagmann Estate Industrial","3220","126 AVENUE NW"
"POINT (-113.44900335840968 53.60937276307734)","53.60937276307734","-113.44900335840968","STORM","1968","680.56","tastawiyiniwak Ward","Kilkenny","2410","72 STREET NW"
"POINT (-113.44373921092907 53.57217689994892)","53.57217689994892","-113.44373921092907","STORM","0","659.02","Métis Ward","Montrose","2550","119 AVENUE NW"
"POINT (-113.46196312750287 53.592139634264285)","53.592139634264285","-113.46196312750287","STORM","1962","668.343","tastawiyiniwak Ward","Balwin","2020","132 AVENUE NW"
"POINT (-113.6146698577732 53.534421225828645)","53.534421225828645","-113.6146698577732","STORM","1968","674.34","Nakota Isga Ward","Glenwood","4180","170 STREET [NORTHBOUND SIDE] NW"
"POINT (-113.51454349631477 53.46808988480672)","53.46808988480672","-113.51454349631477","STORM","1973","673.932","papastew Ward","Duggan","5160","35 AVENUE NW"
"POINT (-113.37571590050881 53.606127915013346)","53.606127915013346","-113.37571590050881","STORM","1977","648.354","Dene Ward","Bannerman","2030","22A STREET NW"
"POINT (-113.43542063356264 53.51900072768547)","53.51900072768547","-113.43542063356264","STORM","1962","668.86","Métis Ward","Kenilworth","6350","83 AVENUE NW"
"POINT (-113.59184082465924 53.46680657686131)","53.46680657686131","-113.59184082465924","STORM","1989","678.017","pihêsiwin Ward","Falconer Heights","5190","FALCONER ROAD NW"
"POINT (-113.6228542814298 53.49717005053203)","53.49717005053203","-113.6228542814298","STORM","1982","672.94","sipiwiyiniwak Ward","Callingwood South","4080","CALLINGWOOD ROAD [WESTBOUND SIDE] NW"
"POINT (-113.38182652061032 53.59628461327657)","53.59628461327657","-113.38182652061032","STORM","1976","647.692","Dene Ward","Kernohan","2390","135 AVENUE NW"
"POINT (-113.6156771253647 53.55603971351567)","53.55603971351567","-113.6156771253647","STORM","1977","677.214","Nakota Isga Ward","McNamara Industrial","4300","109 AVENUE NW"
"POINT (-113.68501578584697 53.566901849057345)","53.566901849057345","-113.68501578584697","STORM","2014","695.229","Nakota Isga Ward","Winterburn Industrial Area East","4650","115 AVENUE NW"
"POINT (-113.52208372377613 53.58087950738072)","53.58087950738072","-113.52208372377613","STORM","1980","669.049","Anirniq Ward","Yellowhead Corridor West","1280","YELLOWHEAD TRAIL [WESTBOUND SIDE] NW"
"POINT (-113.48701091485115 53.561123612985924)","53.561123612985924","-113.48701091485115","STORM","1977","661.876","Métis Ward","Alberta Avenue","1010","112 AVENUE NW"
"POINT (-113.41466729455327 53.4547405351212)","53.4547405351212","-113.41466729455327","STORM","1977","698.973","Sspomitapi Ward","Pollard Meadows","6580","47 STREET NW"
"POINT (-113.4084815271384 53.567218067839896)","53.567218067839896","-113.4084815271384","STORM","1960","654.305","Métis Ward","Beverly Heights","2100","114 AVENUE NW"
"POINT (-113.5783507372084 53.491262974129555)","53.491262974129555","-113.5783507372084","STORM","1972","669.743","pihêsiwin Ward","Brander Gardens","5080","RIVERBEND ROAD [SOUTHBOUND SIDE] NW"
"POINT (-113.57948238061161 53.55254736936417)","53.55254736936417","-113.57948238061161","STORM","1995","673.185","Nakota Isga Ward","High Park","4200","108 AVENUE NW"
"POINT (-113.38029969656775 53.60578359228672)","53.60578359228672","-113.38029969656775","STORM","1977","647.94","Dene Ward","Bannerman","2030","142 AVENUE NW"
"POINT (-113.51114618267114 53.59218362587834)","53.59218362587834","-113.51114618267114","STORM","1958","672.203","Anirniq Ward","Rosslyn","3390","132 AVENUE NW"
"POINT (-113.59556148645909 53.54348075900105)","53.54348075900105","-113.59556148645909","STORM","1993","673.816","Nakota Isga Ward","Britannia Youngstown","4060","159 STREET NW"
"POINT (-113.4311505082015 53.551227939772986)","53.551227939772986","-113.4311505082015","STORM","1956","657.78","Métis Ward","Capilano","6061","65 STREET NW"
"POINT (-113.49640320823008 53.628310582435596)","53.628310582435596","-113.49640320823008","STORM","1979","678.915","tastawiyiniwak Ward","Lorelei","3280","99 STREET NW"
"POINT (-113.43083314182847 53.45020704053348)","53.45020704053348","-113.43083314182847","STORM","1977","691.967","Karhiio Ward","Meyokumin","6460","19A AVENUE NW"
"POINT (-113.57820742719446 53.55174454877936)","53.55174454877936","-113.57820742719446","STORM","0","672.796","Nakota Isga Ward","High Park","4200","149 STREET [SOUTHBOUND SIDE] NW"
"POINT (-113.43811357985317 53.594330829668586)","53.594330829668586","-113.43811357985317","STORM","1961","661.526","Dene Ward","Belvedere","2080","63 STREET NW"
"POINT (-113.37384779482812 53.45091557757096)","53.45091557757096","-113.37384779482812","STORM","2017","716.77","Sspomitapi Ward","Laurel","6444","20 AVENUE NW"
"POINT (-113.46585340378417 53.48016190471184)","53.48016190471184","-113.46585340378417","STORM","2017","676.35","Karhiio Ward","Tweddle Place","6760","91 STREET [NORTHBOUND SIDE] NW"
"POINT (-113.51949361866919 53.63272537192642)","53.63272537192642","-113.51949361866919","STORM","1991","681.668","Anirniq Ward","Canossa","3080","114 STREET NW"
"POINT (-113.56300464952794 53.46398823967859)","53.46398823967859","-113.56300464952794","STORM","1985","671.094","pihêsiwin Ward","Ogilvie Ridge","5300","OGILVIE BOULEVARD NW"
"POINT (-113.57248619813905 53.48479030904974)","53.48479030904974","-113.57248619813905","STORM","1976","667.125","pihêsiwin Ward","Ramsay Heights","5340","WHITEMUD DRIVE [EASTBOUND SIDE] NW"
"POINT (-113.4662332593655 53.60834454504011)","53.60834454504011","-113.4662332593655","STORM","1967","678.3","tastawiyiniwak Ward","Kilkenny","2410","81 STREET NW"
"POINT (-113.45888779913261 53.563203470599206)","53.563203470599206","-113.45888779913261","STORM","1956","659.106","Métis Ward","Virginia Park","1240","BORDEN PARK ROAD NW"
"POINT (-113.60483212343908 53.51204217426707)","53.51204217426707","-113.60483212343908","STORM","1984","668.853","sipiwiyiniwak Ward","Patricia Heights","4390","WHITEMUD DRIVE [EASTBOUND SIDE] NW"
"POINT (-113.53923115724612 53.53106020520666)","53.53106020520666","-113.53923115724612","STORM","0","634.542","papastew Ward","River Valley Mayfair","5370","EMILY MURPHY PARK ROAD [WESTBOUND SIDE] NW"
"POINT (-113.49453597844555 53.50437281333953)","53.50437281333953","-113.49453597844555","STORM","1950","672.694","papastew Ward","Strathcona Junction","5151","GATEWAY BOULEVARD NW"
"POINT (-113.41097765957093 53.452093530715715)","53.452093530715715","-113.41097765957093","STORM","1977","702.06","Sspomitapi Ward","Pollard Meadows","6580","20 AVENUE NW"
"POINT (-113.60354839628747 53.53756196608049)","53.53756196608049","-113.60354839628747","STORM","1961","674.6","Nakota Isga Ward","Glenwood","4180","99 AVENUE NW"
"POINT (-113.49161918016529 53.56737970198639)","53.56737970198639","-113.49161918016529","STORM","1984","662.133","Métis Ward","Alberta Avenue","1010","116 AVENUE NW"
"POINT (-113.41063045297136 53.57661406337578)","53.57661406337578","-113.41063045297136","STORM","1958","655.333","Métis Ward","Beacon Heights","2040","45 STREET NW"
"POINT (-113.60287697287326 53.574438810478625)","53.574438810478625","-113.60287697287326","STORM","1982","678.798","Nakota Isga Ward","Carleton Square Industrial","4100","163 STREET NW"
"POINT (-113.41837243973802 53.54349902003508)","53.54349902003508","-113.41837243973802","STORM","1958","664.938","Métis Ward","Gold Bar","6270","50 STREET [NORTHBOUND SIDE] NW"
"POINT (-113.53240915698997 53.56854056999197)","53.56854056999197","-113.53240915698997","STORM","1970","667.222","Anirniq Ward","Inglewood","3240","122 STREET NW"
"POINT (-113.56537984897479 53.524926027778136)","53.524926027778136","-113.56537984897479","STORM","1958","668.439","sipiwiyiniwak Ward","Parkview","3330","91 AVENUE NW"
"POINT (-113.4045986350739 53.57765809578513)","53.57765809578513","-113.4045986350739","STORM","1958","653.971","Métis Ward","Bergman","2090","41 STREET NW"
"POINT (-113.54790785876946 53.48403202189798)","53.48403202189798","-113.54790785876946","STORM","1965","662.234","papastew Ward","Lansdowne","5260","LANSDOWNE DRIVE NW"
"POINT (-113.47689731720091 53.48806408154964)","53.48806408154964","-113.47689731720091","STORM","1977","672.049","Karhiio Ward","Papaschase Industrial","6560","51 AVENUE NW"
"POINT (-113.40237328833373 53.58436603635259)","53.58436603635259","-113.40237328833373","STORM","1974","649.83","Dene Ward","Homesteader","2350","HERMITAGE ROAD [WESTBOUND SIDE] NW"
"POINT (-113.55331525058807 53.5751763984181)","53.5751763984181","-113.55331525058807","STORM","0","673.579","Anirniq Ward","Dovercourt","3170","ST ALBERT TRAIL NW"
"POINT (-113.47951686611961 53.48012037768064)","53.48012037768064","-113.47951686611961","STORM","1977","676.346","Karhiio Ward","Strathcona Industrial Park","6700","97 STREET NW"
"POINT (-113.44864446219194 53.5638196467633)","53.5638196467633","-113.44864446219194","STORM","1973","660.369","Métis Ward","Edmonton Northlands","1120","WAYNE GRETZKY DRIVE [SOUTHBOUND SIDE] NW"
"POINT (-113.5407883904931 53.50467288905956)","53.50467288905956","-113.5407883904931","STORM","1967","649.873","papastew Ward","River Valley Whitemud","5400","FOX DRIVE [WESTBOUND SIDE] NW"
"POINT (-113.52690280722616 53.58983335819075)","53.58983335819075","-113.52690280722616","STORM","1953","674.938","Anirniq Ward","Calder","3070","130 AVENUE NW"
"POINT (-113.47892271855169 53.514235212989355)","53.514235212989355","-113.47892271855169","STORM","1973","666.358","papastew Ward","Ritchie","6610","78 AVENUE NW"
"POINT (-113.4852918688437 53.581594426455595)","53.581594426455595","-113.4852918688437","STORM","1981","668.193","Métis Ward","Yellowhead Corridor East","1270","YELLOWHEAD TRAIL NW"
"POINT (-113.44816056991841 53.46645011670484)","53.46645011670484","-113.44816056991841","STORM","1972","691.847","Karhiio Ward","Lee Ridge","6400","LEE RIDGE ROAD NW"
"POINT (-113.41335653093186 53.59734610812083)","53.59734610812083","-113.41335653093186","STORM","1976","651.925","Dene Ward","Clareview Town Centre","2145","50 STREET [NORTHBOUND SIDE] NW"
"POINT (-113.48114150545699 53.56744396732926)","53.56744396732926","-113.48114150545699","STORM","1977","662.933","Métis Ward","Alberta Avenue","1010","91 STREET NW"
"POINT (-113.53578773526216 53.55738660723421)","53.55738660723421","-113.53578773526216","STORM","1950","666.442","O-day'min Ward","Westmount","3440","110 AVENUE NW"
"POINT (-113.43853427573717 53.461642315512535)","53.461642315512535","-113.43853427573717","STORM","1973","689.865","Karhiio Ward","Kameyosek","6340","31 AVENUE NW"
"POINT (-113.51335332396984 53.45378216532188)","53.45378216532188","-113.51335332396984","STORM","1987","677.267","Ipiihkoohkanipiaohtsi Ward","Keheewin","5250","23 AVENUE [EASTBOUND SIDE] NW"
"POINT (-113.49732389468478 53.572064401335666)","53.572064401335666","-113.49732389468478","STORM","1979","663.276","O-day'min Ward","Westwood","1250","103 STREET NW"
"POINT (-113.43756731874491 53.442188013930085)","53.442188013930085","-113.43756731874491","STORM","1977","692.704","Karhiio Ward","Sakaw","6670","65 STREET NW"
"POINT (-113.44734341149774 53.56432912485127)","53.56432912485127","-113.44734341149774","STORM","1923","659.978","Métis Ward","Bellevue","2060","71 STREET NW"
"POINT (-113.64227103452778 53.52756878631521)","53.52756878631521","-113.64227103452778","STORM","1974","682.294","Nakota Isga Ward","Belmead","4040","92A AVENUE NW"
"POINT (-113.60062055588693 53.54336130818796)","53.54336130818796","-113.60062055588693","STORM","1993","674.518","Nakota Isga Ward","Britannia Youngstown","4060","102 AVENUE NW"
"POINT (-113.42841998887299 53.53874523988349)","53.53874523988349","-113.42841998887299","STORM","0","664.804","Métis Ward","Ottewell","6550","98 AVENUE [EASTBOUND SIDE] NW"
"POINT (-113.43611635108677 53.452868456325966)","53.452868456325966","-113.43611635108677","STORM","1974","691.765","Karhiio Ward","Ekota","6200","22 AVENUE NW"
"POINT (-113.4975492357353 53.53890868964628)","53.53890868964628","-113.4975492357353","STORM","1965","669.962","O-day'min Ward","Downtown","1090","100 AVENUE NW"
"POINT (-113.6155302938214 53.54984145833615)","53.54984145833615","-113.6155302938214","STORM","1979","675.532","Nakota Isga Ward","McNamara Industrial","4300","170 STREET [SOUTHBOUND SIDE] NW"
"POINT (-113.47304604947794 53.52575667213859)","53.52575667213859","-113.47304604947794","STORM","1981","660.739","Métis Ward","Bonnie Doon","6040","95 STREET NW"
"POINT (-113.44031892113368 53.60680659948052)","53.60680659948052","-113.44031892113368","STORM","1966","676.878","Dene Ward","McLeod","2530","64 STREET NW"
"POINT (-113.4606452858085 53.44356928558654)","53.44356928558654","-113.4606452858085","STORM","1974","685.714","Karhiio Ward","Satoo","6680","85 STREET NW"
"POINT (-113.5113166981515 53.46630319605668)","53.46630319605668","-113.5113166981515","STORM","1982","672.867","Ipiihkoohkanipiaohtsi Ward","Steinhauer","5470","34 AVENUE [EASTBOUND SIDE] NW"
"POINT (-113.41835150050629 53.54953498520827)","53.54953498520827","-113.41835150050629","STORM","1958","659.754","Métis Ward","Gold Bar","6270","50 STREET [NORTHBOUND SIDE] NW"
"POINT (-113.55338566383062 53.59890372313749)","53.59890372313749","-113.55338566383062","STORM","1958","679.54","Anirniq Ward","Wellington","3430","136A AVENUE NW"
"POINT (-113.40965993343389 53.51941513329418)","53.51941513329418","-113.40965993343389","STORM","1976","672.502","Métis Ward","Morris Industrial","6540","45 STREET NW"
"POINT (-113.48724917391043 53.57990255253189)","53.57990255253189","-113.48724917391043","STORM","1979","666.393","Métis Ward","Delton","1080","124 AVENUE NW"
"POINT (-113.54285656396792 53.57021809142224)","53.57021809142224","-113.54285656396792","STORM","1953","669.205","Anirniq Ward","Inglewood","3240","118 AVENUE NW"
"POINT (-113.52068841280455 53.45742821364668)","53.45742821364668","-113.52068841280455","STORM","1978","674.646","Ipiihkoohkanipiaohtsi Ward","Blue Quill","5060","112 STREET NW"
"POINT (-113.42020751511667 53.504751869818186)","53.504751869818186","-113.42020751511667","STORM","1981","679.751","Karhiio Ward","Roper Industrial","6640","68 AVENUE NW"
"POINT (-113.44895403325287 53.610221607668706)","53.610221607668706","-113.44895403325287","STORM","1968","680.877","tastawiyiniwak Ward","Kilkenny","2410","149 AVENUE NW"
"POINT (-113.6384343296511 53.52938026929177)","53.52938026929177","-113.6384343296511","STORM","1980","679.838","Nakota Isga Ward","La Perle","4240","182 STREET NW"
"POINT (-113.49398648218586 53.5179701181032)","53.5179701181032","-113.49398648218586","STORM","0","671.837","papastew Ward","CPR Irvine","6110","82 AVENUE [EASTBOUND SIDE] NW"
"POINT (-113.39691522323653 53.61922987995697)","53.61922987995697","-113.39691522323653","STORM","2015","658.73","Dene Ward","Gorman","2311","158 AVENUE NW"
"POINT (-113.66858602750678 53.47655746378993)","53.47655746378993","-113.66858602750678","STORM","2018","693.382","sipiwiyiniwak Ward","Edgemont","4462","EDGEMONT ROAD NW"
"POINT (-113.47825225480916 53.645207350504435)","53.645207350504435","-113.47825225480916","STORM","2016","686.09","tastawiyiniwak Ward","Klarvatten","2440","90 STREET NW"
"POINT (-113.43534713327588 53.575917155238564)","53.575917155238564","-113.43534713327588","STORM","1964","658.686","Métis Ward","Montrose","2550","61 STREET NW"
"POINT (-113.46364000119321 53.46525917866942)","53.46525917866942","-113.46364000119321","STORM","1973","683.036","Karhiio Ward","Tipaskan","6750","34 AVENUE [EASTBOUND SIDE] NW"
"POINT (-113.41068880045864 53.58892256861964)","53.58892256861964","-113.41068880045864","STORM","1973","652.226","Dene Ward","Homesteader","2350","HERMITAGE ROAD [EASTBOUND SIDE] NW"
"POINT (-113.43620595585648 53.61360487043804)","53.61360487043804","-113.43620595585648","STORM","1967","683.482","Dene Ward","McLeod","2530","152A AVENUE NW"
"POINT (-113.6327311045811 53.41474119727799)","53.41474119727799","-113.6327311045811","STORM","2017","689.988","pihêsiwin Ward","Keswick","5574","KING LANDING SW"
"POINT (-113.57566043420238 53.51734372951024)","53.51734372951024","-113.57566043420238","STORM","1957","668.048","sipiwiyiniwak Ward","Laurier Heights","3270","84 AVENUE NW"
"POINT (-113.35666396162824 53.50665701094589)","53.50665701094589","-113.35666396162824","STORM","2010","705.64","Sspomitapi Ward","Maple Ridge Industrial","6420","70 AVENUE NW"
"POINT (-113.7107696702687 53.537835193580435)","53.537835193580435","-113.7107696702687","STORM","2018","707.17","Nakota Isga Ward","Secord","4487","229 STREET NW"
"POINT (-113.46472595024689 53.60869124746768)","53.60869124746768","-113.46472595024689","STORM","1967","677.7","tastawiyiniwak Ward","Kilkenny","2410","147 AVENUE NW"
"POINT (-113.61344940475561 53.555895139813636)","53.555895139813636","-113.61344940475561","STORM","1961","676.501","Nakota Isga Ward","Youngstown Industrial","4660","109 AVENUE NW"
"POINT (-113.70188283200702 53.52676440278136)","53.52676440278136","-113.70188283200702","STORM","2019","709.024","Nakota Isga Ward","Secord","4487","223 STREET NW"
"POINT (-113.53544826690019 53.446319730593764)","53.446319730593764","-113.53544826690019","STORM","1996","679.987","Ipiihkoohkanipiaohtsi Ward","Twin Brooks","5511","14 AVENUE NW"
"POINT (-113.45184571887157 53.50393507727891)","53.50393507727891","-113.45184571887157","STORM","1961","672.238","Métis Ward","Avonmore","6020","ARGYLL ROAD NW"
"POINT (-113.62068867490417 53.51973292534019)","53.51973292534019","-113.62068867490417","STORM","1971","674.886","sipiwiyiniwak Ward","Thorncliff","4560","87 AVENUE [EASTBOUND SIDE] NW"
"POINT (-113.41848470183639 53.44596442414496)","53.44596442414496","-113.41848470183639","STORM","1977","704.382","Sspomitapi Ward","Pollard Meadows","6580","MILL WOODS ROAD SOUTH NW"
"POINT (-113.52774298365382 53.47758738066614)","53.47758738066614","-113.52774298365382","STORM","1964","669.789","papastew Ward","Royal Gardens","5430","41 AVENUE NW"
"POINT (-113.45880681564655 53.58498078124318)","53.58498078124318","-113.45880681564655","STORM","1964","663.334","tastawiyiniwak Ward","Balwin","2020","127 AVENUE NW"
"POINT (-113.51401526575636 53.54553869606339)","53.54553869606339","-113.51401526575636","STORM","1987","661.843","O-day'min Ward","Oliver","1150","112 STREET NW"
"POINT (-113.46441615762744 53.53517723610827)","53.53517723610827","-113.46441615762744","STORM","1951","660.646","Métis Ward","Strathearn","6710","97 AVENUE NW"
"POINT (-113.58816203108402 53.58475847263648)","53.58475847263648","-113.58816203108402","STORM","2019","679.536","Anirniq Ward","Mistatim Industrial","4320","128 AVENUE NW"
"POINT (-113.53374942111793 53.45388095839301)","53.45388095839301","-113.53374942111793","STORM","1980","676.886","Ipiihkoohkanipiaohtsi Ward","Skyrattler","5460","23 AVENUE [EASTBOUND SIDE] NW"
"POINT (-113.47047324742562 53.50297478760507)","53.50297478760507","-113.47047324742562","STORM","1954","670.749","papastew Ward","Hazeldean","6290","66 AVENUE NW"
"POINT (-113.49916784578886 53.578209933676156)","53.578209933676156","-113.49916784578886","STORM","1949","667.384","O-day'min Ward","Westwood","1250","104 STREET NW"
"POINT (-113.42158795971544 53.57582468215704)","53.57582468215704","-113.42158795971544","STORM","1956","656.826","Métis Ward","Newton","2560","52 STREET NW"
"POINT (-113.62694083639796 53.49333927614082)","53.49333927614082","-113.62694083639796","STORM","1978","675.436","sipiwiyiniwak Ward","Gariepy","4160","57 AVENUE NW"
"POINT (-113.48573823784162 53.56267129535162)","53.56267129535162","-113.48573823784162","STORM","1977","662.426","Métis Ward","Alberta Avenue","1010","113 AVENUE NW"
"POINT (-113.52854936500519 53.46729687335712)","53.46729687335712","-113.52854936500519","STORM","1975","673.095","papastew Ward","Greenfield","5220","114 STREET NW"
"POINT (-113.58830482086262 53.57976602306449)","53.57976602306449","-113.58830482086262","STORM","2006","677.87","Anirniq Ward","Gagnon Estate Industrial","4150","YELLOWHEAD TRAIL [EASTBOUND SIDE] NW"
"POINT (-113.60226703708861 53.41649595762213)","53.41649595762213","-113.60226703708861","STORM","2015","690.39","pihêsiwin Ward","Glenridding Ravine","5579","163 STREET SW"
"POINT (-113.42801420152765 53.54215530094308)","53.54215530094308","-113.42801420152765","STORM","1956","662.419","Métis Ward","Fulton Place","6240","62 STREET NW"
"POINT (-113.40013369360388 53.567643358021435)","53.567643358021435","-113.40013369360388","STORM","1958","656.436","Métis Ward","Beverly Heights","2100","115 AVENUE NW"
"POINT (-113.64585297554156 53.51977125288911)","53.51977125288911","-113.64585297554156","STORM","1974","682.691","Nakota Isga Ward","Aldergrove","4020","187 STREET NW"
"POINT (-113.41821887475076 53.513416289439185)","53.513416289439185","-113.41821887475076","STORM","1968","673.562","Métis Ward","Weir Industrial","6780","50 STREET [NORTHBOUND SIDE] NW"
"POINT (-113.59617110480491 53.530646655119206)","53.530646655119206","-113.59617110480491","STORM","1958","671.9","sipiwiyiniwak Ward","Meadowlark Park","4310","94A AVENUE NW"
"POINT (-113.50925206993932 53.54467709584083)","53.54467709584083","-113.50925206993932","STORM","1912","662.375","O-day'min Ward","Downtown","1090","103 AVENUE NW"
"POINT (-113.46110100612118 53.48155900210829)","53.48155900210829","-113.46110100612118","STORM","2017","679.9","Karhiio Ward","Tweddle Place","6760","86 STREET NW"
"POINT (-113.53240529656256 53.56695272672215)","53.56695272672215","-113.53240529656256","STORM","1970","666.811","Anirniq Ward","Inglewood","3240","122 STREET NW"
"POINT (-113.54958717345481 53.510630440667484)","53.510630440667484","-113.54958717345481","STORM","1958","626.59","sipiwiyiniwak Ward","River Valley Laurier","3382","SIR WILFRED LAURIER PARK ROAD NW"
"POINT (-113.43784558049026 53.511285788851445)","53.511285788851445","-113.43784558049026","STORM","0","670.868","Métis Ward","Girard Industrial","6260","ARGYLL ROAD [WESTBOUND SIDE] NW"
"POINT (-113.49468556149849 53.5497780620995)","53.5497780620995","-113.49468556149849","STORM","1908","664.247","O-day'min Ward","Central McDougall","1030","106 AVENUE NW"
"POINT (-113.46831688955373 53.59434082808923)","53.59434082808923","-113.46831688955373","STORM","1961","668.29","tastawiyiniwak Ward","Glengarry","2290","133A AVENUE NW"
"POINT (-113.44458603393501 53.52524063880821)","53.52524063880821","-113.44458603393501","STORM","2015","667.721","Métis Ward","Holyrood","6310","90 AVENUE [WESTBOUND SIDE] NW"
"POINT (-113.40873993304774 53.50415517840501)","53.50415517840501","-113.40873993304774","STORM","1975","677.957","Sspomitapi Ward","Pylypow Industrial","6590","ELENIAK ROAD NW"
"POINT (-113.47279072490791 53.57678696539827)","53.57678696539827","-113.47279072490791","STORM","1978","663.35","Métis Ward","Delton","1080","122 AVENUE NW"
"POINT (-113.51387550434728 53.54380515958938)","53.54380515958938","-113.51387550434728","STORM","1987","662.478","O-day'min Ward","Oliver","1150","112 STREET NW"
"POINT (-113.56331017426996 53.55877458981554)","53.55877458981554","-113.56331017426996","STORM","1953","671.695","Nakota Isga Ward","North Glenora","3310","111 AVENUE [EASTBOUND SIDE] NW"
"POINT (-113.41307484767133 53.555943872354426)","53.555943872354426","-113.41307484767133","STORM","1957","643.266","Métis Ward","Capilano","6061","108 AVENUE NW"
"POINT (-113.49315732817018 53.46109200539231)","53.46109200539231","-113.49315732817018","STORM","1984","675.788","Karhiio Ward","Calgary Trail South","5120","CALGARY TRAIL NW"
"POINT (-113.49812441693234 53.53161899132844)","53.53161899132844","-113.49812441693234","STORM","1945","624.691","O-day'min Ward","Rossdale","1220","ROSSDALE ROAD NW"
"POINT (-113.41884950236123 53.554763421421065)","53.554763421421065","-113.41884950236123","STORM","1957","652.294","Métis Ward","Capilano","6061","107A AVENUE NW"
"POINT (-113.43954194739952 53.562363990399895)","53.562363990399895","-113.43954194739952","STORM","1948","657.428","Métis Ward","Bellevue","2060","67 STREET NW"
"POINT (-113.46778554632901 53.47078964836259)","53.47078964836259","-113.46778554632901","STORM","1979","682.571","Karhiio Ward","Strathcona Industrial Park","6700","91 STREET NW"
"POINT (-113.45691862154821 53.489790095866844)","53.489790095866844","-113.45691862154821","STORM","1976","676.098","Karhiio Ward","McIntyre Industrial","6430","53 AVENUE NW"
"POINT (-113.49548242997844 53.57047770696687)","53.57047770696687","-113.49548242997844","STORM","1929","662.555","O-day'min Ward","Westwood","1250","102 STREET NW"
"POINT (-113.45676698213941 53.450106784516144)","53.450106784516144","-113.45676698213941","STORM","1974","685.249","Karhiio Ward","Satoo","6680","KNOTTWOOD ROAD NORTH NW"
"POINT (-113.62350950347171 53.51620602786015)","53.51620602786015","-113.62350950347171","STORM","1972","675.265","sipiwiyiniwak Ward","Thorncliff","4560","175 STREET NW"
"POINT (-113.57495314984105 53.52565388278325)","53.52565388278325","-113.57495314984105","STORM","1955","668.5","sipiwiyiniwak Ward","Parkview","3330","92 AVENUE NW"
"POINT (-113.43897556809797 53.44945325079513)","53.44945325079513","-113.43897556809797","STORM","1974","690.749","Karhiio Ward","Ekota","6200","19 AVENUE NW"
"POINT (-113.58309585581027 53.406409424119076)","53.406409424119076","-113.58309585581027","STORM","2018","693.987","Ipiihkoohkanipiaohtsi Ward","Chappelle Area","5462","CHAPPELLE GREEN SW"
"POINT (-113.46180224942563 53.526995278479994)","53.526995278479994","-113.46180224942563","STORM","1964","665.932","Métis Ward","Strathearn","6710","CONNORS ROAD NW"
"POINT (-113.6148027969568 53.516688300422)","53.516688300422","-113.6148027969568","STORM","0","674.171","sipiwiyiniwak Ward","Elmwood","4140","170 STREET [NORTHBOUND SIDE] NW"
"POINT (-113.49505237910097 53.487819158174176)","53.487819158174176","-113.49505237910097","STORM","1976","670.338","papastew Ward","Empire Park","5170","51 AVENUE [EASTBOUND SIDE] NW"
"POINT (-113.44442536184292 53.57347283076099)","53.57347283076099","-113.44442536184292","STORM","1930","659.715","Métis Ward","Montrose","2550","120 AVENUE NW"
"POINT (-113.37742382481038 53.59985717874675)","53.59985717874675","-113.37742382481038","STORM","1977","647.875","Dene Ward","Bannerman","2030","137 AVENUE NW"
"POINT (-113.49120789716652 53.51617025705345)","53.51617025705345","-113.49120789716652","STORM","1975","671.408","papastew Ward","Ritchie","6610","80 AVENUE NW"
"POINT (-113.58861892669644 53.51271957683732)","53.51271957683732","-113.58861892669644","STORM","1958","670.995","sipiwiyiniwak Ward","Lynnwood","4280","79A AVENUE NW"
"POINT (-113.5130741191931 53.55772210166801)","53.55772210166801","-113.5130741191931","STORM","1950","662.602","O-day'min Ward","Queen Mary Park","1180","110A AVENUE NW"
"POINT (-113.5077783115186 53.5721393769745)","53.5721393769745","-113.5077783115186","STORM","1977","665.162","O-day'min Ward","Blatchford Area","1111","109 STREET NW"
"POINT (-113.39064509121992 53.560627985755346)","53.560627985755346","-113.39064509121992","STORM","1965","649.095","Métis Ward","Rundle Heights","2660","107 AVENUE NW"
"POINT (-113.5267457056823 53.54450075331068)","53.54450075331068","-113.5267457056823","STORM","1971","664.061","O-day'min Ward","Oliver","1150","119 STREET NW"
"POINT (-113.51590582394344 53.618073188063114)","53.618073188063114","-113.51590582394344","STORM","1978","678.415","tastawiyiniwak Ward","Beaumaris","3040","112 STREET NW"
"POINT (-113.51746905503728 53.55714603730629)","53.55714603730629","-113.51746905503728","STORM","1950","665.006","O-day'min Ward","Queen Mary Park","1180","110 AVENUE NW"
"POINT (-113.42409822937697 53.44404458741267)","53.44404458741267","-113.42409822937697","STORM","1977","703","Karhiio Ward","Sakaw","6670","14A AVENUE NW"
"POINT (-113.52413095373146 53.478469083656016)","53.478469083656016","-113.52413095373146","STORM","1964","670.566","papastew Ward","Royal Gardens","5430","43 AVENUE NW"
"POINT (-113.41620097962021 53.59197755816467)","53.59197755816467","-113.41620097962021","STORM","1975","651.077","Dene Ward","Sifton Park","2710","50 STREET [NORTHBOUND SIDE] NW"
"POINT (-113.65200197861657 53.5168066939797)","53.5168066939797","-113.65200197861657","STORM","1981","685.062","Nakota Isga Ward","Aldergrove","4020","83 AVENUE NW"
"POINT (-113.47249160062535 53.51182439117038)","53.51182439117038","-113.47249160062535","STORM","1950","669.091","papastew Ward","Ritchie","6610","76 AVENUE NW"
"POINT (-113.52003044630098 53.49492744505588)","53.49492744505588","-113.52003044630098","STORM","1961","667.747","papastew Ward","Lendrum Place","5270","57 AVENUE NW"
"POINT (-113.49616722535094 53.632962307480845)","53.632962307480845","-113.49616722535094","STORM","1978","678.867","tastawiyiniwak Ward","Baturyn","3030","171 AVENUE NW"
"POINT (-113.64475031654513 53.503060189251364)","53.503060189251364","-113.64475031654513","STORM","1977","683.202","sipiwiyiniwak Ward","Ormsby Place","4380","69 AVENUE [EASTBOUND SIDE] NW"
"POINT (-113.59439447763766 53.47881631843959)","53.47881631843959","-113.59439447763766","STORM","1980","669.854","pihêsiwin Ward","River Valley Terwillegar","5380","ROMANIUK ROAD NW"
"POINT (-113.57795829044198 53.54676944927817)","53.54676944927817","-113.57795829044198","STORM","2004","671.493","Nakota Isga Ward","Grovenor","3210","149 STREET NW"
"POINT (-113.56118811944327 53.48234334988691)","53.48234334988691","-113.56118811944327","STORM","1977","659.81","pihêsiwin Ward","Bulyea Heights","5100","WHITEMUD DRIVE [EASTBOUND SIDE] NW"
"POINT (-113.51438423047675 53.62027971892303)","53.62027971892303","-113.51438423047675","STORM","1978","678.798","tastawiyiniwak Ward","Beaumaris","3040","159 AVENUE NW"
"POINT (-113.50220875541466 53.44064567485764)","53.44064567485764","-113.50220875541466","STORM","1979","682.262","Ipiihkoohkanipiaohtsi Ward","Bearspaw","5030","107 STREET NW"
"POINT (-113.46951544048846 53.56835138560595)","53.56835138560595","-113.46951544048846","STORM","1913","660.64","Métis Ward","Parkdale","1160","FORT ROAD NW"
"POINT (-113.59870906826158 53.55878873123399)","53.55878873123399","-113.59870906826158","STORM","1970","675.846","Nakota Isga Ward","Mayfield","4290","111 AVENUE [EASTBOUND SIDE] NW"
"POINT (-113.45490390213496 53.496949678560355)","53.496949678560355","-113.45490390213496","STORM","1965","671.677","Métis Ward","Davies Industrial West","6170","WAGNER ROAD NW"
"POINT (-113.47027584668865 53.60080574372301)","53.60080574372301","-113.47027584668865","STORM","1969","671.458","tastawiyiniwak Ward","Northmount","2580","138 AVENUE NW"
"POINT (-113.37082577210946 53.60998080389832)","53.60998080389832","-113.37082577210946","STORM","1979","646.717","Dene Ward","Fraser","2280","147 AVENUE NW"
"POINT (-113.44828977597999 53.526348068616244)","53.526348068616244","-113.44828977597999","STORM","1954","667.697","Métis Ward","Holyrood","6310","91 AVENUE NW"
"POINT (-113.63834388627001 53.51949073380003)","53.51949073380003","-113.63834388627001","STORM","1975","679.102","Nakota Isga Ward","Aldergrove","4020","86 AVENUE NW"
"POINT (-113.39627236094603 53.55972915274851)","53.55972915274851","-113.39627236094603","STORM","1965","653.208","Métis Ward","Rundle Heights","2660","106 AVENUE NW"
"POINT (-113.40690737325518 53.576748812851)","53.576748812851","-113.40690737325518","STORM","0","654.572","Métis Ward","Bergman","2090","122 AVENUE NW"
"POINT (-113.5296655803792 53.5451310205214)","53.5451310205214","-113.5296655803792","STORM","1928","665.479","O-day'min Ward","Oliver","1150","103 AVENUE NW"
"POINT (-113.44316453558186 53.47014160631816)","53.47014160631816","-113.44316453558186","STORM","1973","695.722","Karhiio Ward","Lee Ridge","6400","36A AVENUE NW"
"POINT (-113.4292944584481 53.516031874123335)","53.516031874123335","-113.4292944584481","STORM","0","663.443","Métis Ward","Gainer Industrial","6250","SHERWOOD PARK FREEWAY [WESTBOUND SIDE] NW"
"POINT (-113.42704564166917 53.51798986081425)","53.51798986081425","-113.42704564166917","STORM","1962","668.586","Métis Ward","Gainer Industrial","6250","82 AVENUE NW"
"POINT (-113.5193886264284 53.45170577958717)","53.45170577958717","-113.5193886264284","STORM","1978","680.577","Ipiihkoohkanipiaohtsi Ward","Skyrattler","5460","112 STREET NW"
"POINT (-113.44311061164342 53.452050019533836)","53.452050019533836","-113.44311061164342","STORM","1974","690.58","Karhiio Ward","Ekota","6200","21 AVENUE NW"
"POINT (-113.62299671745711 53.541512036789285)","53.541512036789285","-113.62299671745711","STORM","1986","677.464","Nakota Isga Ward","Stone Industrial","4510","STONY PLAIN ROAD NW"
"POINT (-113.45233451824744 53.52922694130747)","53.52922694130747","-113.45233451824744","STORM","1984","664.327","Métis Ward","Holyrood","6310","93A AVENUE NW"
"POINT (-113.430229903076 53.44005557044199)","53.44005557044199","-113.430229903076","STORM","1991","699.285","Karhiio Ward","Sakaw","6670","60 STREET NW"
"POINT (-113.57254884802342 53.55874896837337)","53.55874896837337","-113.57254884802342","STORM","1954","672.872","Nakota Isga Ward","McQueen","3300","111 AVENUE [EASTBOUND SIDE] NW"
"POINT (-113.45781544142362 53.4489831719761)","53.4489831719761","-113.45781544142362","STORM","1974","685.129","Karhiio Ward","Satoo","6680","19 AVENUE NW"
"POINT (-113.37907954362493 53.61118715227617)","53.61118715227617","-113.37907954362493","STORM","1978","649.927","Dene Ward","Fraser","2280","26 STREET NW"
"POINT (-113.47085265170035 53.45533012069318)","53.45533012069318","-113.47085265170035","STORM","1980","681.85","Karhiio Ward","Parsons Industrial","6570","26 AVENUE NW"
"POINT (-113.51137637653751 53.63559539129219)","53.63559539129219","-113.51137637653751","STORM","1976","681.767","tastawiyiniwak Ward","Baturyn","3030","173A AVENUE NW"
"POINT (-113.46708407056197 53.45511980957605)","53.45511980957605","-113.46708407056197","STORM","1974","680.806","Karhiio Ward","Parsons Industrial","6570","91 STREET [SOUTHBOUND SIDE] NW"
"POINT (-113.62977658412086 53.511512077182736)","53.511512077182736","-113.62977658412086","STORM","0","677.144","sipiwiyiniwak Ward","Callingwood North","4070","178 STREET [NORTHBOUND SIDE] NW"
"POINT (-113.47654011335158 53.47912260645528)","53.47912260645528","-113.47654011335158","STORM","1977","677.103","Karhiio Ward","Strathcona Industrial Park","6700","42 AVENUE NW"
"POINT (-113.45153179113466 53.472978989880694)","53.472978989880694","-113.45153179113466","STORM","1972","685.628","Karhiio Ward","Lee Ridge","6400","38 AVENUE NW"
"POINT (-113.4379717316023 53.45919018735963)","53.45919018735963","-113.4379717316023","STORM","1973","690.159","Karhiio Ward","Kameyosek","6340","29 AVENUE NW"
"POINT (-113.54958265311106 53.58597525112878)","53.58597525112878","-113.54958265311106","STORM","1957","676.601","Anirniq Ward","Athlone","3010","128 AVENUE NW"
"POINT (-113.4494799995444 53.46410449180863)","53.46410449180863","-113.4494799995444","STORM","1989","687.12","Karhiio Ward","Kameyosek","6340","33 AVENUE NW"
"POINT (-113.55754328179644 53.5373419617447)","53.5373419617447","-113.55754328179644","STORM","0","665.201","Nakota Isga Ward","Crestwood","3140","SUMMIT POINT NW"
"POINT (-113.46116175917732 53.60370994210143)","53.60370994210143","-113.46116175917732","STORM","1967","673.79","tastawiyiniwak Ward","Kildare","2400","141 AVENUE NW"
"POINT (-113.61560199644475 53.50369079421518)","53.50369079421518","-113.61560199644475","STORM","1981","670.722","sipiwiyiniwak Ward","Callingwood South","4080","170 STREET [SOUTHBOUND SIDE] NW"
"POINT (-113.45003460791926 53.56357330586967)","53.56357330586967","-113.45003460791926","STORM","1948","660.5","Métis Ward","Virginia Park","1240","73 STREET NW"
"POINT (-113.5583443658617 53.52271009536727)","53.52271009536727","-113.5583443658617","STORM","1958","663.332","sipiwiyiniwak Ward","Parkview","3330","VALLEYVIEW CRESCENT NW"
"POINT (-113.50406326956897 53.57050166276262)","53.57050166276262","-113.50406326956897","STORM","1929","664.816","O-day'min Ward","Blatchford Area","1111","106A STREET NW"
"POINT (-113.5092021043103 53.6317080786932)","53.6317080786932","-113.5092021043103","STORM","1976","679.918","tastawiyiniwak Ward","Baturyn","3030","108 STREET NW"
"POINT (-113.39892313655216 53.47865627383111)","53.47865627383111","-113.39892313655216","STORM","1980","700.803","Sspomitapi Ward","Kiniski Gardens","6370","38 STREET NW"
"POINT (-113.56832874652191 53.51260667612434)","53.51260667612434","-113.56832874652191","STORM","1957","666.149","sipiwiyiniwak Ward","Laurier Heights","3270","143A STREET NW"
"POINT (-113.51076454332006 53.471250436202915)","53.471250436202915","-113.51076454332006","STORM","1967","674.69","papastew Ward","Duggan","5160","36A AVENUE NW"
"POINT (-113.49675943875098 53.516072330906944)","53.516072330906944","-113.49675943875098","STORM","1913","671.473","papastew Ward","Strathcona Junction","5151","80 AVENUE NW"
"POINT (-113.38845366303991 53.60652139245789)","53.60652139245789","-113.38845366303991","STORM","1978","650.602","Dene Ward","Hairsine","2320","142 AVENUE NW"
"POINT (-113.5032260862259 53.452407078553684)","53.452407078553684","-113.5032260862259","STORM","1978","678.005","Ipiihkoohkanipiaohtsi Ward","Keheewin","5250","21 AVENUE NW"
"POINT (-113.4513588060908 53.48350140954543)","53.48350140954543","-113.4513588060908","STORM","1973","689.571","Karhiio Ward","Michaels Park","6480","44 AVENUE NW"
"POINT (-113.44741873424245 53.50842855952214)","53.50842855952214","-113.44741873424245","STORM","1956","672.334","Métis Ward","Avonmore","6020","71 AVENUE NW"
"POINT (-113.44410272991583 53.467514408768004)","53.467514408768004","-113.44410272991583","STORM","1973","694.147","Karhiio Ward","Lee Ridge","6400","71 STREET NW"
"POINT (-113.53426724264158 53.57779323910477)","53.57779323910477","-113.53426724264158","STORM","1953","669.75","Anirniq Ward","Prince Charles","3350","123 AVENUE NW"
"POINT (-113.47659660333893 53.553036504801106)","53.553036504801106","-113.47659660333893","STORM","1996","662.515","O-day'min Ward","Boyle Street","1020","106A AVENUE NW"
"POINT (-113.51468723879333 53.50841651129219)","53.50841651129219","-113.51468723879333","STORM","1951","666.524","papastew Ward","Parkallen","5310","72 AVENUE NW"
"POINT (-113.48874783553607 53.636317781482575)","53.636317781482575","-113.48874783553607","STORM","1980","681.11","tastawiyiniwak Ward","Lago Lindo","2450","174 AVENUE NW"
"POINT (-113.59724981792522 53.568176375881634)","53.568176375881634","-113.59724981792522","STORM","1975","675.757","Nakota Isga Ward","Alberta Park Industrial","4010","160 STREET NW"
"POINT (-113.52075242864039 53.47881210684964)","53.47881210684964","-113.52075242864039","STORM","1966","671.561","papastew Ward","Royal Gardens","5430","NOT NAMED ROAD NW"
"POINT (-113.44086150008867 53.62932678896305)","53.62932678896305","-113.44086150008867","STORM","2018","686.22","Dene Ward","McConachie","2522","65A STREET NW"
"POINT (-113.40680585573129 53.460043552511856)","53.460043552511856","-113.40680585573129","STORM","1979","702.566","Sspomitapi Ward","Weinlos","6770","MILL WOODS ROAD EAST NW"
"POINT (-113.55419669745902 53.41892805914222)","53.41892805914222","-113.55419669745902","STORM","2018","688.946","Ipiihkoohkanipiaohtsi Ward","Graydon Hill","5468","GRAYDON HILL GREEN SW"
"POINT (-113.55202736973912 53.57551491784326)","53.57551491784326","-113.55202736973912","STORM","1954","672.435","Anirniq Ward","Sherbrooke","3410","132 STREET NW"
"POINT (-113.48434068832476 53.631988838214475)","53.631988838214475","-113.48434068832476","STORM","1980","679.678","tastawiyiniwak Ward","Lago Lindo","2450","93 STREET NW"
"POINT (-113.44478605623307 53.478670533369105)","53.478670533369105","-113.44478605623307","STORM","1974","684.208","Karhiio Ward","Michaels Park","6480","41A AVENUE NW"
"POINT (-113.40442112274152 53.46074727680427)","53.46074727680427","-113.40442112274152","STORM","1979","702.95","Sspomitapi Ward","Bisset","6030","30 AVENUE NW"
"POINT (-113.46657663777269 53.508492888846675)","53.508492888846675","-113.46657663777269","STORM","1954","670.42","papastew Ward","Mill Creek Ravine South","6492","91 STREET NW"
"POINT (-113.50021300000006 53.52133299999781)","53.52133299999781","-113.50021300000006","STORM","2019","668.994","papastew Ward","Strathcona","5480","105 STREET NW"
"POINT (-113.4474440981205 53.569323323952)","53.569323323952","-113.4474440981205","STORM","1957","659.777","Métis Ward","Bellevue","2060","69 STREET NW"
"POINT (-113.52581520217943 53.45396692127896)","53.45396692127896","-113.52581520217943","STORM","1978","677.896","Ipiihkoohkanipiaohtsi Ward","Skyrattler","5460","23 AVENUE [WESTBOUND SIDE] NW"
"POINT (-113.61651417373797 53.41459475785554)","53.41459475785554","-113.61651417373797","STORM","2018","691.483","pihêsiwin Ward","Keswick","5574","KINSELLA WAY SW"
"POINT (-113.50019135739558 53.572870738990424)","53.572870738990424","-113.50019135739558","STORM","0","664.797","O-day'min Ward","Westwood","1250","120 AVENUE NW"
"POINT (-113.4917626055315 53.5934704543284)","53.5934704543284","-113.4917626055315","STORM","1963","671.924","tastawiyiniwak Ward","Glengarry","2290","97 STREET NW"
"POINT (-113.41942062997254 53.59937416108486)","53.59937416108486","-113.41942062997254","STORM","1983","654.275","Dene Ward","Clareview Town Centre","2145","MANNING DRIVE [NORTHBOUND SIDE] NW"
"POINT (-113.42578867002965 53.411071410435525)","53.411071410435525","-113.42578867002965","STORM","2017","723.471","Karhiio Ward","Walker","6662","WATT DRIVE SW"
"POINT (-113.64893811440996 53.53380326612209)","53.53380326612209","-113.64893811440996","STORM","1980","683.677","Nakota Isga Ward","La Perle","4240","189 STREET NW"
"POINT (-113.4154687092489 53.5686218995662)","53.5686218995662","-113.4154687092489","STORM","1960","654.467","Métis Ward","Beverly Heights","2100","116 AVENUE NW"
"POINT (-113.48336703830027 53.55208323136424)","53.55208323136424","-113.48336703830027","STORM","1986","664.405","O-day'min Ward","McCauley","1140","106A AVENUE NW"
"POINT (-113.49570689577601 53.56830412898883)","53.56830412898883","-113.49570689577601","STORM","1955","662.018","O-day'min Ward","Spruce Avenue","1230","116 AVENUE NW"
"POINT (-113.53521080770277 53.59312621773786)","53.59312621773786","-113.53521080770277","STORM","1958","676.789","Anirniq Ward","Kensington","3250","133 AVENUE NW"
"POINT (-113.54128626718193 53.586704508176794)","53.586704508176794","-113.54128626718193","STORM","1952","676.846","Anirniq Ward","Athlone","3010","127 STREET NW"
"POINT (-113.4614253305442 53.450271662115114)","53.450271662115114","-113.4614253305442","STORM","1974","685.803","Karhiio Ward","Satoo","6680","86 STREET NW"
"POINT (-113.404659092469 53.58998829944448)","53.58998829944448","-113.404659092469","STORM","1973","651.165","Dene Ward","Homesteader","2350","HARRISON DRIVE NW"
"POINT (-113.66620908352087 53.52226676191522)","53.52226676191522","-113.66620908352087","STORM","2010","689.04","Nakota Isga Ward","Potter Greens","4710","NOT NAMED ROAD NW"
"POINT (-113.46163850353709 53.56077498253139)","53.56077498253139","-113.46163850353709","STORM","2017","659.235","Métis Ward","Cromdale","1070","78 STREET NW"
"POINT (-113.42842498885486 53.57780728626483)","53.57780728626483","-113.42842498885486","STORM","1957","659.363","Métis Ward","Newton","2560","123 AVENUE NW"
"POINT (-113.42727894598147 53.52774239383732)","53.52774239383732","-113.42727894598147","STORM","1993","664.002","Métis Ward","Ottewell","6550","92A AVENUE NW"
"POINT (-113.65014187551337 53.51600109824173)","53.51600109824173","-113.65014187551337","STORM","1980","684.041","Nakota Isga Ward","Aldergrove","4020","82 AVENUE NW"
"POINT (-113.64389391759855 53.55407849352932)","53.55407849352932","-113.64389391759855","STORM","0","679.833","Nakota Isga Ward","Poundmaker Industrial","4410","186 STREET NW"
"POINT (-113.51621759588778 53.633453961094176)","53.633453961094176","-113.51621759588778","STORM","1976","681.126","tastawiyiniwak Ward","Baturyn","3030","171 AVENUE NW"
"POINT (-113.52704823521208 53.44424328685677)","53.44424328685677","-113.52704823521208","STORM","1989","679.489","Ipiihkoohkanipiaohtsi Ward","Twin Brooks","5511","TWIN BROOKS DRIVE NW"
"POINT (-113.61407949517489 53.52683648697418)","53.52683648697418","-113.61407949517489","STORM","1963","675.731","sipiwiyiniwak Ward","West Meadowlark Park","4590","169 STREET NW"
"POINT (-113.5133427952634 53.439135003789396)","53.439135003789396","-113.5133427952634","STORM","1990","682.596","Ipiihkoohkanipiaohtsi Ward","Twin Brooks","5511","RUNNING CREEK LANE NW"
"POINT (-113.45624155518439 53.569997533891545)","53.569997533891545","-113.45624155518439","STORM","1936","659.842","Métis Ward","Edmonton Northlands","1120","118 AVENUE [EASTBOUND SIDE] NW"
"POINT (-113.49314457967161 53.49891548378814)","53.49891548378814","-113.49314457967161","STORM","1950","674.609","papastew Ward","Calgary Trail North","5110","61 AVENUE NW"
"POINT (-113.53865948641496 53.575153337195324)","53.575153337195324","-113.53865948641496","STORM","1949","669.097","Anirniq Ward","Prince Charles","3350","121 AVENUE NW"
"POINT (-113.58134883120633 53.558655716965475)","53.558655716965475","-113.58134883120633","STORM","1971","675.133","Nakota Isga Ward","High Park","4200","111 AVENUE NW"
"POINT (-113.47273911942834 53.58492418488063)","53.58492418488063","-113.47273911942834","STORM","1958","669.821","tastawiyiniwak Ward","Killarney","2420","127 AVENUE NW"
"POINT (-113.61325199584732 53.57059756738569)","53.57059756738569","-113.61325199584732","STORM","1979","678.48","Nakota Isga Ward","Carleton Square Industrial","4100","118 AVENUE [WESTBOUND SIDE] NW"
"POINT (-113.52017923119337 53.491907390705194)","53.491907390705194","-113.52017923119337","STORM","1961","668.408","papastew Ward","Lendrum Place","5270","54A AVENUE NW"
"POINT (-113.45761612934672 53.597277459543946)","53.597277459543946","-113.45761612934672","STORM","1965","667.591","tastawiyiniwak Ward","Delwood","2230","135A AVENUE NW"
"POINT (-113.50285068572799 53.49232439192876)","53.49232439192876","-113.50285068572799","STORM","1961","675.675","papastew Ward","Pleasantview","5320","55 AVENUE NW"
"POINT (-113.39128913975333 53.56607324845177)","53.56607324845177","-113.39128913975333","STORM","1966","649.522","Métis Ward","Rundle Heights","2660","113 AVENUE NW"
"POINT (-113.6310127031296 53.52394818583906)","53.52394818583906","-113.6310127031296","STORM","1973","676.949","Nakota Isga Ward","Belmead","4040","179 STREET NW"
"POINT (-113.61252173219863 53.5596096698293)","53.5596096698293","-113.61252173219863","STORM","1962","676.466","Nakota Isga Ward","West Sheffield Industrial","4600","111 AVENUE NW"
"POINT (-113.56058845641716 53.569757213532064)","53.569757213532064","-113.56058845641716","STORM","1954","671.972","Anirniq Ward","Woodcroft","3450","117 AVENUE NW"
"POINT (-113.61879391612824 53.513248365023465)","53.513248365023465","-113.61879391612824","STORM","1970","673.733","sipiwiyiniwak Ward","Thorncliff","4560","80 AVENUE NW"
"POINT (-113.61897768160303 53.42130902911313)","53.42130902911313","-113.61897768160303","STORM","2018","689.85","pihêsiwin Ward","Windermere","5570","HILLER ROAD [WESTBOUND SIDE] SW"
"POINT (-113.42644725671062 53.45272981062323)","53.45272981062323","-113.42644725671062","STORM","1977","694.304","Karhiio Ward","Meyokumin","6460","22 AVENUE NW"
"POINT (-113.5921766646529 53.53315625800497)","53.53315625800497","-113.5921766646529","STORM","1972","672.827","Nakota Isga Ward","Glenwood","4180","96 AVENUE NW"
"POINT (-113.46901794676313 53.585086881905504)","53.585086881905504","-113.46901794676313","STORM","1968","666.745","tastawiyiniwak Ward","Killarney","2420","83 STREET NW"
"POINT (-113.44413541403858 53.52016978933542)","53.52016978933542","-113.44413541403858","STORM","1953","671.511","Métis Ward","Idylwylde","6320","76 STREET NW"
"POINT (-113.54321710968532 53.52866379538053)","53.52866379538053","-113.54321710968532","STORM","0","630.25","papastew Ward","River Valley Mayfair","5370","WILLIAM HAWRELAK PARK ROAD NW"
"POINT (-113.50424093338816 53.49809791929086)","53.49809791929086","-113.50424093338816","STORM","1952","674.494","papastew Ward","Pleasantview","5320","61 AVENUE [EASTBOUND SIDE] NW"
"POINT (-113.42010537938687 53.514136550793644)","53.514136550793644","-113.42010537938687","STORM","1968","666.071","Métis Ward","Davies Industrial East","6160","SHERWOOD PARK FREEWAY [EASTBOUND SIDE] NW"
"POINT (-113.42429964348808 53.519243141160146)","53.519243141160146","-113.42429964348808","STORM","1962","667.841","Métis Ward","Kenilworth","6350","84 AVENUE NW"
"POINT (-113.49132971980319 53.49974075795629)","53.49974075795629","-113.49132971980319","STORM","1961","673.917","papastew Ward","Coronet Industrial","6100","63 AVENUE [EASTBOUND SIDE] NW"
"POINT (-113.6033180150968 53.549868982255994)","53.549868982255994","-113.6033180150968","STORM","1958","674.531","Nakota Isga Ward","Britannia Youngstown","4060","106 AVENUE NW"
"POINT (-113.60013517681814 53.39984167672011)","53.39984167672011","-113.60013517681814","STORM","2018","692.05","Ipiihkoohkanipiaohtsi Ward","Chappelle Area","5462","CRAWFORD WAY SW"
"POINT (-113.44371359431705 53.45351549831152)","53.45351549831152","-113.44371359431705","STORM","1974","691.203","Karhiio Ward","Ekota","6200","23 AVENUE [EASTBOUND SIDE] NW"
"POINT (-113.64220383471151 53.51895749888314)","53.51895749888314","-113.64220383471151","STORM","1974","679.797","Nakota Isga Ward","Aldergrove","4020","85 AVENUE NW"
"POINT (-113.42978040681567 53.528662866704416)","53.528662866704416","-113.42978040681567","STORM","1961","663.51","Métis Ward","Ottewell","6550","92B AVENUE NW"
"POINT (-113.48870478636518 53.47073038525997)","53.47073038525997","-113.48870478636518","STORM","1980","676.639","Karhiio Ward","Strathcona Industrial Park","6700","101 STREET NW"
"POINT (-113.48305031575693 53.61398009097191)","53.61398009097191","-113.48305031575693","STORM","1969","677.178","tastawiyiniwak Ward","Evansdale","2260","152A AVENUE NW"
"POINT (-113.47032515830837 53.599504987065)","53.599504987065","-113.47032515830837","STORM","1968","671.065","tastawiyiniwak Ward","Glengarry","2290","137 AVENUE [EASTBOUND SIDE] NW"
"POINT (-113.40737785243178 53.57950023968264)","53.57950023968264","-113.40737785243178","STORM","1988","652.915","Métis Ward","Bergman","2090","43 STREET NW"
"POINT (-113.41224368113495 53.580966314883725)","53.580966314883725","-113.41224368113495","STORM","1986","653.989","Métis Ward","Bergman","2090","46 STREET NW"
"POINT (-113.59125522660834 53.54848447908126)","53.54848447908126","-113.59125522660834","STORM","1959","674.298","Nakota Isga Ward","Britannia Youngstown","4060","105 AVENUE NW"
"POINT (-113.5318641515586 53.59075487883613)","53.59075487883613","-113.5318641515586","STORM","1958","676.113","Anirniq Ward","Calder","3070","131 AVENUE NW"
"POINT (-113.53690680373286 53.52896763570126)","53.52896763570126","-113.53690680373286","STORM","1949","665.512","papastew Ward","Windsor Park","5580","93 AVENUE NW"
"POINT (-113.58247984720052 53.51520533297989)","53.51520533297989","-113.58247984720052","STORM","1958","666.964","sipiwiyiniwak Ward","River Valley Laurier","3382","152 STREET NW"
"POINT (-113.51221250472909 53.50007840754835)","53.50007840754835","-113.51221250472909","STORM","1954","671.089","papastew Ward","Parkallen","5310","109 STREET [SOUTHBOUND SIDE] NW"
"POINT (-113.52282513693898 53.512196093455074)","53.512196093455074","-113.52282513693898","STORM","1948","668.015","papastew Ward","McKernan","5290","76 AVENUE NW"
"POINT (-113.43339761893169 53.61231112192591)","53.61231112192591","-113.43339761893169","STORM","1969","681.222","Dene Ward","McLeod","2530","59A STREET NW"
"POINT (-113.57169125806391 53.51227936094847)","53.51227936094847","-113.57169125806391","STORM","1957","666.196","sipiwiyiniwak Ward","Laurier Heights","3270","LAURIER DRIVE NW"
"POINT (-113.40103203206095 53.50584755859632)","53.50584755859632","-113.40103203206095","STORM","1980","681.279","Sspomitapi Ward","Pylypow Industrial","6590","69 AVENUE NW"
"POINT (-113.42757216293465 53.47742881696442)","53.47742881696442","-113.42757216293465","STORM","1977","689.51","Karhiio Ward","Greenview","6280","40 AVENUE NW"
"POINT (-113.55896972211754 53.568883214240984)","53.568883214240984","-113.55896972211754","STORM","1954","671.593","Anirniq Ward","Woodcroft","3450","117 AVENUE NW"
"POINT (-113.52956409853547 53.54084395858608)","53.54084395858608","-113.52956409853547","STORM","1964","666.385","O-day'min Ward","Oliver","1150","JASPER AVENUE NW"
"POINT (-113.54896155629606 53.501921474526725)","53.501921474526725","-113.54896155629606","STORM","1960","667.014","papastew Ward","Grandview Heights","5210","GRAND VIEW DRIVE NW"
"POINT (-113.47445479391429 53.59666920656159)","53.59666920656159","-113.47445479391429","STORM","1962","671.759","tastawiyiniwak Ward","Glengarry","2290","135 AVENUE NW"
"POINT (-113.64796056901946 53.476242178375934)","53.476242178375934","-113.64796056901946","STORM","1991","683.355","sipiwiyiniwak Ward","Wedgewood Heights","4570","WERSHOF ROAD NW"
"POINT (-113.56542685214117 53.55667865757303)","53.55667865757303","-113.56542685214117","STORM","0","671.435","Nakota Isga Ward","North Glenora","3310","142 STREET [NORTHBOUND SIDE] NW"
"POINT (-113.47100485197468 53.59988214105629)","53.59988214105629","-113.47100485197468","STORM","1969","671.807","tastawiyiniwak Ward","Northmount","2580","137 AVENUE NW"
"POINT (-113.39100562964252 53.55706019141465)","53.55706019141465","-113.39100562964252","STORM","1966","635.463","Métis Ward","Rundle Heights","2660","31 STREET NW"
"POINT (-113.60296051429671 53.550713761462625)","53.550713761462625","-113.60296051429671","STORM","1958","674.598","Nakota Isga Ward","Britannia Youngstown","4060","106A AVENUE NW"
"POINT (-113.4113319297567 53.45558615694286)","53.45558615694286","-113.4113319297567","STORM","1977","700.15","Sspomitapi Ward","Weinlos","6770","23 AVENUE [WESTBOUND SIDE] NW"
"POINT (-113.5157380784168 53.56091485175092)","53.56091485175092","-113.5157380784168","STORM","1951","663.804","O-day'min Ward","Prince Rupert","1170","113 STREET NW"
"POINT (-113.51793651619907 53.611995560765806)","53.611995560765806","-113.51793651619907","STORM","1973","676.406","Anirniq Ward","Caernarvon","3060","152 AVENUE NW"
"POINT (-113.47036931529541 53.47417808753881)","53.47417808753881","-113.47036931529541","STORM","1979","683.742","Karhiio Ward","Strathcona Industrial Park","6700","39 AVENUE NW"
"POINT (-113.42545541141025 53.44967629498126)","53.44967629498126","-113.42545541141025","STORM","1977","694.56","Karhiio Ward","Meyokumin","6460","56 STREET NW"
"POINT (-113.48813007846489 53.64005426201523)","53.64005426201523","-113.48813007846489","STORM","1981","682.609","tastawiyiniwak Ward","Lago Lindo","2450","95 STREET NW"
"POINT (-113.4989335172831 53.46603392753269)","53.46603392753269","-113.4989335172831","STORM","1975","674.316","Ipiihkoohkanipiaohtsi Ward","Steinhauer","5470","32A AVENUE NW"
"POINT (-113.50713873978218 53.63442590601848)","53.63442590601848","-113.50713873978218","STORM","1976","679.887","tastawiyiniwak Ward","Baturyn","3030","173 AVENUE NW"
"POINT (-113.62970459839904 53.49615895401018)","53.49615895401018","-113.62970459839904","STORM","1982","676.184","sipiwiyiniwak Ward","Dechene","4110","CALLINGWOOD ROAD NW"
"POINT (-113.47267419826942 53.45189136323193)","53.45189136323193","-113.47267419826942","STORM","1979","687.661","Karhiio Ward","Edmonton Research and Development Park","6190","23 AVENUE [EASTBOUND SIDE] NW"
"POINT (-113.48240932519391 53.55042362602349)","53.55042362602349","-113.48240932519391","STORM","1995","663.954","O-day'min Ward","McCauley","1140","95 STREET [SOUTHBOUND SIDE] NW"
"POINT (-113.51398936406586 53.61940585599608)","53.61940585599608","-113.51398936406586","STORM","1978","678.313","tastawiyiniwak Ward","Beaumaris","3040","158 AVENUE NW"
"POINT (-113.5475242475185 53.480429972476145)","53.480429972476145","-113.5475242475185","STORM","1963","659.978","papastew Ward","Aspen Gardens","5020","121 STREET NW"
"POINT (-113.50435940287895 53.61420044621816)","53.61420044621816","-113.50435940287895","STORM","1987","676.313","tastawiyiniwak Ward","Beaumaris","3040","153 AVENUE [WESTBOUND SIDE] NW"
"POINT (-113.70186345847162 53.539272038750454)","53.539272038750454","-113.70186345847162","STORM","2014","704.112","Nakota Isga Ward","Secord","4487","224 STREET NW"
"POINT (-113.53246353031976 53.45376267231944)","53.45376267231944","-113.53246353031976","STORM","1980","677.73","Ipiihkoohkanipiaohtsi Ward","Skyrattler","5460","23 AVENUE [EASTBOUND SIDE] NW"
"POINT (-113.60092568663703 53.55533528828507)","53.55533528828507","-113.60092568663703","STORM","1958","674.616","Nakota Isga Ward","Mayfield","4290","163 STREET NW"
"POINT (-113.53615018130495 53.47127144792388)","53.47127144792388","-113.53615018130495","STORM","1966","669.005","papastew Ward","Greenfield","5220","37 AVENUE NW"
"POINT (-113.61568922329681 53.522571139437346)","53.522571139437346","-113.61568922329681","STORM","1981","674.981","sipiwiyiniwak Ward","Summerlea","4520","170 STREET [SOUTHBOUND SIDE] NW"
"POINT (-113.67744068301437 53.46390597942482)","53.46390597942482","-113.67744068301437","STORM","2018","692.434","sipiwiyiniwak Ward","Edgemont","4462","EATON WYND NW"
"POINT (-113.44125997622864 53.52419556949331)","53.52419556949331","-113.44125997622864","STORM","1961","669.211","Métis Ward","Kenilworth","6350","89 AVENUE NW"
"POINT (-113.46709752129519 53.573454094011296)","53.573454094011296","-113.46709752129519","STORM","1988","661.722","Métis Ward","Eastwood","1100","120 AVENUE NW"
"POINT (-113.49358400047925 53.553242126847636)","53.553242126847636","-113.49358400047925","STORM","0","662.372","O-day'min Ward","McCauley","1140","108 AVENUE NW"
"POINT (-113.46153402571568 53.46454278534494)","53.46454278534494","-113.46153402571568","STORM","1976","684.064","Karhiio Ward","Tipaskan","6750","33 AVENUE NW"
"POINT (-113.48171834425519 53.64113932545191)","53.64113932545191","-113.48171834425519","STORM","1981","682.519","tastawiyiniwak Ward","Lago Lindo","2450","92 STREET NW"
"POINT (-113.44160287059246 53.550835478330946)","53.550835478330946","-113.44160287059246","STORM","1960","656.215","Métis Ward","Forest Heights","6230","74 STREET NW"
"POINT (-113.39609780626249 53.47652140596775)","53.47652140596775","-113.39609780626249","STORM","1981","701.017","Sspomitapi Ward","Kiniski Gardens","6370","36 STREET NW"
"POINT (-113.4020934271032 53.44489180700939)","53.44489180700939","-113.4020934271032","STORM","1978","709.08","Sspomitapi Ward","Daly Grove","6150","16A AVENUE NW"
"POINT (-113.38027746048652 53.59189988576811)","53.59189988576811","-113.38027746048652","STORM","1977","647.721","Dene Ward","Kernohan","2390","132 AVENUE NW"
"POINT (-113.39967267105276 53.61391815651166)","53.61391815651166","-113.39967267105276","STORM","2012","654.09","Dene Ward","Ebbers","2251","EBBERS BOULEVARD [SOUTHBOUND SIDE] NW"
"POINT (-113.43011050706833 53.46364697648048)","53.46364697648048","-113.43011050706833","STORM","1979","694.163","Karhiio Ward","Tawa","6720","YOUVILLE DRIVE WEST NW"
"POINT (-113.44345128135554 53.51424251486861)","53.51424251486861","-113.44345128135554","STORM","1956","671.521","Métis Ward","King Edward Park","6360","78 AVENUE NW"
"POINT (-113.48309528162437 53.545905447070396)","53.545905447070396","-113.48309528162437","STORM","2015","663","O-day'min Ward","Boyle Street","1020","96 STREET NW"
"POINT (-113.53989187687668 53.47272245785509)","53.47272245785509","-113.53989187687668","STORM","1966","668.691","papastew Ward","Aspen Gardens","5020","FAIRWAY DRIVE NW"
"POINT (-113.60296081295762 53.52149619677522)","53.52149619677522","-113.60296081295762","STORM","1961","672.886","sipiwiyiniwak Ward","West Meadowlark Park","4590","163 STREET NW"
"POINT (-113.55382598398442 53.57234817235696)","53.57234817235696","-113.55382598398442","STORM","1954","671.838","Anirniq Ward","Dovercourt","3170","122 AVENUE NW"
"POINT (-113.50677146395762 53.45481057113046)","53.45481057113046","-113.50677146395762","STORM","1979","675.562","Ipiihkoohkanipiaohtsi Ward","Ermineskin","5180","24 AVENUE NW"
"POINT (-113.42162781359026 53.56875233557787)","53.56875233557787","-113.42162781359026","STORM","1954","655.732","Métis Ward","Highlands","2330","113 AVENUE NW"
"POINT (-113.55188154005859 53.58975763816479)","53.58975763816479","-113.55188154005859","STORM","1957","677.987","Anirniq Ward","Athlone","3010","134 STREET NW"
"POINT (-113.58243957058511 53.54504626662557)","53.54504626662557","-113.58243957058511","STORM","1975","672.587","Nakota Isga Ward","Canora","4090","103 AVENUE NW"
"POINT (-113.43285284684475 53.54837105353225)","53.54837105353225","-113.43285284684475","STORM","1957","658.608","Métis Ward","Fulton Place","6240","105A AVENUE NW"
"POINT (-113.4223085931893 53.56947610493708)","53.56947610493708","-113.4223085931893","STORM","1974","656.194","Métis Ward","Highlands","2330","113 AVENUE NW"
"POINT (-113.41611253193575 53.55763056275501)","53.55763056275501","-113.41611253193575","STORM","1958","640.229","Métis Ward","Capilano","6061","109 AVENUE NW"
"POINT (-113.6177679112664 53.545460452768985)","53.545460452768985","-113.6177679112664","STORM","1977","676.275","Nakota Isga Ward","Stone Industrial","4510","172 STREET NW"
"POINT (-113.45908062744381 53.52927446135878)","53.52927446135878","-113.45908062744381","STORM","1981","664.222","Métis Ward","Strathearn","6710","93 AVENUE NW"
"POINT (-113.50851637897581 53.58965751033522)","53.58965751033522","-113.50851637897581","STORM","1953","670.875","Anirniq Ward","Lauderdale","3260","109 STREET NW"
"POINT (-113.6608001712337 53.596548349405666)","53.596548349405666","-113.6608001712337","STORM","2017","671.137","Nakota Isga Ward","Starling","4474","ROBINS CRESCENT NW"
"POINT (-113.53496974421564 53.476212136057434)","53.476212136057434","-113.53496974421564","STORM","1965","667.142","papastew Ward","Greenfield","5220","40 AVENUE [EASTBOUND SIDE] NW"
"POINT (-113.42724930563675 53.607428729817045)","53.607428729817045","-113.42724930563675","STORM","1973","676.76","Dene Ward","Casselman","2130","144A AVENUE NW"
"POINT (-113.39009340687616 53.58655949135324)","53.58655949135324","-113.39009340687616","STORM","1993","647.251","Dene Ward","Overlanders","2590","HOOPER CRESCENT NW"
"POINT (-113.55561055579885 53.416776879202686)","53.416776879202686","-113.55561055579885","STORM","2017","691.099","Ipiihkoohkanipiaohtsi Ward","Paisley","5469","PRICE WAY SW"
"POINT (-113.60685515512853 53.56729752288357)","53.56729752288357","-113.60685515512853","STORM","1975","676.167","Nakota Isga Ward","Norwester Industrial","4350","165 STREET NW"
"POINT (-113.5251479756398 53.601103127501304)","53.601103127501304","-113.5251479756398","STORM","1978","676.243","Anirniq Ward","Carlisle","3090","139 AVENUE NW"
"POINT (-113.43303640670653 53.513827141098105)","53.513827141098105","-113.43303640670653","STORM","1975","670.157","Métis Ward","Girard Industrial","6260","69 STREET NW"
"POINT (-113.40109879390783 53.44630317579071)","53.44630317579071","-113.40109879390783","STORM","1978","708.017","Sspomitapi Ward","Daly Grove","6150","17A AVENUE NW"
"POINT (-113.42407002006065 53.47577650414388)","53.47577650414388","-113.42407002006065","STORM","1976","695.447","Karhiio Ward","Greenview","6280","57 STREET NW"
"POINT (-113.4700723199518 53.47544402119802)","53.47544402119802","-113.4700723199518","STORM","1977","681.939","Karhiio Ward","Strathcona Industrial Park","6700","92 STREET NW"
"POINT (-113.49696602198287 53.61599931062871)","53.61599931062871","-113.49696602198287","STORM","1978","676.384","tastawiyiniwak Ward","Beaumaris","3040","155 AVENUE NW"
"POINT (-113.59526332664885 53.500689553203856)","53.500689553203856","-113.59526332664885","STORM","1975","667.937","sipiwiyiniwak Ward","Westridge","4610","WOLF WILLOW POINT NW"
"POINT (-113.47275253201636 53.570446688212925)","53.570446688212925","-113.47275253201636","STORM","1913","663.297","Métis Ward","Eastwood","1100","118 AVENUE NW"
"POINT (-113.46402442883891 53.52096028188017)","53.52096028188017","-113.46402442883891","STORM","1981","668.817","Métis Ward","Bonnie Doon","6040","85 AVENUE NW"
"POINT (-113.43750375451253 53.549805693084934)","53.549805693084934","-113.43750375451253","STORM","1968","648.498","Métis Ward","River Valley Gold Bar","6620","106 AVENUE [WESTBOUND SIDE] NW"
"POINT (-113.7056472751014 53.5133565655438)","53.5133565655438","-113.7056472751014","STORM","2018","705.901","Nakota Isga Ward","Rosenthal","4750","80 AVENUE NW"
"POINT (-113.5257032878591 53.60346552414984)","53.60346552414984","-113.5257032878591","STORM","1981","676.654","Anirniq Ward","Carlisle","3090","141 AVENUE NW"
"POINT (-113.57200097388781 53.49805641045684)","53.49805641045684","-113.57200097388781","STORM","1968","658.88","pihêsiwin Ward","Brander Gardens","5080","WHITEMUD DRIVE [EASTBOUND SIDE] NW"
"POINT (-113.57231905618261 53.49539314831909)","53.49539314831909","-113.57231905618261","STORM","1988","660.969","pihêsiwin Ward","Brander Gardens","5080","WHITEMUD DRIVE [EASTBOUND SIDE] NW"
"POINT (-113.4031678217358 53.51565764656942)","53.51565764656942","-113.4031678217358","STORM","1977","674.829","Métis Ward","Weir Industrial","6780","78 AVENUE NW"
"POINT (-113.53134046611757 53.444859218368855)","53.444859218368855","-113.53134046611757","STORM","1992","678.864","Ipiihkoohkanipiaohtsi Ward","Blackmud Creek Ravine","5050","12 AVENUE NW"
"POINT (-113.42157041029978 53.52582113761005)","53.52582113761005","-113.42157041029978","STORM","1961","663.779","Métis Ward","Ottewell","6550","91 AVENUE NW"
"POINT (-113.59022090850686 53.55591402085904)","53.55591402085904","-113.59022090850686","STORM","1957","673.272","Nakota Isga Ward","High Park","4200","110 AVENUE NW"
"POINT (-113.57487409019683 53.56598989603327)","53.56598989603327","-113.57487409019683","STORM","1956","673.49","Anirniq Ward","Huff Bremner Estate Industrial","3230","115A AVENUE NW"
"POINT (-113.4298905887934 53.53675724916089)","53.53675724916089","-113.4298905887934","STORM","1959","662.6","Métis Ward","Ottewell","6550","64 STREET NW"
"POINT (-113.5684306132556 53.55733229892573)","53.55733229892573","-113.5684306132556","STORM","1965","672.61","Nakota Isga Ward","McQueen","3300","144 STREET NW"
"POINT (-113.58063622502289 53.57681633694816)","53.57681633694816","-113.58063622502289","STORM","1978","674.521","Anirniq Ward","Gagnon Estate Industrial","4150","123 AVENUE NW"
"POINT (-113.43900123089182 53.599605329119306)","53.599605329119306","-113.43900123089182","STORM","1965","665.99","Dene Ward","Belvedere","2080","137 AVENUE [EASTBOUND SIDE] NW"
"POINT (-113.4535101298629 53.442029445721126)","53.442029445721126","-113.4535101298629","STORM","1976","691.612","Karhiio Ward","Menisa","6450","77 STREET NW"
"POINT (-113.65646812773396 53.5996088011525)","53.5996088011525","-113.65646812773396","STORM","2015","665.078","Nakota Isga Ward","Starling","4474","137 AVENUE NW"
"POINT (-113.50306445539205 53.524413875096386)","53.524413875096386","-113.50306445539205","STORM","1972","646.466","papastew Ward","River Valley Walterdale","5390","WALTERDALE HILL NW"
"POINT (-113.5593991038475 53.52042211123154)","53.52042211123154","-113.5593991038475","STORM","1959","663.105","sipiwiyiniwak Ward","Parkview","3330","138 STREET NW"
"POINT (-113.5015494632853 53.51862497947644)","53.51862497947644","-113.5015494632853","STORM","1953","670.917","papastew Ward","Strathcona","5480","83 AVENUE NW"
"POINT (-113.50392624826863 53.483159686495185)","53.483159686495185","-113.50392624826863","STORM","1969","671.772","papastew Ward","Empire Park","5170","45 AVENUE NW"
"POINT (-113.61068807052071 53.531891094200354)","53.531891094200354","-113.61068807052071","STORM","1967","674.555","Nakota Isga Ward","Glenwood","4180","167 STREET NW"
"POINT (-113.59239569386787 53.57884105257699)","53.57884105257699","-113.59239569386787","STORM","2006","677.91","Nakota Isga Ward","Kinokamau Plains Area","4475","YELLOWHEAD TRAIL [EASTBOUND SIDE] NW"
"POINT (-113.5950524847591 53.55058217596914)","53.55058217596914","-113.5950524847591","STORM","1992","673.956","Nakota Isga Ward","Britannia Youngstown","4060","106A AVENUE NW"
"POINT (-113.44298646881828 53.50163485293909)","53.50163485293909","-113.44298646881828","STORM","1971","673.753","Métis Ward","Davies Industrial West","6170","75 STREET [SOUTHBOUND SIDE] NW"
"POINT (-113.67550610291944 53.51427523141499)","53.51427523141499","-113.67550610291944","STORM","1991","692.77","Nakota Isga Ward","Potter Greens","4710","POTTER GREENS DRIVE NW"
"POINT (-113.51223216106908 53.52010775657002)","53.52010775657002","-113.51223216106908","STORM","1935","670.295","papastew Ward","Garneau","5200","84 AVENUE NW"
"POINT (-113.44718864626732 53.53224449229869)","53.53224449229869","-113.44718864626732","STORM","1954","665.123","Métis Ward","Holyrood","6310","77 STREET NW"
"POINT (-113.4797062418458 53.46377884667471)","53.46377884667471","-113.4797062418458","STORM","1978","680.907","Karhiio Ward","Parsons Industrial","6570","97 STREET NW"
"POINT (-113.59944589843116 53.50489439432241)","53.50489439432241","-113.59944589843116","STORM","1974","668.56","sipiwiyiniwak Ward","Westridge","4610","WOLF WILLOW ROAD NW"
"POINT (-113.42411299248249 53.58611291349344)","53.58611291349344","-113.42411299248249","STORM","1981","655.399","Dene Ward","Kennedale Industrial","2380","128 AVENUE NW"
"POINT (-113.54109855429212 53.56695133673452)","53.56695133673452","-113.54109855429212","STORM","1988","668.463","Anirniq Ward","Inglewood","3240","127 STREET NW"
"POINT (-113.51054741324945 53.47320966077817)","53.47320966077817","-113.51054741324945","STORM","1966","672.59","papastew Ward","Duggan","5160","38 AVENUE NW"
"POINT (-113.41442091469196 53.58794094981353)","53.58794094981353","-113.41442091469196","STORM","1973","652.491","Dene Ward","Homesteader","2350","47 STREET NW"
"POINT (-113.53848307890831 53.531387655171514)","53.531387655171514","-113.53848307890831","STORM","2018","630.989","papastew Ward","River Valley Mayfair","5370","GROAT ROAD [SOUTHBOUND SIDE] NW"
"POINT (-113.44680808203726 53.565983488982)","53.565983488982","-113.44680808203726","STORM","1950","660.628","Métis Ward","Bellevue","2060","114 AVENUE NW"
"POINT (-113.52870996421579 53.50745750954033)","53.50745750954033","-113.52870996421579","STORM","1954","664.366","papastew Ward","Belgravia","5040","71 AVENUE [WESTBOUND SIDE] NW"
"POINT (-113.57390749927417 53.536524704603345)","53.536524704603345","-113.57390749927417","STORM","1960","668.882","Nakota Isga Ward","Crestwood","3140","146 STREET NW"
"POINT (-113.3815245300684 53.608686528030766)","53.608686528030766","-113.3815245300684","STORM","1979","649.18","Dene Ward","Fraser","2280","27 STREET NW"
"POINT (-113.5810554846273 53.57023454858051)","53.57023454858051","-113.5810554846273","STORM","1977","676.194","Anirniq Ward","Garside Industrial","4170","151 STREET NW"
"POINT (-113.38194806038983 53.60816409737252)","53.60816409737252","-113.38194806038983","STORM","0","649.334","Dene Ward","Bannerman","2030","144 AVENUE [EASTBOUND SIDE] NW"
"POINT (-113.4581540914252 53.51320547331419)","53.51320547331419","-113.4581540914252","STORM","1975","670.696","Métis Ward","King Edward Park","6360","77 AVENUE NW"
"POINT (-113.51987062121854 53.51235481095966)","53.51235481095966","-113.51987062121854","STORM","1954","668.252","papastew Ward","McKernan","5290","112 STREET NW"
"POINT (-113.46322936218749 53.502821479819815)","53.502821479819815","-113.46322936218749","STORM","1955","670.772","papastew Ward","Argyll","6010","67 AVENUE NW"
"POINT (-113.61942105513292 53.5037393888275)","53.5037393888275","-113.61942105513292","STORM","1976","673.354","sipiwiyiniwak Ward","Callingwood South","4080","172 STREET NW"
"POINT (-113.51037008580757 53.55132550313543)","53.55132550313543","-113.51037008580757","STORM","1956","661.513","O-day'min Ward","Queen Mary Park","1180","107 AVENUE NW"
"POINT (-113.49913959718938 53.55618877491917)","53.55618877491917","-113.49913959718938","STORM","2011","660.99","O-day'min Ward","Central McDougall","1030","KINGSWAY [EASTBOUND SIDE] NW"
"POINT (-113.46192464327153 53.614116346575265)","53.614116346575265","-113.46192464327153","STORM","1967","680.97","tastawiyiniwak Ward","Kilkenny","2410","152B AVENUE NW"
"POINT (-113.53344665255854 53.59399434744033)","53.59399434744033","-113.53344665255854","STORM","0","676.858","Anirniq Ward","Kensington","3250","123 STREET NW"
"POINT (-113.42742473086929 53.612324148522376)","53.612324148522376","-113.42742473086929","STORM","1973","681.724","Dene Ward","Casselman","2130","150 AVENUE NW"
"POINT (-113.50578449881604 53.57629815371578)","53.57629815371578","-113.50578449881604","STORM","1958","666.199","O-day'min Ward","Blatchford Area","1111","107 STREET NW"
"POINT (-113.64170095073352 53.50227741007003)","53.50227741007003","-113.64170095073352","STORM","1977","682.523","sipiwiyiniwak Ward","Ormsby Place","4380","68 AVENUE NW"
"POINT (-113.41179401609352 53.588663657303734)","53.588663657303734","-113.41179401609352","STORM","1973","652.944","Dene Ward","Homesteader","2350","128A AVENUE NW"
"POINT (-113.60632207956404 53.51026667162851)","53.51026667162851","-113.60632207956404","STORM","1967","670.888","sipiwiyiniwak Ward","Patricia Heights","4390","PATRICIA CRESCENT NW"
"POINT (-113.44553840602289 53.47220713663921)","53.47220713663921","-113.44553840602289","STORM","1973","690.174","Karhiio Ward","Lee Ridge","6400","MILLBOURNE ROAD EAST NW"
"POINT (-113.507563521407 53.5577828692041)","53.5577828692041","-113.507563521407","STORM","1955","661.422","O-day'min Ward","Central McDougall","1030","109 STREET [NORTHBOUND SIDE] NW"
"POINT (-113.46022566243933 53.60708437158201)","53.60708437158201","-113.46022566243933","STORM","1967","676.923","tastawiyiniwak Ward","Kilkenny","2410","77 STREET NW"
"POINT (-113.53813824865016 53.522338543276355)","53.522338543276355","-113.53813824865016","STORM","1953","668.408","papastew Ward","Windsor Park","5580","120 STREET NW"
"POINT (-113.52082516647796 53.45998263785399)","53.45998263785399","-113.52082516647796","STORM","1977","675.213","Ipiihkoohkanipiaohtsi Ward","Blue Quill","5060","28 AVENUE NW"
"POINT (-113.4916062410673 53.58487879607933)","53.58487879607933","-113.4916062410673","STORM","0","667.64","tastawiyiniwak Ward","Killarney","2420","127 AVENUE NW"
"POINT (-113.47241640084401 53.58151091371938)","53.58151091371938","-113.47241640084401","STORM","1987","664.318","Métis Ward","Yellowhead Corridor East","1270","YELLOWHEAD TRAIL NW"
"POINT (-113.56261681419522 53.52581303547156)","53.52581303547156","-113.56261681419522","STORM","1957","666.979","sipiwiyiniwak Ward","Parkview","3330","91A AVENUE NW"
"POINT (-113.55700951833576 53.58600043539399)","53.58600043539399","-113.55700951833576","STORM","1996","677.51","Anirniq Ward","Athlone","3010","128 AVENUE NW"
"POINT (-113.52322667108733 53.557732753010086)","53.557732753010086","-113.52322667108733","STORM","1951","665.431","O-day'min Ward","Queen Mary Park","1180","110A AVENUE NW"
"POINT (-113.69623913830002 53.513208846168936)","53.513208846168936","-113.69623913830002","STORM","2020","701.91","Nakota Isga Ward","Rosenthal","4750","80 AVENUE NW"
"POINT (-113.57766804800995 53.570568183274474)","53.570568183274474","-113.57766804800995","STORM","2020","675.298","Anirniq Ward","Dominion Industrial","3160","118 AVENUE NW"
"POINT (-113.60632552041824 53.56143189824285)","53.56143189824285","-113.60632552041824","STORM","1970","676.52","Nakota Isga Ward","West Sheffield Industrial","4600","166A STREET NW"
"POINT (-113.43997268898639 53.52505279333084)","53.52505279333084","-113.43997268898639","STORM","1959","669.246","Métis Ward","Kenilworth","6350","90 AVENUE NW"
"POINT (-113.48795786238954 53.55308086795491)","53.55308086795491","-113.48795786238954","STORM","1997","664.421","O-day'min Ward","McCauley","1140","107A AVENUE NW"
"POINT (-113.44625346440218 53.5892305761456)","53.5892305761456","-113.44625346440218","STORM","1972","662.888","tastawiyiniwak Ward","Balwin","2020","130 AVENUE NW"
"POINT (-113.53237644002786 53.61697177148451)","53.61697177148451","-113.53237644002786","STORM","1987","678.658","Anirniq Ward","Caernarvon","3060","153 AVENUE [EASTBOUND SIDE] NW"
"POINT (-113.49173373770103 53.48511586323166)","53.48511586323166","-113.49173373770103","STORM","1976","672.172","papastew Ward","Calgary Trail North","5110","GATEWAY BOULEVARD NW"
"POINT (-113.51632015332231 53.449887595705384)","53.449887595705384","-113.51632015332231","STORM","1985","679","Ipiihkoohkanipiaohtsi Ward","Keheewin","5250","111 STREET [SOUTHBOUND SIDE] NW"
"POINT (-113.51907972784258 53.49056594205388)","53.49056594205388","-113.51907972784258","STORM","1961","670.253","papastew Ward","Lendrum Place","5270","54 AVENUE NW"
"POINT (-113.57829829345548 53.55264487671234)","53.55264487671234","-113.57829829345548","STORM","1954","673.147","Nakota Isga Ward","High Park","4200","108 AVENUE NW"
"POINT (-113.62234390935275 53.52818263758259)","53.52818263758259","-113.62234390935275","STORM","1979","675.511","sipiwiyiniwak Ward","Summerlea","4520","93 AVENUE NW"
"POINT (-113.60186868512746 53.513306735461605)","53.513306735461605","-113.60186868512746","STORM","1969","670.491","sipiwiyiniwak Ward","Elmwood","4140","79A AVENUE NW"
"POINT (-113.56378381657268 53.46396182783769)","53.46396182783769","-113.56378381657268","STORM","1985","673.134","pihêsiwin Ward","Ogilvie Ridge","5300","OCKENDEN PLACE NW"
"POINT (-113.41839784677197 53.53566120473253)","53.53566120473253","-113.41839784677197","STORM","1975","662.402","Métis Ward","Eastgate Business Park","6180","50 STREET [NORTHBOUND SIDE] NW"
"POINT (-113.49531005170455 53.45297373685893)","53.45297373685893","-113.49531005170455","STORM","1978","679.369","Ipiihkoohkanipiaohtsi Ward","Keheewin","5250","21 AVENUE NW"
"POINT (-113.61818883806099 53.49129521729358)","53.49129521729358","-113.61818883806099","STORM","1977","672.487","sipiwiyiniwak Ward","Gariepy","4160","LESSARD DRIVE NW"
"POINT (-113.58962965832102 53.40144833639979)","53.40144833639979","-113.58962965832102","STORM","2018","692.905","Ipiihkoohkanipiaohtsi Ward","Chappelle Area","5462","CHEGWIN WYND SW"
"POINT (-113.59358273556266 53.543366686677274)","53.543366686677274","-113.59358273556266","STORM","1993","673.609","Nakota Isga Ward","Britannia Youngstown","4060","102 AVENUE NW"
"POINT (-113.42603621292955 53.57607427793729)","53.57607427793729","-113.42603621292955","STORM","1950","658.222","Métis Ward","Newton","2560","122 AVENUE NW"
"POINT (-113.54560317215582 53.59731427336315)","53.59731427336315","-113.54560317215582","STORM","1959","678.779","Anirniq Ward","Wellington","3430","135A AVENUE NW"
"POINT (-113.44177804423643 53.56807114002531)","53.56807114002531","-113.44177804423643","STORM","1951","660.181","Métis Ward","Highlands","2330","66 STREET NW"
"POINT (-113.44828948095265 53.523158474515064)","53.523158474515064","-113.44828948095265","STORM","1952","668.438","Métis Ward","Idylwylde","6320","88 AVENUE NW"
"POINT (-113.43678011832637 53.59232916506413)","53.59232916506413","-113.43678011832637","STORM","1959","659.313","Dene Ward","Belvedere","2080","132 AVENUE NW"
"POINT (-113.53962745873272 53.58506224862949)","53.58506224862949","-113.53962745873272","STORM","1949","676.203","Anirniq Ward","Calder","3070","126 STREET NW"
"POINT (-113.4553846359792 53.59936676491489)","53.59936676491489","-113.4553846359792","STORM","1964","669.3","tastawiyiniwak Ward","Delwood","2230","74 STREET NW"
"POINT (-113.45303165727535 53.46571067606985)","53.46571067606985","-113.45303165727535","STORM","1971","688.018","Karhiio Ward","Richfield","6600","79 STREET NW"
"POINT (-113.48268223302098 53.50762570900329)","53.50762570900329","-113.48268223302098","STORM","1961","673.191","papastew Ward","Hazeldean","6290","71 AVENUE NW"
"POINT (-113.44127707687018 53.52944499969364)","53.52944499969364","-113.44127707687018","STORM","1992","666.693","Métis Ward","Ottewell","6550","74 STREET NW"
"POINT (-113.39972617099829 53.47664532712965)","53.47664532712965","-113.39972617099829","STORM","1981","700.618","Sspomitapi Ward","Kiniski Gardens","6370","41 AVENUE NW"
"POINT (-113.59692018869663 53.5704154773513)","53.5704154773513","-113.59692018869663","STORM","1977","675.414","Nakota Isga Ward","Alberta Park Industrial","4010","118 AVENUE [EASTBOUND SIDE] NW"
"POINT (-113.42680489516363 53.54111292592575)","53.54111292592575","-113.42680489516363","STORM","1956","665.07","Métis Ward","Terrace Heights","6730","101 AVENUE NW"
"POINT (-113.4167857344044 53.4762337352863)","53.4762337352863","-113.4167857344044","STORM","1980","699.816","Sspomitapi Ward","Jackson Heights","6330","50 STREET [NORTHBOUND SIDE] NW"
"POINT (-113.4893475845883 53.61419728406636)","53.61419728406636","-113.4893475845883","STORM","1988","678.104","tastawiyiniwak Ward","Eaux Claires","2241","153 AVENUE [WESTBOUND SIDE] NW"
"POINT (-113.4508816141798 53.59171481292969)","53.59171481292969","-113.4508816141798","STORM","1963","664.89","tastawiyiniwak Ward","Balwin","2020","132 AVENUE NW"
"POINT (-113.41872765859173 53.55600329643504)","53.55600329643504","-113.41872765859173","STORM","1957","646.054","Métis Ward","Capilano","6061","50 STREET [SOUTHBOUND SIDE] NW"
"POINT (-113.49009160954068 53.553228850739714)","53.553228850739714","-113.49009160954068","STORM","0","663.779","O-day'min Ward","McCauley","1140","97 STREET NW"
"POINT (-113.49373791272366 53.528399057367665)","53.528399057367665","-113.49373791272366","STORM","1958","622.995","O-day'min Ward","Rossdale","1220","101 STREET NW"
"POINT (-113.60048336758939 53.39782137155975)","53.39782137155975","-113.60048336758939","STORM","2018","693.8","Ipiihkoohkanipiaohtsi Ward","Chappelle Area","5462","CHIVERS CRESCENT SW"
"POINT (-113.39488927587767 53.597981357101965)","53.597981357101965","-113.39488927587767","STORM","1974","650.046","Dene Ward","Belmont","2070","136 AVENUE NW"
"POINT (-113.41806715671414 53.445859714794025)","53.445859714794025","-113.41806715671414","STORM","1977","704.271","Sspomitapi Ward","Crawford Plains","6140","MILL WOODS ROAD SOUTH NW"
"POINT (-113.44224588604632 53.46351941901356)","53.46351941901356","-113.44224588604632","STORM","1973","690.087","Karhiio Ward","Kameyosek","6340","71 STREET NW"
"POINT (-113.45123323018846 53.44936157717833)","53.44936157717833","-113.45123323018846","STORM","1973","687.869","Karhiio Ward","Satoo","6680","KNOTTWOOD ROAD NORTH NW"
"POINT (-113.39511118923156 53.44458718016009)","53.44458718016009","-113.39511118923156","STORM","1978","713.32","Sspomitapi Ward","Daly Grove","6150","17 AVENUE NW"
"POINT (-113.42142207125141 53.53208152369136)","53.53208152369136","-113.42142207125141","STORM","1961","661.737","Métis Ward","Ottewell","6550","94 AVENUE NW"
"POINT (-113.49379198495348 53.599616877923054)","53.599616877923054","-113.49379198495348","STORM","1954","673.226","Anirniq Ward","Griesbach","3111","137 AVENUE [WESTBOUND SIDE] NW"
"POINT (-113.51175400045594 53.49518854304147)","53.49518854304147","-113.51175400045594","STORM","1958","673.822","papastew Ward","Pleasantview","5320","58 AVENUE NW"
"POINT (-113.51645685370806 53.58738337030489)","53.58738337030489","-113.51645685370806","STORM","1963","670.777","Anirniq Ward","Lauderdale","3260","129 AVENUE NW"
"POINT (-113.52516156291033 53.58997918584383)","53.58997918584383","-113.52516156291033","STORM","1977","674.809","Anirniq Ward","Calder","3070","118 STREET NW"
"POINT (-113.57745783845817 53.39585586482727)","53.39585586482727","-113.57745783845817","STORM","2016","702.83","Ipiihkoohkanipiaohtsi Ward","Edmonton South Central","8887","41 AVENUE SW"
