"stop_id","stop_name","location_1"
"5111","Catalina DR Costco","(-35.29586, 149.18956)"
"1807","Tuggeranong Stn Plt 7","(-35.414814, 149.066177)"
"2608","Lambrigg St after Pudney St Farrer Terminus","(-35.380028, 149.110626)"
"2246","Federation Mall Parliament House Southbound","(-35.30603, 149.127045)"
"6053","Cultivation St after Nullarbor Av","(-35.20068, 149.157928)"
"5511","Belc. Community Stn Plt 1","(-35.239796, 149.069702)"
"4266","Verbrugghen St opp Copland CLG","(-35.212852, 149.058334)"
"4153","Tillyard Dr after Sadleir Pl","(-35.200459, 149.043045)"
"9","Athllon Dr opp Centrelink Office","(-35.42028, 149.065979)"
"2160","Perry Dr opp Chapman Shops","(-35.356228, 149.040115)"
"6151","City Bus Stn Northbourne Av Plt 10","(-35.278965, 149.12944)"
"3055","Ainslie Av after Elimatta St","(-35.277058, 149.140778)"
"2416","Nemarang Cr opp Waramanga Shops","(-35.35268, 149.060608)"
"4016","Maribyrnong Av opp Gwydir Square","(-35.233509, 149.102859)"
"4521","Bandjalong Cr Aranda Primary","(-35.256203, 149.079651)"
"4774","Kosciuszko Av after Everard St","(-35.19495, 149.125183)"
"915","Fairbairn Pk Service Rd","(-35.305267, 149.203583)"
"2450","Novar St opp Yarralumla Shops","(-35.307384, 149.098312)"
"4258","Kingsford Smith Dr after Dolling Cr","(-35.208191, 149.047379)"
"4448","Hawker Pl Hawker Shops","(-35.243706, 149.043854)"
"3379","Brigalow St before Waratah St","(-35.252171, 149.123474)"
"956","Cohen St Bus Stn Arrivals","(-35.239738, 149.060013)"
"1493","Clift Cr after Heagney Cr","(-35.426308, 149.112473)"
"2656","Sheppard St after Tralee St","(-35.39262, 149.164536)"
"6007","Well Station Dr before Kings Canyon St","(-35.20974, 149.155273)"
"2718","Soward Way after Athllon Dr","(-35.419476, 149.066376)"
"3087","White St after Waller Cr","(-35.287384, 149.15506)"
"3221","O'Connell St opp Ainslie Shops","(-35.262489, 149.145905)"
"1280","Boddington Cr after Barritt St","(-35.382088, 149.051285)"
"1147","Benham St Chisholm Shops","(-35.414421, 149.129059)"
"4620","Daley Rd ANU Burton & Garran Hall","(-35.275826, 149.115906)"
"4697","Wanganeen Av opp Ngunnawal PS","(-35.169716, 149.111237)"
"4971","Eardley St after Haydon Dr","(-35.240219, 149.091599)"
"1218","Box Hill Av St. Clare of Assisi PS","(-35.457981, 149.097458)"
"1148","Benham St opp Chisholm Shops","(-35.414482, 149.129227)"
"4342","Fullagar Cr Higgins Shops","(-35.231312, 149.027618)"
"1386","Longmore Cr after Langdon Av","(-35.38961, 149.088104)"
"1017","Webber Cr Calwell Shops","(-35.435093, 149.113739)"
"3200","Madigan St Hackett Shops","(-35.248047, 149.163193)"
"2339","Goyder St after Jerrabomberra Av","(-35.3382, 149.14856)"
"2508","Warragamba Av after Jindabyne St","(-35.330467, 149.034836)"
"6050","Nullarbor Av after Cultivation St","(-35.20203, 149.156525)"
"6315","Francis Forde Bvd Forde Shops","(-35.171131, 149.143066)"
"3325","Black Mountain Dr Telstra Tower","(-35.274742, 149.097198)"
"2814","Woden Bus Stn Plt 14","(-35.344456, 149.087234)"
"3262","National Cct Pavillion after Fitzroy St","(-35.314056, 149.130371)"
"1091","Johnson Dr Calwell Park and Ride","(-35.433498, 149.111282)"
"1310","Livingston Av after Shops","(-35.389343, 149.079285)"
"2197","Hilder St after Gritten St","(-35.336842, 149.055649)"
"4585","Antill St opp Dickson Shops","(-35.248688, 149.139633)"
"4982","Eardley St after Thynne St","(-35.240353, 149.091583)"
"2716","Woden Bus Stn Plt 16","(-35.344456, 149.087234)"
"4112","Clancy St opp Evatt Shops","(-35.209267, 149.073181)"
"4621","Daley Rd opp ANU Burton & Garran Hall","(-35.275974, 149.115982)"
"1504","Castleton Cr Gowrie Shops","(-35.413868, 149.109329)"
"4892","Belconnen Wy after Springvale Dr","(-35.243214, 149.048416)"
"2044","Heard St opp Southlands Shops","(-35.365578, 149.095428)"
"4372","Osburn Dr Macgregor Shops","(-35.211258, 149.010452)"
"1184","Clare Dennis Av after Woodcock Dr","(-35.443043, 149.085968)"
"3469","Brindabella Cct","(-35.313168, 149.190277)"
"3022","Denison St Royal Australian Mint","(-35.318825, 149.093979)"
"3141","Ipima St after Torrens St","(-35.266346, 149.136063)"
"4972","College St opp University Of Canberra","(-35.242538, 149.085678)"
"3406","City Bus Stn Plt 5","(-35.278511, 149.129944)"
"4316","Beaurepaire Cr Holt Shops","(-35.224979, 149.011078)"
"2304","Strickland Cr Calvary John James Hospital","(-35.318466, 149.095627)"
"4193","Kingsford Smith Dr 2nd after Southern Cross","(-35.224266, 149.037964)"
"2459","Julia Flynn Av opp Isaacs Shops","(-35.367218, 149.112823)"
"6062","Moonlight Av after Kalianna St","(-35.186348, 149.154694)"
"2074","Beasley St before Torrens Pl","(-35.373089, 149.086624)"
"6165","Burgmann Anglican School Forde","(-35.170834, 149.143845)"
"2706","Woden Bus Stn Plt 6","(-35.344467, 149.08754)"
"4549","Mouat St Southwell Park","(-35.247906, 149.131485)"
"1637","Hindmarsh Dr Weston Creek Terminus","(-35.343933, 149.027664)"
"4056","Canopus Cr opp Giralang PS","(-35.212971, 149.094177)"
"4662","Limestone Av before Euree","(-35.280273, 149.145859)"
"2589","Brierly St Cooleman Ct Plt 2","(-35.340988, 149.052338)"
"2161","Perry Dr Chapman Shops","(-35.356075, 149.04039)"
"2590","Lithgow St Fyshwick Terminus","(-35.330517, 149.163727)"
"2423","Fremantle Dr opp Canberra College Weston","(-35.349007, 149.049545)"
"4231","Tillyard Dr before Fraser Primary","(-35.19318, 149.042267)"
"13","Tuggeranong Stn Arrivals","(-35.414871, 149.066025)"
"4428","Ratcliffe Cr opp Florey PS","(-35.226887, 149.054367)"
"4793","William Slim Dr before Chuculba Cr","(-35.209682, 149.087906)"
"1905","Langdon Av Wanniassa Shops","(-35.391052, 149.086777)"
"3398","Wattle St Lyneham Shops","(-35.252918, 149.125015)"
"4773","Kosciuszko Av before Gungahlin Dr","(-35.193752, 149.126938)"
"4641","Templeton St Cook Shops","(-35.25959, 149.063721)"
"4148","Tillyard Dr opp Charnwood Shops","(-35.205978, 149.035202)"
"940","Cohen St Bus Stn Plt 6","(-35.239941, 149.060394)"
"4265","Verbrugghen St Copland CLG","(-35.212967, 149.058701)"
"1631","Laurens St Trinity Christian PS","(-35.406872, 149.08432)"
"2424","Fremantle Dr Canberra College Weston","(-35.348942, 149.049423)"
"4479","Cohen St Bus Stn Plt 3","(-35.239883, 149.060272)"
"2078","Hodgson Cr Pearce Shops","(-35.362499, 149.082214)"
"3378","Brigalow St before Wattle St","(-35.252174, 149.123322)"
"4037","Maribyrnong Av opp Kaleen Village","(-35.219273, 149.103165)"
"2258","National Cct before Kings Av","(-35.306076, 149.133148)"
"5512","Belc. Community Stn Plt 2","(-35.23978, 149.069183)"
"4714","Shoalhaven Av after Mirrabei Dr","(-35.17329, 149.122131)"
"4371","Osburn Dr opp Macgregor Shops","(-35.210953, 149.010651)"
"6063","Moonlight Av after Anthony Rolfe Av","(-35.186314, 149.1548)"
"1173","Comrie St opp Erindale Centre Plt 2","(-35.403778, 149.099335)"
"1223","Tom Roberts Av Conder PS","(-35.464855, 149.097977)"
"2941","Newcastle St after Gladstone St","(-35.324993, 149.172318)"
"4675","O'Hanlon Pl Federation Square","(-35.190918, 149.084167)"
"1808","Tuggeranong Stn Plt 8","(-35.414814, 149.066177)"
"3318","Canberra Railway Station Kingston","(-35.319523, 149.148636)"
"4518","Bowman St Jamison Centre","(-35.252548, 149.072662)"
"1093","Johnson Dr Opp Calwell Park and Ride","(-35.433212, 149.112595)"
"2601","Canberra Hospital before Gilmore Cr","(-35.346321, 149.101791)"
"3029","Russell Dr Russell Offices Carpark","(-35.297131, 149.149902)"
"1208","Tom Roberts Av opp Conder PS","(-35.465324, 149.098404)"
"2196","Hilder St after Lycett St","(-35.33675, 149.056137)"
"4131","Dumas St after Bennetts Cl","(-35.217426, 149.073883)"
"4315","Beaurepaire Cr opp Holt Shops","(-35.225132, 149.01091)"
"3327","Lady Denman Dr National Zoo & Aquarium","(-35.299374, 149.069565)"
"7004","Hibberson St before Gozzard St","(-35.185276, 149.132919)"
"1772","Newcastle St after Isa St","(-35.325413, 149.172592)"
"2208","Blackwood Tce Holder Shops","(-35.336563, 149.044601)"
"4979","College St University of Canberra","(-35.242279, 149.086243)"
"4586","Antill St Dickson Shops","(-35.248947, 149.14006)"
"4073","Copland Dr opp Copland CLG","(-35.212715, 149.060715)"
"4893","Belconnen Wy before Springvale Dr","(-35.243343, 149.048126)"
"2805","Steve Irwin Ave after Dot Butler St","(-35.324558, 149.036362)"
"950","Aikman Dr Belconnen East Layover","(-35.240807, 149.075104)"
"3248","Knox St 2nd after Dickinson St","(-35.23798, 149.153641)"
"1464","MacKinnon St opp MacKillop CLG","(-35.405373, 149.089508)"
"6187","Oogeroo Av before Hoskins St","(-35.200394, 149.141602)"
"3047","Marcus Clarke St after Farrell St","(-35.281334, 149.124023)"
"2643","Gawler Cr before Fergusson Cr","(-35.314213, 149.108765)"
"2338","Goyder St Narrabundah CLG","(-35.338409, 149.14801)"
"5080","Katherine Av after Shoalhaven Av","(-35.168079, 149.127991)"
"4341","Fullagar Cr opp Higgins Shops","(-35.231358, 149.027786)"
"2507","Warragamba Av 2nd after Dixon Dr","(-35.330566, 149.034912)"
"4091","Kingsford Smith Dr opp Spence Shops","(-35.194782, 149.060623)"
"6006","Well Station Dr after Kings Canyon St","(-35.209621, 149.155533)"
"2018","Carruthers St Curtin Shops","(-35.324993, 149.083008)"
"3320","Railway Station Kingston","(-35.320068, 149.149048)"
"3409","City Bus Stn Plt 7","(-35.278419, 149.130051)"
"2207","Blackwood Tce after Williamson St","(-35.336678, 149.044678)"
"3084","White St St. Thomas More's PS","(-35.286987, 149.155457)"
"1002","Drumston St MacKillop after Isabella Dr","(-35.425972, 149.091705)"
"2540","Wisdom St Hughes Shops","(-35.33292, 149.094177)"
"1279","Boddington Cr after Carleton St","(-35.382092, 149.051147)"
"2596","Eyre St Kingston Shops","(-35.316624, 149.141815)"
"1821","City West Platform 1","(-35.279144, 149.12558)"
"2535","Gilmore Cr opp Garran Shops","(-35.342087, 149.108978)"
"6043","Hibberson St before Hinder St","(-35.186047, 149.137558)"
"4182","William Webb Dr after Ginninderra Dr","(-35.219975, 149.069809)"
"2287","Hopetoun Cct Deakin Shops","(-35.314877, 149.108383)"
"4233","Daley Cr after Tillyard Dr","(-35.192677, 149.044159)"
"32","Arboretum Car Park","(-35.28751, 149.068329)"
"4441","Shumack St Weetangera Shops","(-35.249268, 149.049301)"
"7002","Hibberson St Gungahlin Market Place","(-35.185246, 149.133453)"
"3384","Opposite Watson Terminus Aspinall St","(-35.230068, 149.16217)"
"4792","William Slim Dr after Chuculba Cr","(-35.2099, 149.087967)"
"4686","Kelleway Ave after Holy Spirit Primary","(-35.180309, 149.102066)"
"3037","London Cct opp City Police Station","(-35.280643, 149.125992)"
"1198","Bugden Av after Nicklin Cr","(-35.398045, 149.118256)"
"1215","Box Hill Av opp Lanyon Marketplace","(-35.456169, 149.092499)"
"2709","Woden Bus Stn Plt 9","(-35.344242, 149.087814)"
"4427","Ratcliffe Cr Florey Shops","(-35.226837, 149.054581)"
"1309","Livingston Av after Cutbush St","(-35.389587, 149.079208)"
"2948","Canberra Outlet Centre Iron Knob St","(-35.336323, 149.179565)"
"4548","Mouat St opp Hockey Centre","(-35.24572, 149.127426)"
"1734","Canberra Hospital after Gilmore Cr","(-35.34602, 149.101944)"
"3164","Cowper St Swimming Pool","(-35.250229, 149.140839)"
"4674","O'Hanlon Pl opp Federation Square","(-35.190361, 149.083435)"
"1049","Coombe St after Kneebone St","(-35.428543, 149.075333)"
"2710","Woden Bus Stn Plt 10","(-35.34391, 149.087753)"
"3111","Miller St after Macarthur Av","(-35.260719, 149.115097)"
"3285","La Perouse St after Nuyts St","(-35.340645, 149.131012)"
"1117","Clift Cr before Johnson Dr","(-35.43325, 149.118423)"
"1300","O'Halloran Cct Namadgi School Kambah","(-35.392578, 149.068207)"
"4609","Macpherson St O'Connor Shops","(-35.264584, 149.122177)"
"4640","Templeton St opp Cook Shops","(-35.259747, 149.063705)"
"1630","Laurens St after Taverner St","(-35.406727, 149.08429)"
"2431","Bangalay Cr after Angophora St","(-35.346779, 149.035965)"
"4550","Mouat St opp Southwell Park","(-35.248016, 149.131317)"
"3382","Ellenborough St before Cossington Smith St","(-35.237518, 149.12529)"
"4352","Ross Smith Cr near Scullin Shops","(-35.23336, 149.039307)"
"1172","Comrie St Erindale Centre Plt 1","(-35.403648, 149.099167)"
"1809","Opposite Molonglo Park & Ride","(-35.32259, 149.057617)"
"1001","Drumston St opp MacKillop CLG","(-35.426113, 149.091614)"
"1465","MacKinnon St MacKillop CLG","(-35.405319, 149.089645)"
"4807","Copland Dr Spence Terminus","(-35.200703, 149.068588)"
"2682","Sydney Av before National Cct","(-35.312954, 149.131989)"
"1343","Marconi Cr opp Kambah Village","(-35.378929, 149.057632)"
"5513","Belc. Community Stn Plt 3","(-35.239979, 149.068466)"
"4181","William Webb Dr before Ginninderra Dr","(-35.219883, 149.06987)"
"3166","Windeyer St opp Watson Shops","(-35.239292, 149.153778)"
"6069","Anthony Rolfe Av after DeBortoli St","(-35.18639, 149.152145)"
"2079","Hodgson Cr opp Pearce Shops","(-35.363022, 149.082047)"
"2916","Woden Bus Stn Arrivals","(-35.34446, 149.08725)"
"3235","Gooreen St after Batman St","(-35.276276, 149.141327)"
"3073","Russell Dr after Vivian Bullwinkel St","(-35.29879, 149.151123)"
"2382","Yamba Dr The Canberra Hospital","(-35.346485, 149.099747)"
"4036","Maribyrnong Av Kaleen Village","(-35.219448, 149.102951)"
"4517","Bowman St opp Jamison Centre","(-35.252529, 149.072784)"
"2062","Eggleston Cr opp Chifley Shops","(-35.35215, 149.075302)"
"4132","Dumas St before Bennetts Cl","(-35.21751, 149.073715)"
"8831","City Bus Stn Northbourne Av Plt 11","(-35.278988, 149.12886)"
"2014","Carruthers St opp Curtin Shops","(-35.324608, 149.082779)"
"941","Cohen St Bus Stn Plt 1","(-35.23946, 149.060181)"
"4234","Daley Cr Fraser Shops","(-35.192711, 149.044006)"
"4964","Jerrabomberra Av opp AGSO","(-35.343983, 149.154907)"
"1243","Clare Dennis Av after Woodfull Lp","(-35.443119, 149.085846)"
"2212","Heysen St Weston Police CLG after Streeton Dr","(-35.330242, 149.055252)"
"4720","Paul Coe Cr before Mirrabei Dr","(-35.174667, 149.120041)"
"4480","Cohen St Bus Stn Plt 5","(-35.240059, 149.059784)"
"3401","City Bus Stn Plt 1","(-35.279133, 149.130585)"
"6051","Nullarbor Av after Katoomba St","(-35.201965, 149.156555)"
"2259","National Cct after Kings Av","(-35.305592, 149.133041)"
"4976","Calvary Hospital A&E West Side","(-35.25285, 149.090912)"
"5103","Catalina Dr","(-35.299023, 149.188065)"
"3410","City Bus Stn Plt 8","(-35.27803, 149.130615)"
"2169","Kalgoorlie Cr opp Fisher Shops","(-35.362053, 149.056473)"
"1802","Molonglo Park & Ride","(-35.321682, 149.058289)"
"4205","Lhotsky St opp Charnwood Shops","(-35.205868, 149.033051)"
"4292","Murranji St Hawker CLG","(-35.246338, 149.032318)"
"2804","Woden Bus Stn Plt 4","(-35.34446, 149.08725)"
"3351","Milne Bay Rd after General Bridges Rd","(-35.294376, 149.162155)"
"2308","Novar St Yarralumla Shops","(-35.307926, 149.09819)"
"5501","Westfield Bus Stn","(-35.238789, 149.063797)"
"2560","Ipima St Merici CLG","(-35.266106, 149.136871)"
"4547","Mouat St Hockey Centre","(-35.244457, 149.127213)"
"4072","Copland Dr Copland CLG","(-35.212429, 149.060699)"
"4755","Sandford & Brookes St","(-35.22065, 149.141144)"
"2598","Giles St Kingston Shops","(-35.315804, 149.140198)"
"4687","Kelleway Av opp Holy Spirit PS","(-35.180634, 149.101746)"
"4094","Clarey Cr after Dunkley Pl","(-35.194878, 149.063736)"
"49","Tuggeranong Stn Plt 5","(-35.414204, 149.065414)"
"4442","Shumack St opp Weetangera Shops","(-35.249386, 149.049591)"
"4206","Lhotsky St Charnwood Shops","(-35.205486, 149.032501)"
"2061","Eggleston Cr Chifley Shops","(-35.352531, 149.075531)"
"3042","Alinga St Canberra House(Plt 12)","(-35.278305, 149.127289)"
"1216","Box Hill Av opp St. Clare of Assisi PS","(-35.457714, 149.097366)"
"3004","London Cct after Akuna St","(-35.28228, 149.132095)"
"4334","Kippax Terminus","(-35.222481, 149.019333)"
"3404","City Bus Stn Plt 3","(-35.279049, 149.130478)"
"2372","Captain Cook Cr Manuka","(-35.321678, 149.134521)"
"6037","Flemington Rd after Lysaght St","(-35.219727, 149.145172)"
"2499","Devonport St after Port Arthur St","(-35.338825, 149.075851)"
"6186","Oodgeroo Av after Gwen Meredith","(-35.200275, 149.141541)"
"3321","Wentworth Av opposite Railway Station","(-35.319225, 149.14679)"
"2703","Woden Bus Stn Plt 3","(-35.344463, 149.087234)"
"1316","Atkins St after Livingston Av","(-35.388206, 149.085892)"
"1723","City Bus Stn Arrivals","(-35.278553, 149.1306)"
"4664","Northcott Dr Campbell Park Offices","(-35.283527, 149.170578)"
"1056","Hurtle Av opp Bonython Primary School","(-35.432125, 149.082306)"
"4557","Northbourne Av after Macarthur Av","(-35.261467, 149.132248)"
"2711","Woden Bus Stn Plt 11","(-35.343925, 149.087616)"
"2206","Parkinson St after Watling Pl","(-35.342457, 149.052872)"
"5042","Baldwin Dr opp Kaleen HS","(-35.224373, 149.10051)"
"4411","Onslow St Latham Shops","(-35.219135, 149.032089)"
"4791","Kosciuszko Av after Gungahlin Dr","(-35.189671, 149.120667)"
"1344","Marconi Cr Kambah Village","(-35.379135, 149.05777)"
"1803","Tuggeranong Stn Plt 3","(-35.414776, 149.065887)"
"3352","Tobruk Rd Campbell","(-35.293785, 149.164322)"
"3128","Cossington Smith Cr Nth Lyneham Shops","(-35.241161, 149.124283)"
"3167","Windeyer St Watson Shops","(-35.239162, 149.153595)"
"5502","Westfield Bus Stn","(-35.238796, 149.063797)"
"1048","Coombe St after Barr Smith Av","(-35.428455, 149.075302)"
"2534","Gilmore Cr Garran Shops","(-35.342045, 149.108795)"
"5517","Belc.Community Stn Arrivals","(-35.239944, 149.069046)"
"6666","Alexander Maconochie Centre","(-35.372116, 149.170013)"
"1197","Bugden Av after Chataway Cr","(-35.39864, 149.117569)"
"5514","Belc. Community Stn Plt 4","(-35.240059, 149.068039)"
"2803","Steve Irwin Ave after David Fleay St","(-35.324371, 149.036255)"
"959","Cohen St Bus Stn","(-35.239902, 149.060211)"
"1811","Chippindall Cct Theodore Terminus Off Street","(-35.453056, 149.118561)"
"3110","Miller St after Cockle St","(-35.260929, 149.114944)"
"4835","Narrabundah Lane opp Therapeutic Goods Admin","(-35.352142, 149.149719)"
"2657","Sheppard St before Tralee St","(-35.39283, 149.164597)"
"1299","O'Halloran Cct opp. Namadgi School","(-35.393074, 149.067673)"
"4291","Murranji St opp Hawker CLG","(-35.246437, 149.032272)"
"4146","Emu Bank opp McDonalds","(-35.239616, 149.075195)"
"2213","Heysen St Weston Police CLG before Streeton Dr","(-35.330334, 149.055252)"
"2095","Yamba Dr opp Canberra Hospital","(-35.346699, 149.099579)"
"3380","Wattle St opp Lyneham Shops","(-35.252682, 149.124573)"
"4017","Maribyrnong Av Gywdir Square","(-35.23365, 149.102722)"
"2272","Kent St opp Hughes Shops","(-35.33313, 149.095032)"
"4965","Jerrabomberra Av AGSO","(-35.344452, 149.155685)"
"1246","Brierly St Cooleman Ct Plt1","(-35.340843, 149.052338)"
"4721","Paul Coe Cr before Noongale Ct","(-35.175404, 149.119934)"
"1171","Sternberg Cr after Ashley Dr","(-35.401943, 149.100571)"
"4351","Ross Smith Cr Southern Cross Primary","(-35.233196, 149.039291)"
"2815","Woden Bus Stn Plt 15","(-35.344456, 149.087234)"
"6135","Hibberson St after Hinder St","(-35.185951, 149.137711)"
"3222","O'Connell St Ainslie Shops","(-35.26231, 149.145752)"
"1492","Clift Cr before Heagney Cr","(-35.426281, 149.112289)"
"2415","Nemerang Cr Waramanga Shops","(-35.352478, 149.060608)"
"3070","Russell Dr after Kelliher Dr","(-35.3009, 149.151062)"
"2642","Gawler Cr after 2nd Fergusson Cr","(-35.31427, 149.108826)"
"1118","Clift Cr after Johnson Dr","(-35.433113, 149.118225)"
"942","Cohen St Bus Stn Plt 2","(-35.23959, 149.060059)"
"1906","Langdon Av opp Wanniassa Shops","(-35.391087, 149.086945)"
"4632","Lennox Crossing National Museum","(-35.292381, 149.12027)"
"2432","Bangalay Cr Rivett Shops","(-35.347034, 149.036026)"
"1505","Castleton Cr opp Gowrie Shops","(-35.414013, 149.10939)"
"4154","Tillyard Dr before Sadleir Pl","(-35.200397, 149.043274)"
"4257","Kingsford Smith Dr Melba Shops","(-35.208698, 149.047653)"
"3399","Menindee Dr ACT Hospice","(-35.303581, 149.151566)"
"4484","Lance Hill Av after Evelyn Owen Cr","(-35.198318, 149.020462)"
"6052","Cultivation St after Encounter St","(-35.200195, 149.15834)"
"2069","Launceston St Lyons Shops","(-35.339706, 149.076981)"
"3413","City Bus Stn Plt 9","(-35.27803, 149.130737)"
"4610","Macpherson St opp O'Connor Shops","(-35.263828, 149.121567)"
"2712","Woden Bus Stn Plt 12","(-35.344467, 149.08725)"
"4696","Wanganeen Av Ngunnawal PS","(-35.169598, 149.111252)"
"4889","Tillyard Dr Fraser East Terminus","(-35.190083, 149.046478)"
"1217","Box Hill Av Lanyon Marketplace","(-35.456352, 149.092468)"
"3044","Matina St Narrabundah Terminus","(-35.331421, 149.158905)"
"4410","Onslow St opp Latham Shops","(-35.219238, 149.031937)"
"2705","Woden Bus Stn Plt 5","(-35.344463, 149.087234)"
"1191","Knoke Av opp Gordon Primary School","(-35.458122, 149.086121)"
"1385","Longmore Cr after Lobb Pl","(-35.389771, 149.087982)"
"3282","La Perouse St after Fortitude St","(-35.340622, 149.132217)"
"3199","Madigan St after Haddon St","(-35.247097, 149.162964)"
"1057","Hurtle Av Bonython Primary School","(-35.431442, 149.082291)"
"4485","Lance Hill Av after 2nd Alarmon Cr","(-35.198246, 149.020447)"
"4754","Sandford St after Flemington Rd","(-35.221085, 149.1427)"
"3405","City Bus Stn Plt 4","(-35.278511, 149.129959)"
"5007","Baldwin Dr Kaleen HS","(-35.224987, 149.100586)"
"2305","Strickland Cr opp Calvary John James Hosp.","(-35.318363, 149.095337)"
"4194","Kingsford Smith Dr after Krefft Cr","(-35.223541, 149.039093)"
"4221","Shakespeare Cr Fraser West Terminus","(-35.190578, 149.036041)"
"406","MacFarlane Burnet Av before Constance Stone St","(-35.209293, 149.002975)"
"4663","Limestone Av after Treloar St","(-35.279919, 149.146072)"
"2520","Beasley St after Basedow St","(-35.373642, 149.087112)"
"2599","Lithgow St opp Fyshwick Terminus","(-35.330555, 149.16362)"
"6036","Flemington Rd after Sandford St","(-35.220104, 149.144882)"
"4447","Hawker Pl opp Hawker Shops","(-35.24361, 149.043304)"
"6331","Mabo Bvd Bonner Shops","(-35.162155, 149.139511)"
"2045","Heard St Southlands Shops","(-35.365471, 149.095322)"
"3324","Clunies Ross St Botanic Gdns","(-35.278687, 149.109314)"
"2205","Parkinson St after Whitney Pl","(-35.342365, 149.052963)"
"4558","Northbourne Av before Macarthur Av","(-35.261383, 149.131699)"
"5503","Westfield Bus Stn Set Down Only","(-35.238789, 149.063797)"
"2588","Groom St before Kent St","(-35.332432, 149.093903)"
"1315","Atkins St after Athllon Dr","(-35.388237, 149.085724)"
"1038","Chippindall Cct after Latchford St","(-35.450718, 149.1203)"
"3011","Russell Dr Russell Offices","(-35.297298, 149.150269)"
"3360","Wentworth Av Railway Station","(-35.319202, 149.147369)"
"1804","Tuggeranong Stn Plt 4","(-35.41444, 149.065613)"
"1666","Knoke Av Gordon Primary School","(-35.458172, 149.086243)"
"3132","Cowper St Dickson Shops","(-35.250481, 149.140594)"
"4522","Bandjalong Cr opp Aranda Primary","(-35.256348, 149.0793)"
"2168","Kalgoorlie Cr Fisher Shops","(-35.361969, 149.056641)"
"2371","Captain Cook Cr after Canberra Av","(-35.321072, 149.135101)"
"4333","Hardwick St Kippax Fair","(-35.222431, 149.01947)"
"4111","Clancy St Evatt Shops","(-35.209103, 149.073242)"
"4975","Calvary Hospital A&E East Side","(-35.252838, 149.091095)"
"5515","Belc. Community Stn Plt 5","(-35.239967, 149.068909)"
"2460","Julia Flynn Av Isaacs Shops","(-35.367294, 149.112625)"
"6166","Hibberson Kate Crace TERMINATING STOP ONLY","(-35.186024, 149.138367)"
"2070","Launceston St Lyons PS","(-35.340408, 149.076477)"
"4790","Kosciuszko Av after Buller Cr","(-35.189453, 149.120834)"
"3467","Molonglo Dr Brindabella Business Park","(-35.315044, 149.190308)"
"4057","Canopus Cr Giralang PS","(-35.21294, 149.094742)"
"4147","Tillyard Dr McDonalds","(-35.20578, 149.03511)"
"2245","Federation Mall Parliament House Northbound","(-35.305534, 149.126068)"
