"stop_id","lastupdate","stop_name","latitude","longitude","street","crossroad","position_","direction","status","location"
"886","2017-08-08T00:00:00.000","Job Corps Center","29.70442309","-82.27406287","NE 54th PL","NE 54th AVE","Nearside","West","Active","POINT (-82.27406287 29.70442309)"
"1217","2021-03-10T00:00:00.000","Schiebler Childrens Medical Facility","29.63517394","-82.34565052","SW 16th AVE","Shealy DR","Nearside","West","Active","POINT (-82.34565052 29.63517394)"
"103","2021-06-11T00:00:00.000","SE 24th Street @ E University Avenue","29.65112827","-82.29320086","SE 24th ST","E University AVE","Nearside","North","Active","POINT (-82.29320086 29.65112827)"
"1462","2020-03-19T00:00:00.000","NE 18 ST @ NE 3 AVE","29.6533778","-82.3017928","NE 18 ST","NE 3 AVE","Nearside","North","Active","POINT (-82.3017928 29.6533778)"
"1100","2021-06-08T00:00:00.000","West Newberry Road @ NW 69th Ter","29.65976794","-82.41598699","Newberry RD","NW 69th TER","Nearside","West","Active","POINT (-82.41598699 29.65976794)"
"863","2017-08-08T00:00:00.000","Northbound NE 9th Street @ NE 10th Place","29.66137286","-82.31471379","NE 9th ST","NE 10th PL","Nearside","North","Active","POINT (-82.31471379 29.66137286)"
"1449","2021-06-02T00:00:00.000","Gator City Motors SB N Main St","29.66904445","-82.32428207","Main ST","NW 16th AVE","Nearside","South","Active","POINT (-82.32428207 29.66904445)"
"501","2019-11-19T00:00:00.000","NW 30th Terrace @ NW 16th Avenue","29.66686165","-82.36767463","NW 16th AVE","NW 30th TER","Farside","West","Active","POINT (-82.36767463 29.66686165)"
"197","2019-11-06T00:00:00.000","Ben Hill Griffin Stadium","29.6519746","-82.34904918","W University AVE","Gale Lemerand DR","Farside","East","Active","POINT (-82.34904918 29.6519746)"
"1038","2021-06-08T00:00:00.000","SW Archer Rd @ SW 63rd Blvd","29.60552727","-82.40896546","Archer RD","SW 63rd BLVD","Nearside","West","Active","POINT (-82.40896546 29.60552727)"
"150","2019-10-31T00:00:00.000","University Lutheran Church","29.6521822","-82.34769327","W University AVE","NW 19th ST","Nearside","West","Active","POINT (-82.34769327 29.6521822)"
"673","2021-05-10T00:00:00.000","Wyndham Garden Hotel","29.62440561","-82.33955502","SW 13th ST","SW 14th DR","Nearside","South","Active","POINT (-82.33955502 29.62440561)"
"1535","2020-09-02T00:00:00.000","Northbound NW 34th St @ NW 31st Ave","29.68127738","-82.37231474","NW 34th St","NW 31st Ave","Nearside","North","Active","POINT (-82.37231474 29.68127738)"
"477","2019-11-14T00:00:00.000","Cancer & Genetics Research Center","29.6389188","-82.3514088","Mowry RD","Gale Lemerand DR","Farside","West","Active","POINT (-82.3514088 29.6389188)"
"1146","2020-07-06T00:00:00.000","Beta Theta Pi across Springs","29.648522","-82.35645","Fraternity Row","Woodlawn DR","Nearside","East","Active","POINT (-82.35645 29.648522)"
"1253","2020-01-16T00:00:00.000","Graham Hall","29.64581027","-82.35025685","Gale Lemerand DR","Museum RD","Farside","North","Active","POINT (-82.35025685 29.64581027)"
"461","2020-08-17T00:00:00.000","University Club Apartments","29.62583078","-82.35633251","SW 23rd TER","SW 28th PL","Farside","North","Active","POINT (-82.35633251 29.62583078)"
"859","2020-08-17T00:00:00.000","Cabana Beach Apartments","29.63807828","-82.39798767","SW 52nd BLVD","SW 20th AVE","Nearside","West","Active","POINT (-82.39798767 29.63807828)"
"1456","2020-02-19T00:00:00.000","NE 49th AVE","29.69964419","-82.2782648","NE 49th AVE","Waldo RD","Farside","West","Active","POINT (-82.2782648 29.69964419)"
"366","2021-06-08T00:00:00.000","Alight Gainesville Apartments @ NW 13th St","29.658724","-82.33906869","NW 13th ST","NW 7th AVE","Farside","North","Active","POINT (-82.33906869 29.658724)"
"1219","2020-01-15T00:00:00.000","Webb Livestock Pavilion","29.63398861","-82.35110535","Shealy DR","SW 16th AVE","Nearside","North","Active","POINT (-82.35110535 29.63398861)"
"722","2020-08-17T00:00:00.000","Eden Park at Ironwood","29.68850943","-82.30882702","NE 39th AVE","NE 14th ST","Farside","West","Active","POINT (-82.30882702 29.68850943)"
"1513","2020-09-02T00:00:00.000","Westside Recreation Center","29.66059556","-82.37234847","NW 34th St","NW 8th Ave","Farside","North","Active","POINT (-82.37234847 29.66059556)"
"1324","2020-02-05T00:00:00.000","Sorority Row","29.64482141","-82.33570469","SW 11th ST","SW 8th AVE","Nearside","North","Active","POINT (-82.33570469 29.64482141)"
"661","2019-11-21T00:00:00.000","Regions Bank @ SW 37th Boulevard","29.61964","-82.379477","SW 37th BLVD","SW 38th ST","Nearside","South","Active","POINT (-82.379477 29.61964)"
"343","2020-10-07T00:00:00.000","Dollar General","29.64523094","-82.2936928","Hawthorne RD","SE 24th ST","Nearside","West","Active","POINT (-82.2936928 29.64523094)"
"1301","2021-02-17T00:00:00.000","Stoneridge Apartments","29.61851945","-82.37269734","SW 34th ST","SW 39th BLVD","Nearside","South","Active","POINT (-82.37269734 29.61851945)"
"1","2020-08-24T00:00:00.000","Rosa Parks Downtown Station","29.64556734","-82.32269681","SE 3rd ST","SE 3rd ST","Nearside","North","Active","POINT (-82.32269681 29.64556734)"
"1057","2021-06-08T00:00:00.000","Linton Oaks Neighborhood","29.64318674","-82.40819003","SW 61st ST","SW 10th PL","Farside","North","Active","POINT (-82.40819003 29.64318674)"
"763","2019-11-27T00:00:00.000","Publix @ N Main Street","29.66376429","-82.32458618","N Main ST","NE 14th AVE","Farside","South","Active","POINT (-82.32458618 29.66376429)"
"920","2019-12-04T00:00:00.000","GRU Administration Building","29.64841357","-82.32146051","SE 4th AVE","SE 4th ST","Nearside","West","Active","POINT (-82.32146051 29.64841357)"
"134","2021-07-02T00:00:00.000","Norwood Neighborhood","29.63637452","-82.31723972","SE 4th ST","SE 14th LN","Farside","North","Suspended","POINT (-82.31723972 29.63637452)"
"1542","2020-04-01T00:00:00.000","The Polos Southwest Entrance","29.61357757","-82.35993945","SW 40th Pl","SW 25th Ter","Nearside","East","Active","POINT (-82.35993945 29.61357757)"
"677","2021-05-10T00:00:00.000","The Landings Apartments","29.618568","-82.340371","SW 13th ST","SW 36th PL","Farside","South","Active","POINT (-82.340371 29.618568)"
"482","2019-11-19T00:00:00.000","University of Florida Energy Research","29.62789494","-82.35930918","SW 23rd TER","Archer RD","Farside","South","Active","POINT (-82.35930918 29.62789494)"
"557","2021-06-04T00:00:00.000","NE 9th Street @ NE 3rd Avenue","29.65420459","-82.31468404","NE 9th ST","NE 3rd AVE","Farside","North","Active","POINT (-82.31468404 29.65420459)"
"1352","2020-02-05T00:00:00.000","Forest Park","29.6329738","-82.38911929","SW 43rd ST","SW 21st PL","Farside","North","Active","POINT (-82.38911929 29.6329738)"
"249","2021-03-10T00:00:00.000","Georgetown Apartments","29.6668006","-82.34052118","NW 16th AVE","NW 13th ST","Farside","West","Active","POINT (-82.34052118 29.6668006)"
"727","2019-11-27T00:00:00.000","Oasis Carwash","29.68860624","-82.32784941","NW 39th AVE","NW 6th ST","Nearside","West","Active","POINT (-82.32784941 29.68860624)"
"803","2019-11-27T00:00:00.000","UF Counseling and Wellness Center","29.64230641","-82.3689536","Radio RD","Bledsoe DR","Nearside","West","Active","POINT (-82.3689536 29.64230641)"
"1040","2021-06-08T00:00:00.000","Okito America","29.60210729","-82.41547584","Archer RD","SW 69th TER","Nearside","West","Active","POINT (-82.41547584 29.60210729)"
"1408","2021-05-28T00:00:00.000","Westbound NW 5th AVE @ NW 17th ST","29.65584739","-82.34454084","NW 5th AVE","NW 17th ST","Nearside","West","Active","POINT (-82.34454084 29.65584739)"
"167","2021-06-11T00:00:00.000","Newberry Rd @ NW 51st St","29.65833394","-82.39689833","Newberry RD","NW 51st ST","Farside","West","Active","POINT (-82.39689833 29.65833394)"
"947","2020-06-09T00:00:00.000","Gainesville Place Apartments @ SW 35th Place","29.61968251","-82.36507941","SW 35th PL","SW 28th TER","Farside","East","Active","POINT (-82.36507941 29.61968251)"
"1002","2019-12-04T00:00:00.000","Santa Fe College @ NW 83rd Street","29.68060993","-82.43026999","NW 83rd ST","NW 31st AVE","Nearside","North","Active","POINT (-82.43026999 29.68060993)"
"324","2019-11-12T00:00:00.000","Eastside High School","29.639827","-82.27243","SE 43rd ST","SE 13th AVE","Farside","North","Active","POINT (-82.27243 29.639827)"
"396","2021-06-08T00:00:00.000","NW 34th St @ NW 53rd Ave","29.70273643","-82.36496801","NW 34th ST","NW 29th ST","Nearside","North","Active","POINT (-82.36496801 29.70273643)"
"1497","2020-10-07T00:00:00.000","Alachua School Bus Parking Lot","29.64857171","-82.300287","SE Hawthorne Rd","SE 20th St","Farside","West","Active","POINT (-82.300287 29.64857171)"
"1387","2020-02-11T00:00:00.000","Sable Chase Neighborhood","29.68877336","-82.37455097","NW 39th AVE","NW 35th ST","Nearside","West","Active","POINT (-82.37455097 29.68877336)"
"434","2021-05-10T00:00:00.000","Direct Auto Insurance","29.664547","-82.339285","NW 13th ST","NW 14th AVE","Farside","South","Active","POINT (-82.339285 29.664547)"
"1013","2019-12-05T00:00:00.000","Pine Woods Apartments","29.68854768","-82.39126286","NW 39th AVE","NW 45th ST","Nearside","East","Active","POINT (-82.39126286 29.68854768)"
"1502","2020-03-24T00:00:00.000","Northbound Metcalfe Elementary School","29.66828465","-82.30574735","NE 15th St","NE 18th Ave","Nearside","North","Active","POINT (-82.30574735 29.66828465)"
"7","2021-06-17T00:00:00.000","Infinity Hall","29.65031427","-82.33460268","SW 2nd AVE","SW 10th ST","Nearside","West","Active","POINT (-82.33460268 29.65031427)"
"1186","2020-01-14T00:00:00.000","Lakeside Residential Building","29.64125278","-82.36422348","Museum RD","Radio RD","Farside","South","Active","POINT (-82.36422348 29.64125278)"
"624","2019-11-20T00:00:00.000","Sunny Food Mart","29.65938254","-82.31019822","NE 8th AVE","NE 12th ST","Farside","West","Active","POINT (-82.31019822 29.65938254)"
"175","2021-06-11T00:00:00.000","Oaks Mall @ SW 62nd Street Northbound","29.657894","-82.408798","NW 62nd ST","Newberry RD","Nearside","North","Active","POINT (-82.408798 29.657894)"
"364","2021-06-08T00:00:00.000","Publix @ NW 13th Street and W University Ave","29.65374","-82.339101","NW 13th ST","W University AVE","Farside","North","Active","POINT (-82.339101 29.65374)"
"516","2019-11-19T00:00:00.000","Quail Ridge Neighborhood","29.67430277","-82.41797849","NW 23rd AVE","NW 71st ST","Nearside","West","Active","POINT (-82.41797849 29.67430277)"
"1192","2020-01-14T00:00:00.000","Turlington Hall","29.648079","-82.343575","Newell DR","Union RD","Farside","South","Active","POINT (-82.343575 29.648079)"
"608","2019-11-20T00:00:00.000","Northbound NE 25th Street @ NE 6th Avenue","29.65713327","-82.29227303","NE 25th ST","NE 6th AVE","Farside","North","Active","POINT (-82.29227303 29.65713327)"
"899","2017-08-08T00:00:00.000","Michelle Garden Apartments","29.66658375","-82.30568848","NE 16th AVE","NE 15th ST","Nearside","West","Active","POINT (-82.30568848 29.66658375)"
"714","2020-07-06T00:00:00.000","Boulware Charter School","29.6738115","-82.3082771","NE 23rd AVE","NE 14th ST","Nearside","East","Active","POINT (-82.3082771 29.6738115)"
"844","2017-08-08T00:00:00.000","Maguire Field","29.6409678","-82.36924759","Bledsoe DR","Radio RD","Nearside","North","Active","POINT (-82.36924759 29.6409678)"
"388","2019-11-13T00:00:00.000","Assembly of Gods Church","29.68872401","-82.36650984","NW 39th AVE","NW 29th TER","Farside","West","Active","POINT (-82.36650984 29.68872401)"
"938","2019-12-04T00:00:00.000","Maguire Village @ SW 34th Street","29.64243211","-82.37264884","SW 34th ST","Radio RD","Nearside","South","Active","POINT (-82.37264884 29.64243211)"
"306","2019-11-12T00:00:00.000","Eastbound University Avenue @ SE 24th Street","29.65177477","-82.29373886","E University AVE","SE 24th ST","Nearside","East","Active","POINT (-82.29373886 29.65177477)"
"822","2019-11-27T00:00:00.000","Palm Garden of Gainesville","29.64988594","-82.40664133","SW 62nd BLVD","SW 4th PL","Nearside","North","Active","POINT (-82.40664133 29.64988594)"
"1467","2020-03-19T00:00:00.000","NE 18th St @ NE 8th Ave","29.65892469","-82.30173143","NE 18 ST","NE 8th Ave","Farside","South","Active","POINT (-82.30173143 29.65892469)"
"1169","2020-01-14T00:00:00.000","Northwood Pines Neighborhood","29.704937","-82.360048","NW 34th ST","NW 25th TER","Nearside","North","Active","POINT (-82.360048 29.704937)"
"12","2018-10-03T00:00:00.000","Norman Field @ SW 8th Avenue","29.64495627","-82.33809468","SW 8th AVE","SW 12th ST","Farside","West","Active","POINT (-82.33809468 29.64495627)"
"1507","2016-03-02T00:00:00.000","UF & Shands at Springhill","29.68898608","-82.4344755","NW 39th Ave","NW 83rd St","Farside","West","Proposed","POINT (-82.4344755 29.68898608)"
"523","2019-11-20T00:00:00.000","Shenandoah Neighborhood","29.6740746","-82.42518282","NW 23rd AVE","NW 77th TER","Farside","East","Active","POINT (-82.42518282 29.6740746)"
"522","2019-11-20T00:00:00.000","The Pentecostals of Gainesville","29.67422327","-82.42841316","NW 23rd AVE","NW 83rd ST","Farside","East","Active","POINT (-82.42841316 29.67422327)"
"84","2021-06-11T00:00:00.000","SE 15th Street @ SE 13th Place","29.63904543","-82.30579603","SE 15th ST","SE 13th PL","Farside","North","Active","POINT (-82.30579603 29.63904543)"
"1594","2021-08-25T00:00:00.000","AT&T Store @ NW 4th Place","29.6562723","-82.4087125","NW 4th Place","NW 62nd Street","Nearside","West","Active","POINT (-82.4087125 29.6562723)"
"739","2019-11-27T00:00:00.000","Eastbound NW 39th Avenue @ NW 10th Street","29.68842063","-82.33446234","NW 39th AVE","NW 10th ST","Farside","East","Active","POINT (-82.33446234 29.68842063)"
"758","2019-11-27T00:00:00.000","David's BBQ","29.67285138","-82.31984135","NE 2nd ST","NE 23rd AVE","Farside","South","Active","POINT (-82.31984135 29.67285138)"
"201","2021-06-11T00:00:00.000","West University Ave @ SW 13th St","29.65198277","-82.33823035","W University AVE","SW 13th ST","Farside","East","Active","POINT (-82.33823035 29.65198277)"
"699","2021-06-08T00:00:00.000","Alachua County Supervisor of Elections","29.65633995","-82.32492072","N Main ST","NE 6th AVE","Farside","North","Active","POINT (-82.32492072 29.65633995)"
"1083","2020-10-07T00:00:00.000","Cricket Club Apartments","29.64793527","-82.42229716","SW 75th ST","SW 8th AVE","Nearside","North","Active","POINT (-82.42229716 29.64793527)"
"986","2019-12-04T00:00:00.000","Bank of America @ NW 43rd Street","29.6777446","-82.388858","NW 43rd ST","NW 27th LN","Nearside","North","Active","POINT (-82.388858 29.6777446)"
"666","2019-11-27T00:00:00.000","Health Science Center Administration","29.63739039","-82.3430339","SW 16th ST","SW 16th AVE","Nearside","South","Active","POINT (-82.3430339 29.63739039)"
"1105","2020-01-08T00:00:00.000","Cricket Club Apartments","29.64811325","-82.42253801","SW 75th ST","SW 8th AVE","Nearside","South","Active","POINT (-82.42253801 29.64811325)"
"965","2019-12-04T00:00:00.000","Gator Corner Dining","29.64853144","-82.35011418","Stadium RD","Gale Lemerand DR","Nearside","East","Active","POINT (-82.35011418 29.64853144)"
"1019","2020-10-07T00:00:00.000","St. Michael's Day School","29.67212113","-82.38910801","NW 43rd ST","NW 23rd AVE","Farside","South","Active","POINT (-82.38910801 29.67212113)"
"1264","2020-01-16T00:00:00.000","Cottage Grove Apartments at Gainesville","29.60950178","-82.34185652","SW 13th ST","SW Williston RD","Farside","South","Active","POINT (-82.34185652 29.60950178)"
"1305","2020-02-05T00:00:00.000","Best Buy @ Butler Plaza","29.621497","-82.380736","SW 37th BLVD","Windmeadows BLVD","Nearside","North","Active","POINT (-82.380736 29.621497)"
"1492","2020-09-02T00:00:00.000","Lowe's @ Butler Plaza Westbound","29.62386136","-82.38131131","Windmeadows Blvd","Clark Butler Blvd","Nearside","West","Active","POINT (-82.38131131 29.62386136)"
"468","2019-11-14T00:00:00.000","Parking & Transportation Services","29.63979111","-82.35038735","Gale Lemerand DR","Mowry RD","Farside","North","Active","POINT (-82.35038735 29.63979111)"
"744","2019-11-27T00:00:00.000","Wade Raulerson Honda Dealership","29.68830659","-82.31852102","NE 39th AVE","N Main ST","Farside","East","Active","POINT (-82.31852102 29.68830659)"
"217","2019-11-06T00:00:00.000","Big Ron's Yoga","29.66099543","-82.33080268","NW 6th ST","NW 10th AVE","Nearside","North","Active","POINT (-82.33080268 29.66099543)"
"1285","2020-01-29T00:00:00.000","Southbound Fort Clarke Boulevard @ Eagle Point","29.669047","-82.43736","Fort Clarke BLVD","NW 17th PL","Nearside","South","Active","POINT (-82.43736 29.669047)"
"929","2019-12-04T00:00:00.000","O'Connell Center @ Stadium Road","29.6485231","-82.35048301","Stadium RD","Gale Lemerand DR","Farside","West","Active","POINT (-82.35048301 29.6485231)"
"1121","2021-06-02T00:00:00.000","Radiant Credit Union @ Archer Rd","29.60508744","-82.40924596","Archer RD","SW 63rd BLVD","Nearside","East","Active","POINT (-82.40924596 29.60508744)"
"255","2019-11-07T00:00:00.000","Burlington @ NW 13th Street","29.67746376","-82.33896085","NW 13th ST","NW 26th PL","Farside","North","Active","POINT (-82.33896085 29.67746376)"
"1525","2020-09-02T00:00:00.000","Northbound NW 34th St @ NW 31st Blvd","29.68658377","-82.3722623","NW 34th St","NW 31st Blvd","Nearside","North","Active","POINT (-82.3722623 29.68658377)"
"553","2021-06-04T00:00:00.000","Alachua County Library Headquarters","29.65176577","-82.32231769","SE 3rd ST","E University AVE","Nearside","North","Active","POINT (-82.32231769 29.65176577)"
"1235","2020-01-15T00:00:00.000","Super Wal-mart @ NE 12th Avenue","29.66283893","-82.30220653","NE 12th AVE","Waldo RD","Nearside","West","Active","POINT (-82.30220653 29.66283893)"
"278","2019-11-07T00:00:00.000","Atlantic Design","29.6660861","-82.33095418","NW 6th ST","NW 16th AVE","Farside","South","Active","POINT (-82.33095418 29.6660861)"
"1395","2020-08-14T00:00:00.000","Southbound NW 55th ST @ NW 9th LN","29.66083227","-82.40158333","NW 55th ST","NW 9th LN","Farside","South","Inactive","POINT (-82.40158333 29.66083227)"
"1561","2020-09-01T00:00:00.000","Haile Plantation I","29.60716487","-82.4381515","SW 51st Road","SW 91st Ter","Farside","West","Active","POINT (-82.4381515 29.60716487)"
"56","2021-06-11T00:00:00.000","SW 2nd Ave @ SW 2nd St","29.650203","-82.326684","SW 2nd AVE","SW 2nd ST","Nearside","East","Active","POINT (-82.326684 29.650203)"
"1063","2021-07-02T00:00:00.000","Linton Oaks Neighborhood","29.64045782","-82.40726909","SW 61st ST","SW 20th AVE","Nearside","South","Suspended","POINT (-82.40726909 29.64045782)"
"979","2020-10-07T00:00:00.000","Landmark Woods Neighborhood","29.66328133","-82.38891734","NW 43rd ST","NW 12th AVE","Nearside","North","Active","POINT (-82.38891734 29.66328133)"
"1139","2020-01-09T00:00:00.000","Casablanca Apartments","29.61991231","-82.36126334","SW 35th PL","SW 27th ST","Nearside","West","Active","POINT (-82.36126334 29.61991231)"
"570","2019-11-20T00:00:00.000","Eastbound NE 8th Avenue @ NE 22nd Street","29.65918177","-82.29602286","NE 8th AVE","NE 22nd ST","Nearside","East","Active","POINT (-82.29602286 29.65918177)"
"33","2018-10-10T00:00:00.000","Spanish Trace Apartments","29.62816728","-82.37429067","Windmeadows BLVD","SW 34th ST","Nearside","East","Active","POINT (-82.37429067 29.62816728)"
"1341","2020-02-05T00:00:00.000","Enclave 4","29.62278261","-82.36676568","Enclave Apartments","Enclave Apartments","Nearside","East","Active","POINT (-82.36676568 29.62278261)"
"1206","2020-01-15T00:00:00.000","Arlington Square Apartments","29.64951749","-82.32230172","SE 3rd ST","SE 2nd PL","Nearside","North","Active","POINT (-82.32230172 29.64951749)"
"1472","2020-03-19T00:00:00.000","Kauffman Tires","29.651786","-82.375868","W University Ave","SW 36th St","Nearside","East","Active","POINT (-82.375868 29.651786)"
"412","2019-11-13T00:00:00.000","Northwood Pines Neighborhood","29.70519255","-82.35971591","NW 34th ST","NW 23rd TER","Nearside","South","Active","POINT (-82.35971591 29.70519255)"
"426","2018-11-07T00:00:00.000","Ridgeview Baptist Church","29.68588793","-82.34743935","NW 19th ST","NW 36th AVE","Nearside","South","Active","POINT (-82.34743935 29.68588793)"
"447","2019-11-14T00:00:00.000","Hunters Run Apartments","29.61278861","-82.35933118","SW 25th TER","Williston RD","Farside","North","Active","POINT (-82.35933118 29.61278861)"
"783","2019-02-28T00:00:00.000","Chevron Gas Station @ Williston Road","29.63507215","-82.31778641","Williston RD","SE 4th ST","Farside","South","Active","POINT (-82.31778641 29.63507215)"
"598","2021-06-08T00:00:00.000","Eastside Plaza Westbound","29.65197077","-82.27698441","E University AVE","SE 39th ST","Farside","West","Active","POINT (-82.27698441 29.65197077)"
"50","2021-07-02T00:00:00.000","Campus USA Credit Union","29.6481866","-82.33707502","SW 12th ST","SW 4th AVE","Nearside","North","Suspended","POINT (-82.33707502 29.6481866)"
"34","2021-06-11T00:00:00.000","Archer Rd @ SW 34th St","29.62758089","-82.37119809","Archer RD","SW 34th ST","Farside","East","Active","POINT (-82.37119809 29.62758089)"
"895","2017-08-08T00:00:00.000","BP Gas Station @ NE 23rd Avenue","29.67372909","-82.29801264","NE 23rd AVE","Waldo RD","Nearside","East","Active","POINT (-82.29801264 29.67372909)"
"374","2020-06-26T00:00:00.000","UF Health Homecare","29.67407376","-82.34277369","NW 23rd AVE","NW 16th TER","Nearside","West","Active","POINT (-82.34277369 29.67407376)"
"528","2019-11-20T00:00:00.000","Northwest Baptist Church","29.6740061","-82.40184483","NW 23rd AVE","NW 55th ST","Nearside","East","Active","POINT (-82.40184483 29.6740061)"
"75","2019-10-30T00:00:00.000","Robinson Heights","29.615717","-82.305947","SE 15th ST","SE 41st AVE","Nearside","South","Active","POINT (-82.305947 29.615717)"
"1482","2020-09-02T00:00:00.000","Lake Alice Conservation Area","29.638446","-82.353818","Mowry Rd","SW 23 Dr","Nearside","West","Active","POINT (-82.353818 29.638446)"
"996","2020-10-07T00:00:00.000","Emerald Woods Neighborhood","29.68890359","-82.41596868","NW 39th AVE","NW 59th ST","Nearside","West","Active","POINT (-82.41596868 29.68890359)"
"18","2019-10-30T00:00:00.000","Shands Hospital @ Davis Cancer Pavilion","29.63702289","-82.34988451","Archer RD","Gale Lemerand DR","Nearside","West","Active","POINT (-82.34988451 29.63702289)"
"788","2019-03-05T00:00:00.000","Winn Dixie @ SW 16th Avenue","29.63629061","-82.32859485","SW 16th AVE","SW 6th ST","Nearside","West","Active","POINT (-82.32859485 29.63629061)"
"277","2019-11-07T00:00:00.000","Acupuncture Center","29.66913227","-82.33092902","NW 6th ST","NW 19th AVE","Farside","South","Active","POINT (-82.33092902 29.66913227)"
"990","2021-06-15T00:00:00.000","Magnolia Parke","29.68878626","-82.39289991","NW 39th AVE","NW 46th TER","Nearside","West","Active","POINT (-82.39289991 29.68878626)"
"1066","2021-06-08T00:00:00.000","SW 24th Ave @ SW 70th Ter","29.63102836","-82.41807139","SW 24th AVE","SW 70th TER","Farside","West","Active","POINT (-82.41807139 29.63102836)"
"508","2019-11-19T00:00:00.000","Millhopper Shopping Center","29.67362143","-82.38766433","NW 16th BLVD","NW 43rd ST","Nearside","West","Active","POINT (-82.38766433 29.67362143)"
"704","2019-02-07T00:00:00.000","Kangaroo @ N Main St","29.66639816","-82.32439379","N Main ST","NE 16th AVE","Nearside","North","Active","POINT (-82.32439379 29.66639816)"
"162","2019-10-31T00:00:00.000","Tire Kingdom @ Newberry Road","29.65380844","-82.384512","Newberry RD","NW 39th RD","Farside","West","Active","POINT (-82.384512 29.65380844)"
"810","2020-08-17T00:00:00.000","Windsor Terrace Apartments","29.63422252","-82.37490668","SW 20th AVE","SW 34th ST","Farside","West","Active","POINT (-82.37490668 29.63422252)"
"849","2017-08-08T00:00:00.000","Hume Hall","29.64483661","-82.35198835","Museum RD","Gale Lemerand DR","Nearside","East","Active","POINT (-82.35198835 29.64483661)"
"1136","2020-01-09T00:00:00.000","Wilmot Gardens","29.639628","-82.349386","Mowry RD","Gale Lemerand DR",,"West","Active","POINT (-82.349386 29.639628)"
"1270","2021-06-04T00:00:00.000","SW 32nd Ter @ Old Archer Rd","29.626849","-82.37054","Gainesville Place Entrance","Old Archer Road","Farside","South","Active","POINT (-82.37054 29.626849)"
"969","2019-12-04T00:00:00.000","Nationwide Insurance @ Williston Road","29.6061827","-82.36775094","Williston RD","SW 29Th Dr","Farside","West","Active","POINT (-82.36775094 29.6061827)"
"1024","2020-01-07T00:00:00.000","Landmark Woods Neighborhood","29.66322427","-82.38917833","NW 43rd ST","NW 12th AVE","Farside","South","Active","POINT (-82.38917833 29.66322427)"
"1091","2020-01-07T00:00:00.000","Home Depot @ NW 4th Boulevard","29.65618235","-82.41849854","NW 4th BLVD","NW 75th ST","Nearside","West","Active","POINT (-82.41849854 29.65618235)"
"182","2021-06-08T00:00:00.000","Gainesville Health and Fitness","29.65727377","-82.39470833","Newberry RD","NW 48th BLVD","Nearside","East","Active","POINT (-82.39470833 29.65727377)"
"473","2019-11-14T00:00:00.000","Reitz Student Union","29.64514027","-82.34698268","McCarty DR","Museum RD","Nearside","South","Active","POINT (-82.34698268 29.64514027)"
"1289","2020-02-04T00:00:00.000","Pepboys Auto @ Newberry RD","29.65959694","-82.42497132","Newberry RD","NW 76th BLVD","Nearside","East","Active","POINT (-82.42497132 29.65959694)"
"488","2019-11-19T00:00:00.000","Countryside at the University Apartments","29.61598136","-82.35541365","SW 23rd TER","Williston RD","Nearside","South","Active","POINT (-82.35541365 29.61598136)"
"295","2019-11-12T00:00:00.000","Williams Elementary School","29.6457296","-82.30893653","SE 7th AVE","SE 12th TER","Farside","East","Active","POINT (-82.30893653 29.6457296)"
"1487","2020-09-02T00:00:00.000","New RTS Maintenance Facility North","29.63811265","-82.32569067","SE 1st St","SE 13th AVE","Nearside","North","Active","POINT (-82.32569067 29.63811265)"
"1581","2021-07-02T00:00:00.000","McKnight Brain Institute","29.64189","-82.343671","Newell Dr","Newell Dr","Farside","North","Suspended","POINT (-82.343671 29.64189)"
"1309","2020-02-05T00:00:00.000","Williston Plaza","29.60638462","-82.37261401","SW 48th LN","SW 34th ST","Nearside","West","Active","POINT (-82.37261401 29.60638462)"
"749","2019-11-27T00:00:00.000","Village Green Apartments","29.68351123","-82.30587477","NE 15th ST","NE 31st AVE","Farside","South","Active","POINT (-82.30587477 29.68351123)"
"644","2019-11-20T00:00:00.000","Kangaroo @ SW 34th Street","29.62244298","-82.3725812","SW 34th ST","SW 35th AVE","Farside","North","Active","POINT (-82.3725812 29.62244298)"
"222","2021-06-11T00:00:00.000","Hand N' Hand Day Care Northbound","29.67056243","-82.33075352","NW 6th ST","NW 19th LN","Farside","North","Active","POINT (-82.33075352 29.67056243)"
"1109","2020-10-07T00:00:00.000","Tower 24 Shopping Center","29.62891728","-82.42259316","SW 75th ST","SW 26th AVE","Nearside","South","Active","POINT (-82.42259316 29.62891728)"
"1239","2020-09-23T00:00:00.000","Caroline Manor Affordable Housing","29.65200294","-82.2919187","E University AVE","NE 25th ST","Nearside","West","Active","POINT (-82.2919187 29.65200294)"
"769","2019-11-27T00:00:00.000","The Collier Companies","29.65376363","-82.32512619","N Main ST","NW 2nd AVE","Nearside","South","Active","POINT (-82.32512619 29.65376363)"
"873","2017-08-08T00:00:00.000","BP Gas Station @ NE 23rd Avenue","29.67387093","-82.29795153","NE 23rd AVE","Waldo RD","Farside","West","Active","POINT (-82.29795153 29.67387093)"
"1158","2020-01-14T00:00:00.000","Walker Hall","29.64968846","-82.34155571","Union RD","Newell DR","Farside","East","Active","POINT (-82.34155571 29.64968846)"
"1517","2020-09-02T00:00:00.000","Northbound NW 34th St @ NW 16th Ave","29.66848987","-82.37231785","NW 34th St","NW 16th Ave","Farside","North","Active","POINT (-82.37231785 29.66848987)"
"282","2019-11-07T00:00:00.000","Greater Bethel African Methodist Episcopal Church","29.65639446","-82.33087253","NW 6th ST","NW 6th AVE","Farside","South","Active","POINT (-82.33087253 29.65639446)"
"26","2021-03-10T00:00:00.000","Whole Foods @ Butler Town Center","29.62560361","-82.37439434","Archer RD","SW 34th ST","Farside","West","Active","POINT (-82.37439434 29.62560361)"
"576","2019-11-20T00:00:00.000","Southbound NE 25th Street @ NE 11th Place","29.6630651","-82.29204603","NE 25th ST","NE 11th PL","Farside","South","Active","POINT (-82.29204603 29.6630651)"
"1183","2020-01-14T00:00:00.000","Cultural Plaza Park and Ride 1","29.63673627","-82.36795351","Hull RD","Bledsoe DR","Farside","East","Active","POINT (-82.36795351 29.63673627)"
"63","2021-07-02T00:00:00.000","Norwood Neighborhood","29.63624575","-82.31726257","SE 4th ST","SE 14th LN","Nearside","South","Suspended","POINT (-82.31726257 29.63624575)"
"1333","2020-02-05T00:00:00.000","Enclave 1","29.62541033","-82.36779262","SW 32nd Terrace","None","Farside","East","Active","POINT (-82.36779262 29.62541033)"
"142","2021-06-11T00:00:00.000","The Seagle Building","29.652085","-82.328769","W University AVE","W 3rd ST","Farside","West","Active","POINT (-82.328769 29.652085)"
"833","2020-07-06T00:00:00.000","Addison Lane","29.63429594","-82.3848395","SW 20th AVE","SW 40th TER","Nearside","East","Active","POINT (-82.3848395 29.63429594)"
"1428","2020-02-18T00:00:00.000","FDOT Operations Center","29.6734376","-82.2639662","NE 39th AVE","NE 52nd  ST","Nearside","North","Active","POINT (-82.2639662 29.6734376)"
"406","2021-06-08T00:00:00.000","Pineridge III","29.71133576","-82.36017484","NW 23rd TER","NW 62nd AVE","Nearside","North","Active","POINT (-82.36017484 29.71133576)"
"1049","2020-01-07T00:00:00.000","Tower Road Branch Library","29.62610332","-82.42245869","SW 75th ST","SW 24th AVE","Farside","North","Active","POINT (-82.42245869 29.62610332)"
"1196","2020-01-15T00:00:00.000","Animal Science Building","29.63158944","-82.35143001","Shealy DR","SW 16th AVE","Farside","South","Active","POINT (-82.35143001 29.63158944)"
"569","2019-11-20T00:00:00.000","Duval Elementary School","29.6591796","-82.29821669","NE 8th AVE","NE 20th ST","Farside","East","Active","POINT (-82.29821669 29.6591796)"
"1548","2020-09-16T00:00:00.000","Sam's Club Eastbound","29.62299946","-82.38345284","SW 33rd PL","SW 37th Blvd","Nearside","East","Active","POINT (-82.38345284 29.62299946)"
"452","2019-11-14T00:00:00.000","Gainesville Place Apartments @ SW 35th Place","29.61979926","-82.36474101","SW 35th PL","SW 28th TER","Nearside","West","Active","POINT (-82.36474101 29.61979926)"
"216","2019-11-06T00:00:00.000","Gainesville Police Department","29.659092","-82.330762","NW 6th ST","NW 8th AVE","Nearside","North","Active","POINT (-82.330762 29.659092)"
"336","2019-11-12T00:00:00.000","Faith Missionary Church","29.63265844","-82.28569037","SE 21st AVE","SE 30th Dr","Farside","West","Active","POINT (-82.28569037 29.63265844)"
"413","2019-11-13T00:00:00.000","Northwood Oaks Neighborhood","29.70408409","-82.36223334","NW 34th ST","NW 54th AVE","Nearside","South","Active","POINT (-82.36223334 29.70408409)"
"623","2021-06-15T00:00:00.000","Martin Luther King Center and Citizens Field","29.6593761","-82.30803611","NE 8th AVE","NE 13th ST","Nearside","West","Active","POINT (-82.30803611 29.6593761)"
"85","2021-06-11T00:00:00.000","Lincoln Estates Neighborhood","29.64024461","-82.30544869","SE 12th AVE","SE 15th ST","Farside","East","Active","POINT (-82.30544869 29.64024461)"
"442","2021-05-10T00:00:00.000","Southbound SW 13th Street @ Inner Road","29.64766494","-82.33951718","SW 13th ST","Inner RD","Nearside","South","Active","POINT (-82.33951718 29.64766494)"
"118","2021-04-23T00:00:00.000","Shands Cancer Hospital","29.63924527","-82.34271735","Archer RD","SW 16th ST","Farside","East","Active","POINT (-82.34271735 29.63924527)"
"1530","2020-09-02T00:00:00.000","Southbound NW 43rd St @ NW 44th Ave","29.6940835","-82.38903565","NW 43rd St","NW 44th Ave","Farside","South","Active","POINT (-82.38903565 29.6940835)"
"379","2018-10-31T00:00:00.000","Northbound NW 21st Avenue @ NW 33rd Avenue","29.68332198","-82.35148758","NW 21st ST","NW 33rd AVE","Nearside","North","Active","POINT (-82.35148758 29.68332198)"
"38","2021-06-16T00:00:00.000","University Commons Apartments @ Archer Road","29.63196028","-82.36199718","Archer RD","SW 23rd TER","Nearside","East","Active","POINT (-82.36199718 29.63196028)"
"323","2021-06-08T00:00:00.000","Circle K Mobil Gas @ Hawthorne Rd","29.63621577","-82.27241187","SE 43rd ST","Hawthorne RD","Farside","North","Active","POINT (-82.27241187 29.63621577)"
"669","2021-05-10T00:00:00.000","Liv+ Apartments 13th St","29.6343996","-82.339784","SW 13th ST","SW 18th PL","Nearside","South","Active","POINT (-82.339784 29.6343996)"
"1277","2020-01-28T00:00:00.000","Legacy @ Fort Clarke Apartments","29.66746594","-82.43511415","Fort Clarke BLVD","NW 15th PL","Farside","North","Active","POINT (-82.43511415 29.66746594)"
"688","2021-05-10T00:00:00.000","Tanglewood Apartments","29.62330344","-82.33934468","SW 13th ST","SW 14th DR","Nearside","North","Active","POINT (-82.33934468 29.62330344)"
"241","2019-11-07T00:00:00.000","Grace Presbyterian Church","29.68135439","-82.33920944","NW 13th ST","NW 31st AVE","Nearside","South","Active","POINT (-82.33920944 29.68135439)"
"1033","2021-06-08T00:00:00.000","SW Archer Road @ SW 50th Street","29.61213662","-82.39635156","Archer RD","SW 50th ST","Nearside","West","Active","POINT (-82.39635156 29.61213662)"
"1071","2020-06-11T00:00:00.000","The Woodlands Neighborhood","29.64260511","-82.42238316","SW 75th ST","SW 10th PL","Nearside","North","Active","POINT (-82.42238316 29.64260511)"
"261","2019-11-07T00:00:00.000","Sunshine Inn","29.691674","-82.338877","NW 13th ST","NW 42nd AVE","Nearside","North","Active","POINT (-82.338877 29.691674)"
"815","2020-07-06T00:00:00.000","Circle K SW 20th Ave Westbound","29.63573114","-82.38820978","SW 20th AVE","SW 42nd DR","Farside","West","Active","POINT (-82.38820978 29.63573114)"
"612","2019-11-20T00:00:00.000","Westbound NE 12th Avenue @ NE 24th Terrace","29.663785","-82.292497","NE 12th AVE","NE 24th TER","Nearside","West","Active","POINT (-82.292497 29.663785)"
"1466","2020-03-19T00:00:00.000","NE 18th St @ NE 8th Ave","29.65903474","-82.30159401","NE 18 ST","Ne 8th Ave","Nearside","North","Active","POINT (-82.30159401 29.65903474)"
"1539","2020-09-02T00:00:00.000","Possum Creek Park","29.702658","-82.386707","NW 41st Ter","NW 53rd Ave","Farside","North","Active","POINT (-82.386707 29.702658)"
"448","2020-06-09T00:00:00.000","Westbound SW 40th Place @ NW 26th Terrace","29.61365117","-82.3601048","SW 40th PL","SW 26th TER","Nearside","West","Active","POINT (-82.3601048 29.61365117)"
"512","2019-11-19T00:00:00.000","Northwest Baptist Church","29.67419968","-82.40228299","NW 23rd AVE","NW 55th ST","Farside","West","Active","POINT (-82.40228299 29.67419968)"
"853","2017-08-08T00:00:00.000","Northbound SE 11th Street @ SE 2nd Avenue","29.64988527","-82.31131336","SE 11th ST","SE 2nd AVE","Nearside","North","Active","POINT (-82.31131336 29.64988527)"
"316","2019-11-12T00:00:00.000","SE 35th St @ SE 21st Avenue","29.63254327","-82.2809372","SE 21st AVE","SE 35th ST","Nearside","East","Active","POINT (-82.2809372 29.63254327)"
"887","2017-08-08T00:00:00.000","BP Gas Station @ Waldo Road","29.70288246","-82.27894958","Waldo RD","NE 53rd AVE","Nearside","South","Active","POINT (-82.27894958 29.70288246)"
"370","2021-05-10T00:00:00.000","PNC Bank @ NW 13th Street","29.66848245","-82.33902418","NW 13th ST","NW 18th AVE","Farside","North","Active","POINT (-82.33902418 29.66848245)"
"681","2021-05-10T00:00:00.000","US441 South","29.60755573","-82.34214467","SW 13th ST","Williston RD","Farside","South","Active","POINT (-82.34214467 29.60755573)"
"1593","2021-04-22T00:00:00.000","Social Security Administration Northbound","29.6968215","-82.3391622","NW 13th St","NW 45th Ave","Farside","North","Active","POINT (-82.3391622 29.6968215)"
"1126","2021-06-08T00:00:00.000","Haystacks Community","29.61312134","-82.3939459","Archer RD","SW 47th TER","Nearside","East","Active","POINT (-82.3939459 29.61312134)"
"157","2021-06-11T00:00:00.000","Westgate Shopping Center","29.65229344","-82.36962801","W University AVE","NW 32nd ST","Nearside","West","Active","POINT (-82.36962801 29.65229344)"
"349","2019-11-12T00:00:00.000","Westbound E University Avenue @ NE 16th Street","29.652019","-82.304166","E University AVE","NE 16th ST","Nearside","West","Active","POINT (-82.304166 29.652019)"
"176","2021-06-11T00:00:00.000","McDonalds @ Newberry Road","29.65947","-82.407881","Newberry RD","NW 62nd ST","Farside","East","Active","POINT (-82.407881 29.65947)"
"718","2019-02-07T00:00:00.000","Northbound NE 15th Street @ NE 31st Avenue","29.68176926","-82.30572686","NE 15th ST","NE 31st AVE","Farside","North","Active","POINT (-82.30572686 29.68176926)"
"1295","2020-02-05T00:00:00.000","Stratford Court Apartments","29.646832","-82.335084","SW 10th ST","SW 6th AVE","Nearside","South","Active","POINT (-82.335084 29.646832)"
"1443","2020-02-18T00:00:00.000","North Point @ Ironwood","29.69810012","-82.30586309","NE 15th ST","NE 47th PL","Nearside","South","Active","POINT (-82.30586309 29.69810012)"
"478","2019-11-14T00:00:00.000","IFAS Lab","29.63827953","-82.35697034","Mowry RD","Hull RD","Farside","West","Active","POINT (-82.35697034 29.63827953)"
"794","2019-03-05T00:00:00.000","Sai Quick Stop","29.63637861","-82.33806602","SW 16th AVE","SW 13th ST","Farside","East","Active","POINT (-82.33806602 29.63637861)"
"1097","2020-01-07T00:00:00.000","Oaks Mall","29.6595136","-82.41387533","Newberry RD","Oaks Mall","Nearside","East","Active","POINT (-82.41387533 29.6595136)"
"129","2021-06-11T00:00:00.000","McPherson Recreation Center Southbound","29.63373294","-82.30590919","SE 15th ST","SE 22nd AVE","Nearside","South","Active","POINT (-82.30590919 29.63373294)"
"483","2019-11-19T00:00:00.000","University Club Apartments","29.62536578","-82.35634218","SW 23rd TER","SW 31 PL","Nearside","South","Active","POINT (-82.35634218 29.62536578)"
"1328","2020-02-05T00:00:00.000","Eastbound SW 7th AVE @ SW 10th ST","29.64568438","-82.33510106","SW 7th AVE","SW 10th ST","Nearside","East","Active","POINT (-82.33510106 29.64568438)"
"1477","2020-03-19T00:00:00.000","Kangaroo Station","29.68880361","-82.44220971","NW 39th Ave","NW 92nd Ct","Nearside","East","Active","POINT (-82.44220971 29.68880361)"
"1113","2020-06-15T00:00:00.000","Tower Village","29.61239305","-82.42263565","SW 75th ST","SW 45th PL","Farside","South","Active","POINT (-82.42263565 29.61239305)"
"1248","2020-01-16T00:00:00.000","Parkside II Apartments","29.642824","-82.335418","Depot AVE","SW 11th ST","Nearside","West","Active","POINT (-82.335418 29.642824)"
"676","2021-05-10T00:00:00.000","Chop Stix Cafe","29.62091311","-82.34002318","SW 13th ST","SW 14th DR","Farside","South","Active","POINT (-82.34002318 29.62091311)"
"828","2020-08-17T00:00:00.000","Rockwood Villas Apartments","29.644412","-82.399155","SW 62nd BLVD","SW 9th PL","Nearside","South","Active","POINT (-82.399155 29.644412)"
"1359","2020-02-05T00:00:00.000","Gainesville Healthcare Center","29.63738241","-82.34287485","SW 16th ST","Circle of Hope","Nearside","North","Active","POINT (-82.34287485 29.63738241)"
"1044","2020-10-07T00:00:00.000","Kanapaha Middle School","29.60702578","-82.42254033","SW 75th ST","SW 51st BLVD","Farside","North","Active","POINT (-82.42254033 29.60702578)"
"207","2021-06-11T00:00:00.000","West University Ave @ SW 1st St","29.65186166","-82.32601734","W University AVE","SW 1st ST","Nearside","East","Active","POINT (-82.32601734 29.65186166)"
"538","2019-11-20T00:00:00.000","Covenant Church","29.66666059","-82.36891011","NW 16th AVE","NW 31st TER","Nearside","East","Active","POINT (-82.36891011 29.66666059)"
"952","2020-08-26T00:00:00.000","Gainesville Place Apartments","29.62192044","-82.36515984","Gainesville Place Apartments","Gainesville Place Apartments","Farside","North","Active","POINT (-82.36515984 29.62192044)"
"402","2019-11-13T00:00:00.000","ABC Liquor Store @ NW 34th Street","29.709592","-82.354333","NW 34th ST","NW 58th AVE","Nearside","South","Active","POINT (-82.354333 29.709592)"
"92","2021-06-11T00:00:00.000","Lincoln Estates Neighborhood","29.64444194","-82.29935353","SE 19th TER","SE 8th AVE","Nearside","North","Active","POINT (-82.29935353 29.64444194)"
"869","2017-08-08T00:00:00.000","Fair View Apartments","29.66643406","-82.30408831","NE 16th AVE","NE 16th TER","Nearside","East","Active","POINT (-82.30408831 29.66643406)"
"1191","2020-08-26T00:00:00.000","Family Housing","29.63941661","-82.37065234","Family Housing","Hull RD","Farside","South","Active","POINT (-82.37065234 29.63941661)"
"957","2021-06-04T00:00:00.000","The Trails Apartments","29.6293415","-82.37241262","SW 34th ST","Windmeadows BLVD","Farside","North","Active","POINT (-82.37241262 29.6293415)"
"1006","2019-12-04T00:00:00.000","Robin Lane Neighborhood","29.688643","-82.422159","NW 39th AVE","NW 75th ST","Farside","East","Active","POINT (-82.422159 29.688643)"
"329","2021-06-08T00:00:00.000","SE 43rd St @ Hawthorne Rd","29.63622277","-82.27255904","SE 43rd ST","Hawthorne RD","Nearside","South","Active","POINT (-82.27255904 29.63622277)"
"418","2018-11-07T00:00:00.000","Southbound NW 34th Street @ NW 41st Avenue","29.6909001","-82.37238334","NW 34th ST","NW 41st AVE","Farside","South","Active","POINT (-82.37238334 29.6909001)"
"1318","2020-08-17T00:00:00.000","GRACE Marketplace","29.68357085","-82.28617224","NE 39th AVE","Waldo RD","Nearside","West","Active","POINT (-82.28617224 29.68357085)"
"1177","2020-01-14T00:00:00.000","Fifield Hall","29.63772561","-82.36002101","Hull RD","Mowry RD","Farside","West","Active","POINT (-82.36002101 29.63772561)"
"1501","2020-09-02T00:00:00.000","NE 15th St @ NE 8th Ave","29.659135","-82.305768","NE 15th St","NE 8th Ave","Nearside","North","Active","POINT (-82.305768 29.659135)"
"632","2020-08-17T00:00:00.000","Florida School of Traditional Midwifery","29.6520268","-82.3163835","E University AVE","NE 8th ST","Nearside","West","Active","POINT (-82.3163835 29.6520268)"
"1552","2020-04-02T00:00:00.000","Kangaroo Excpress @ Newberry/Tower Road","29.65958521","-82.42257182","Newberry RD","NW 75th ST","Nearside","East","Active","POINT (-82.42257182 29.65958521)"
"190","2021-06-08T00:00:00.000","The Wynwood Apartments","29.65045294","-82.37450984","SW 2nd AVE","SW 34th ST","Nearside","East","Active","POINT (-82.37450984 29.65045294)"
"1054","2021-06-08T00:00:00.000","Tower Oaks Glen Eastbound","29.63488728","-82.41419516","SW 24th AVE","SW 19th CT","Farside","East","Active","POINT (-82.41419516 29.63488728)"
"537","2019-11-20T00:00:00.000","Willowcroft Neighborhood","29.6676716","-82.37510667","NW 16th BLVD","NW 35th WAY","Farside","East","Active","POINT (-82.37510667 29.6676716)"
"135","2021-07-02T00:00:00.000","Dignity Project","29.63923444","-82.31862919","SE 4th ST","SE 11th PL","Nearside","North","Suspended","POINT (-82.31862919 29.63923444)"
"191","2021-06-11T00:00:00.000","Publix at Westgate Plaza Eastbound","29.65031217","-82.37078814","SW 2nd AVE","SW 34th ST","Farside","East","Active","POINT (-82.37078814 29.65031217)"
"909","2021-03-10T00:00:00.000","Episcopal Children's Services","29.65654393","-82.30849403","Waldo RD","NE 8th AVE","Farside","South","Active","POINT (-82.30849403 29.65654393)"
"1392","2020-08-14T00:00:00.000","Northbound NW 55th ST @ NW 9th LN","29.660929","-82.401488","NW 55th ST","NW 9th LN","Nearside","North","Inactive","POINT (-82.401488 29.660929)"
"561","2021-06-04T00:00:00.000","NE 8th Avenue @ NE 11th Street","29.6592805","-82.31152368","NE 8th AVE","NE 11th ST","Farside","East","Active","POINT (-82.31152368 29.6592805)"
"1368","2020-02-05T00:00:00.000","Westbound SE 2nd AVE @ SE 10th ST","29.6502154","-82.31322169","SE 2nd AVE","SE 10th Street","Nearside","West","Active","POINT (-82.31322169 29.6502154)"
"168","2021-06-11T00:00:00.000","Newberry Rd @ NW 8th Ave","29.6590861","-82.39916283","Newberry RD","N 8th AVE","Nearside","West","Active","POINT (-82.39916283 29.6590861)"
"360","2021-05-10T00:00:00.000","Norman Field","29.64542832","-82.33920502","SW 13th ST","SW 8th AVE","Farside","North","Active","POINT (-82.33920502 29.64542832)"
"588","2021-06-08T00:00:00.000","Morningside Nature Center Eastbound","29.6517731","-82.28011987","E University AVE","SE SE 38th ST","Nearside","East","Active","POINT (-82.28011987 29.6517731)"
"2","2019-10-29T00:00:00.000","Hampton Inn Hotel","29.65034625","-82.32380428","SE 2nd AVE","SE 1st ST","Nearside","West","Active","POINT (-82.32380428 29.65034625)"
"1534","2020-09-02T00:00:00.000","Hunter's Crossing Apartments","29.699549","-82.3891964","NW 43rd St","NW 48th Pl","Nearside","South","Active","POINT (-82.3891964 29.699549)"
"384","2019-11-13T00:00:00.000","Girls Place of Alachua County","29.68863043","-82.35132718","NW 39th AVE","NW 21st ST","Nearside","West","Active","POINT (-82.35132718 29.68863043)"
"1153","2020-01-09T00:00:00.000","Tolbert Residence Hall","29.64774577","-82.34980435","Gale Lemerand DR","Stadium RD","Farside","South","Active","POINT (-82.34980435 29.64774577)"
"709","2020-07-06T00:00:00.000","McCoy Court Apartments","29.67283582","-82.31968416","NE 2nd ST","NE 23rd AVE","Nearside","North","Active","POINT (-82.31968416 29.67283582)"
"732","2019-11-27T00:00:00.000","Oak Gate Condominiums","29.6790414","-82.33083986","NW 6th ST","NW 29th AVE","Nearside","South","Active","POINT (-82.33083986 29.6790414)"
"438","2021-05-10T00:00:00.000","The Gate Food Store @ NW 13th Street","29.6559366","-82.33930485","NW 13th ST","NW 5th AVE","Nearside","South","Active","POINT (-82.33930485 29.6559366)"
"111","2021-06-11T00:00:00.000","SE 15th Street @ SE 4th Avenue","29.64838294","-82.30594303","SE 15th ST","SE 4th AVE","Nearside","South","Active","POINT (-82.30594303 29.64838294)"
"311","2019-11-12T00:00:00.000","Southbound SE 27th Street @ SE 15th Avenue","29.63707113","-82.28926955","SE 27th ST","SE 15th AVE","Farside","South","Active","POINT (-82.28926955 29.63707113)"
"433","2018-11-07T00:00:00.000","Brookwood Terrace","29.67648476","-82.34804918","NW 23rd BLVD","NW 16th TER","Farside","East","Active","POINT (-82.34804918 29.67648476)"
"1503","2020-03-24T00:00:00.000","Southbound Metcalfe Elementary School","29.66845669","-82.3058838","NE 15th St","NE 18th Ave","Nearside","South","Active","POINT (-82.3058838 29.66845669)"
"417","2018-11-07T00:00:00.000","Capri Neighborhood","29.69458176","-82.37236967","NW 34th ST","NW 44th PL","Farside","South","Active","POINT (-82.37236967 29.69458176)"
"342","2020-10-07T00:00:00.000","Alachua County Sheriffs Department","29.64403873","-82.29137521","Hawthorne RD","SE 25th TER","Farside","West","Active","POINT (-82.29137521 29.64403873)"
"630","2019-11-20T00:00:00.000","Southbound NE 9th Street @ NE 3rd Avenue","29.65409046","-82.31481333","NE 9th ST","NE 3rd AVE","Nearside","South","Active","POINT (-82.31481333 29.65409046)"
"8","2019-10-29T00:00:00.000","Courtyard Apartments","29.64957427","-82.33717885","SW 12th ST","SW 2nd AVE","Nearside","South","Active","POINT (-82.33717885 29.64957427)"
"1273","2021-01-27T00:00:00.000","Kensington Apartments @ SW 38th Terrace","29.6340858","-82.3810012","SW 38th TER","SW 20th AVE","Nearside","North","Active","POINT (-82.3810012 29.6340858)"
"365","2021-06-08T00:00:00.000","Sweetberries Eatery","29.65620294","-82.33911285","NW 13th ST","NW 5th AVE","Farside","North","Active","POINT (-82.33911285 29.65620294)"
"90","2021-06-11T00:00:00.000","SE 19th Ter @ SE 10th Pl","29.64174863","-82.29932598","SE 19th TER","SE 10th PL","Nearside","North","Active","POINT (-82.29932598 29.64174863)"
"517","2019-11-19T00:00:00.000","Shenandoah Neighborhood","29.67421128","-82.42504857","NW 23rd AVE","NW 77th TER","Nearside","West","Active","POINT (-82.42504857 29.67421128)"
"171","2020-07-06T00:00:00.000","Oaks Mall @ NW 62nd ST","29.65687","-82.408976","NW 62nd ST","NW 4th PL",,"South","Active","POINT (-82.408976 29.65687)"
"715","2019-02-07T00:00:00.000","Smokey Bear Park","29.6744987","-82.30576321","NE 15th ST","NE 23rd AVE","Farside","North","Active","POINT (-82.30576321 29.6744987)"
"1302","2020-06-09T00:00:00.000","Greenwich Green Apartments","29.61770161","-82.37470051","SW 39th BLVD","SW 34th ST","Nearside","West","Active","POINT (-82.37470051 29.61770161)"
"602","2021-06-08T00:00:00.000","Pine Meadows Community","29.6519906","-82.28987786","E University AVE","NE 26th TER","Nearside","West","Active","POINT (-82.28987786 29.6519906)"
"939","2019-12-04T00:00:00.000","Orthopaedics and Sports Medicine Institute","29.63788461","-82.37266767","SW 34th ST","Hull RD","Nearside","South","Active","POINT (-82.37266767 29.63788461)"
"389","2019-11-13T00:00:00.000","Westbound NW 39th Avenue @ NW 31st Street","29.68872961","-82.36860264","NW 39th AVE","NW 31st TER","Nearside","West","Active","POINT (-82.36860264 29.68872961)"
"735","2019-11-27T00:00:00.000","Renas Let's Dance","29.6740139","-82.33220089","NW 23rd AVE","NW 6th ST","Farside","West","Active","POINT (-82.33220089 29.6740139)"
"910","2020-07-06T00:00:00.000","UF Health Family Medicine Eastside","29.65502911","-82.30949489","Waldo RD","NE 5th AVE","Farside","South","Active","POINT (-82.30949489 29.65502911)"
"754","2020-07-06T00:00:00.000","NE 23rd Ave Farside NE 14th St Westbound","29.67389393","-82.30806669","NE 23rd AVE","NE 14th ST","Farside","West","Active","POINT (-82.30806669 29.67389393)"
"1078","2021-02-03T00:00:00.000","Gordon Manor Neighborhood","29.6453553","-82.4147603","SW 8th Ave","SW 67th Ter","Farside","West","Active","POINT (-82.4147603 29.6453553)"
"1278","2020-01-28T00:00:00.000","Northbound Fort Clarke Boulevard @ Eagle Point","29.66885983","-82.43690493","Fort Clarke BLVD","NW 17th PL","Nearside","North","Active","POINT (-82.43690493 29.66885983)"
"131","2021-06-11T00:00:00.000","SE 22nd Avenue @ SE 13th Street","29.63186409","-82.30857958","SE 22nd AVE","SE 13th ST","Nearside","West","Active","POINT (-82.30857958 29.63186409)"
"304","2019-11-12T00:00:00.000","Eastbound University Avenue @ SE 21st Street","29.65179927","-82.29772353","E University AVE","SE 21st ST","Nearside","East","Active","POINT (-82.29772353 29.65179927)"
"1039","2020-01-07T00:00:00.000","Kanapaha Station Plaza","29.60343675","-82.41295365","Archer RD","SW 66th ST","Nearside","West","Active","POINT (-82.41295365 29.60343675)"
"1101","2020-01-08T00:00:00.000","Tower Plaza","29.65816185","-82.42250356","NW 75th ST","Newberry RD","Farside","South","Active","POINT (-82.42250356 29.65816185)"
"518","2019-11-19T00:00:00.000","Santa Fe College @ NW 83rd Street","29.67524293","-82.43010849","NW 83rd ST","NW 23rd AVE","Farside","North","Active","POINT (-82.43010849 29.67524293)"
"327","2021-06-08T00:00:00.000","Verdant Cove Apartments","29.64218627","-82.2725472","SE 43rd ST","SE 10th PL","Nearside","South","Active","POINT (-82.2725472 29.64218627)"
"502","2019-11-19T00:00:00.000","Zion Evangelical Lutheran Church","29.66709243","-82.37335737","NW 16th BLVD","NW 34th ST","Farside","West","Active","POINT (-82.37335737 29.66709243)"
"740","2020-07-06T00:00:00.000","Stephen Foster Elementary School @ 39th Ave","29.68842759","-82.33178468","NW 39th AVE","NW 7th ST","Nearside","East","Active","POINT (-82.33178468 29.68842759)"
"152","2019-10-31T00:00:00.000","Hillel at the University of Florida","29.6521776","-82.35020785","W University AVE","NW 20th DR","Farside","West","Active","POINT (-82.35020785 29.6521776)"
"1496","2020-10-07T00:00:00.000","Family Dollar Shopping Center","29.64596615","-82.29514404","SE Hawthorne Rd","SE 24th St","Farside","West","Active","POINT (-82.29514404 29.64596615)"
"985","2019-12-04T00:00:00.000","Thorn Brook Shops","29.67506201","-82.38885485","NW 43rd ST","NW 16th BLVD","Farside","North","Active","POINT (-82.38885485 29.67506201)"
"1473","2021-06-02T00:00:00.000","SW 2nd Ave Fire Station","29.65112802","-82.3770207","SW 2nd Ave","SW 36th St","Farside","West","Active","POINT (-82.3770207 29.65112802)"
"1084","2020-01-07T00:00:00.000","Reflections Apartments","29.65071116","-82.42226733","SW 75th ST","SW 1st PL","Nearside","North","Active","POINT (-82.42226733 29.65071116)"
"1484","2020-09-02T00:00:00.000","Varsity House Apartments @ SW 38th Ter","29.636435","-82.380731","SW 38th TER","Hull RD","Nearside","North","Active","POINT (-82.380731 29.636435)"
"462","2019-11-14T00:00:00.000","University of Florida Energy Research","29.62806161","-82.35935034","SW 23rd TER","SW Archer RD","Nearside","North","Active","POINT (-82.35935034 29.62806161)"
"1254","2020-01-16T00:00:00.000","Gator Corner Dining Facility @ Gale Lemerand","29.64816727","-82.34961785","Gale Lemerand DR","Stadium RD","Nearside","North","Active","POINT (-82.34961785 29.64816727)"
"1319","2021-04-21T00:00:00.000","Gainesville Regional Airport Outbound","29.67896676","-82.2766162","Airport Access RD","NE 39th AVE","Nearside","West","Active","POINT (-82.2766162 29.67896676)"
"1221","2020-01-15T00:00:00.000","Eastbound NW 23rd Avenue @ NW 13th Street","29.67389077","-82.33804002","NW 23rd AVE","NW 13th ST","Farside","East","Active","POINT (-82.33804002 29.67389077)"
"1018","2020-07-06T00:00:00.000","CVS @ Millhopper","29.67491241","-82.38909898","NW 43rd ST","NW 23rd AVE","Nearside","South","Active","POINT (-82.38909898 29.67491241)"
"1521","2020-09-02T00:00:00.000","Northbound NW 34th St @ NW 26th Ave","29.6762061","-82.37224992","NW 34th St","NW 26th Ave","Nearside","North","Active","POINT (-82.37224992 29.6762061)"
"1117","2020-10-07T00:00:00.000","Tower Square @ SW 75th Street","29.60064031","-82.42148124","SW 75th ST","SW 58th PL","Farside","South","Active","POINT (-82.42148124 29.60064031)"
"1444","2021-05-28T00:00:00.000","Alight Gainesville Apartments @ NW 12th St","29.65797763","-82.33714947","NW 12th ST","NW 7th AVE","Nearside","South","Active","POINT (-82.33714947 29.65797763)"
"1058","2020-01-07T00:00:00.000","Shell Rock Villas Neighborhood","29.64458307","-82.40916671","SW 61st ST","SW 8th PL","Nearside","North","Active","POINT (-82.40916671 29.64458307)"
"1468","2020-03-19T00:00:00.000","Gainesville Scooter","29.664849","-82.326118","NW 14th Ave","N Main Street","Farside","West","Active","POINT (-82.326118 29.664849)"
"1314","2020-02-05T00:00:00.000","Bed and Breakfast District","29.65032694","-82.31871036","SE 2nd AVE","SE 7th ST","Farside","West","Active","POINT (-82.31871036 29.65032694)"
"427","2018-11-07T00:00:00.000","Altrusa House of Gainesville","29.68577276","-82.34953668","NW 36th AVE","NW 20th ST","Farside","West","Active","POINT (-82.34953668 29.68577276)"
"378","2021-06-08T00:00:00.000","NW 21st St @ 31st Ave","29.68161008","-82.35150409","NW 21st ST","NW 31st ST","Farside","North","Active","POINT (-82.35150409 29.68161008)"
"1556","2020-06-23T00:00:00.000","The Ridge @ SW 38th Ter Southbound","29.631231","-82.380975","SW 38th TER","SW 24th AVE","Nearside","South","Active","POINT (-82.380975 29.631231)"
"1170","2020-01-14T00:00:00.000","Pine Ridge Apartments","29.70629198","-82.35698748","NW 34th ST","NW 23rd TER","Nearside","North","Active","POINT (-82.35698748 29.70629198)"
"479","2019-11-18T00:00:00.000","Campus Edge Condominiums","29.63704951","-82.35891682","SW 23rd DR","Hull RD","Farside","South","Active","POINT (-82.35891682 29.63704951)"
"37","2020-06-09T00:00:00.000","Brandywine Apartments","29.63036821","-82.36536649","Archer RD","Surge Area DR","Farside","East","Active","POINT (-82.36536649 29.63036821)"
"51","2021-07-02T00:00:00.000","Camden Court Apartments","29.64970077","-82.33704802","SW 12th ST","SW 2th AVE","Nearside","North","Suspended","POINT (-82.33704802 29.64970077)"
"823","2019-11-27T00:00:00.000","Hampton Oaks Apartments","29.65241577","-82.40879566","SW 62nd BLVD","NW 1st PL","Nearside","North","Active","POINT (-82.40879566 29.65241577)"
"237","2019-11-06T00:00:00.000","Sandy's Boutique","29.69198809","-82.33915695","NW 13th ST","NW 42nd AVE","Farside","South","Active","POINT (-82.33915695 29.69198809)"
"1112","2021-06-08T00:00:00.000","Veterans Memorial Park","29.61553949","-82.42262195","SW 75th ST","SW 42nd AVE","Farside","South","Active","POINT (-82.42262195 29.61553949)"
"774","2019-02-28T00:00:00.000","Treehouse Village Apartments","29.63272711","-82.32607719","SE 16th AVE","S Main ST","Farside","East","Active","POINT (-82.32607719 29.63272711)"
"532","2019-11-20T00:00:00.000","Floral Expressions","29.6739751","-82.390177","NW 23rd AVE","NW 43rd ST","Nearside","East","Active","POINT (-82.390177 29.6739751)"
"422","2019-11-13T00:00:00.000","Uptown Village Apartments","29.68841093","-82.35714034","NW 39th AVE","NW 24th BLVD","Farside","East","Active","POINT (-82.35714034 29.68841093)"
"107","2021-06-11T00:00:00.000","Alachua County Health Department","29.6490856","-82.2949412","Alachua County Health Department","SE 24th ST","Farside","South","Active","POINT (-82.2949412 29.6490856)"
"581","2019-11-20T00:00:00.000","Southbound NE 25th Street @ NE 3rd Place","29.6543946","-82.29240753","NE 25th ST","NE 3rd PL","Nearside","South","Active","POINT (-82.29240753 29.6543946)"
"291","2021-03-10T00:00:00.000","Eastbound SE Depot Avenue @ SE 7th Street","29.645606","-82.318141","SE Depot AVE","SE 8th ST","Nearside","East","Active","POINT (-82.318141 29.645606)"
"556","2021-06-04T00:00:00.000","NE 9th Street @ E University Avenue","29.65240177","-82.31465786","NE 9th ST","E University AVE","Farside","North","Active","POINT (-82.31465786 29.65240177)"
"958","2021-06-04T00:00:00.000","34th Street Plaza Northbound","29.63155861","-82.37240934","SW 34th ST","SW 20th AVE","Nearside","North","Active","POINT (-82.37240934 29.63155861)"
"864","2017-08-08T00:00:00.000","Northbound NE 9th Street @ NE 14th Avenue","29.66488793","-82.31469752","NE 9th ST","NE 14th AVE","Farside","North","Active","POINT (-82.31469752 29.66488793)"
"589","2021-05-10T00:00:00.000","Eastside Plaza","29.6517471","-82.27676787","E University AVE","SE 39th ST","Nearside","East","Active","POINT (-82.27676787 29.6517471)"
"395","2018-11-06T00:00:00.000","YMCA @ NW 34th Street","29.70190693","-82.36686251","NW 34th ST","NW 30th TER","Farside","North","Active","POINT (-82.36686251 29.70190693)"
"1069","2021-06-08T00:00:00.000","Sunrise Subdivision","29.63549478","-82.42240916","SW 75th ST","SW 19th PL","Farside","North","Active","POINT (-82.42240916 29.63549478)"
"27","2021-03-10T00:00:00.000","Chili's Grill and Bar @ Butler Plaza","29.62378176","-82.37608714","Archer RD","SW 35th BLVD","Nearside","West","Active","POINT (-82.37608714 29.62378176)"
"196","2019-11-06T00:00:00.000","Pressly Stadium","29.6504461","-82.35543068","SW 2nd AVE","Woodlawn DR","Farside","East","Active","POINT (-82.35543068 29.6504461)"
"242","2019-11-07T00:00:00.000","McDonald's @ NW 13th Street","29.6794232","-82.33922241","NW 13th ST","NW 29th AVE","Nearside","South","Active","POINT (-82.33922241 29.6794232)"
"1106","2020-10-07T00:00:00.000","The Woodlands Neighborhood","29.642743","-82.422518","SW 75th ST","SW 10th PL","Farside","South","Active","POINT (-82.422518 29.642743)"
"1001","2019-12-04T00:00:00.000","Santa Fe College @ NW 83rd Street","29.68070888","-82.43039198","NW 83rd ST","Administration RD","Nearside","South","Active","POINT (-82.43039198 29.68070888)"
"43","2021-07-02T00:00:00.000","Center Dr @ Museum Rd","29.64436011","-82.34685268","Center DR","Museum RD","Nearside","North","Suspended","POINT (-82.34685268 29.64436011)"
"140","2019-10-31T00:00:00.000","Alachua County Office of the State Attorney","29.65205724","-82.32640771","W University AVE","NW 2nd ST","Nearside","West","Active","POINT (-82.32640771 29.65205724)"
"1269","2020-01-16T00:00:00.000","Archer Court Apartments","29.62941028","-82.36710018","Old Archer RD","SW 28th Pl","Nearside","West","Active","POINT (-82.36710018 29.62941028)"
"660","2019-11-21T00:00:00.000","Shands Hospital @ Helipad","29.63550244","-82.35124418","Shealy DR","SW 16TH AVE","Farside","West","Active","POINT (-82.35124418 29.63550244)"
"337","2018-10-29T00:00:00.000","Lana's Place","29.63269744","-82.2890722","SE 21st AVE","SE 27th ST","Nearside","West","Active","POINT (-82.2890722 29.63269744)"
"1150","2020-01-09T00:00:00.000","Criser Hall","29.64985429","-82.34175926","Union RD","SW 13th ST","Nearside","West","Active","POINT (-82.34175926 29.64985429)"
"784","2019-02-28T00:00:00.000","Southbound Williston Road @ SE 1st Terrace","29.63414577","-82.31912336","Williston RD","SE 1st TER","Nearside","South","Active","POINT (-82.31912336 29.63414577)"
"680","2021-05-10T00:00:00.000","Bridge House","29.61141878","-82.34148502","SW 13th ST","SW 45th LN","Nearside","South","Active","POINT (-82.34148502 29.61141878)"
"1457","2020-02-19T00:00:00.000","Physical Plant Radio Road","29.64231286","-82.37073272","Radio RD","SW 34 ST","Nearside","West","Active","POINT (-82.37073272 29.64231286)"
"369","2021-05-10T00:00:00.000","CVS @ NW 13th Street","29.66640027","-82.33904452","NW 13th ST","NW 16th AVE","Nearside","North","Active","POINT (-82.33904452 29.66640027)"
"297","2019-11-12T00:00:00.000","Eastbound SE 7th Avenue @ SE 15th Street","29.64572377","-82.30601469","SE 7th AVE","SE 15th ST","Nearside","East","Active","POINT (-82.30601469 29.64572377)"
"495","2019-11-19T00:00:00.000","Westbound NW 16th Avenue @ NW 20th Way","29.666823","-82.349721","NW 16th AVE","NW 20th WAY","Nearside","West","Active","POINT (-82.349721 29.666823)"
"99","2020-09-16T00:00:00.000","SE Hawthorne Rd @ SE 21st St Eastbound","29.6469971","-82.2977727","Hawthorne RD","SE 21st ST","Nearside","East","Active","POINT (-82.2977727 29.6469971)"
"856","2020-07-06T00:00:00.000","UF Health Family Medicine Eastside (across)","29.65501537","-82.30927575","Waldo RD","NE 5th AVE","Farside","North","Active","POINT (-82.30927575 29.65501537)"
"1193","2020-01-14T00:00:00.000","Rawlings Hall","29.64660765","-82.34357212","Newell DR","McCarty DR","Nearside","South","Active","POINT (-82.34357212 29.64660765)"
"1156","2020-01-09T00:00:00.000","Windmeadows Apartments","29.6274583","-82.37816707","Windmeadows BLVD","SW 35th ST","Nearside","West","Active","POINT (-82.37816707 29.6274583)"
"597","2021-06-08T00:00:00.000","Sunrise Food Mart @ SE 43rd St Northbound","29.65097027","-82.2723612","SE 43rd ST","E University AVE","Nearside","North","Active","POINT (-82.2723612 29.65097027)"
"146","2019-10-31T00:00:00.000","Holiday Inn @ W University Avenue","29.652163","-82.338924","W University AVE","SW 13th ST","Farside","West","Active","POINT (-82.338924 29.652163)"
"456","2019-11-14T00:00:00.000","Arbor Park Apartments","29.61996578","-82.35881801","SW 35th PL","SW 27th TER","Nearside","East","Active","POINT (-82.35881801 29.61996578)"
"917","2019-12-04T00:00:00.000","Westbound SE 4th Avenue @ SE 8th Street","29.64827988","-82.31635951","SE 4th AVE","SE 8th ST","Nearside","West","Active","POINT (-82.31635951 29.64827988)"
"804","2019-11-27T00:00:00.000","Family Housing","29.64110603","-82.36936099","Bledsoe DR","Radio RD","Farside","South","Active","POINT (-82.36936099 29.64110603)"
"726","2020-06-12T00:00:00.000","Bella Vista Village","29.6885893","-82.32541806","NW 39th AVE","NW 1st TER","Nearside","West","Active","POINT (-82.32541806 29.6885893)"
"1122","2021-06-08T00:00:00.000","Westgate Manor Eastbound","29.60701778","-82.40561283","Archer RD","SW 51st LN","Farside","East","Active","POINT (-82.40561283 29.60701778)"
"1214","2020-01-15T00:00:00.000","Corry Village","29.64761044","-82.36005034","Village DR","W Fraternity Row","Nearside","North","Active","POINT (-82.36005034 29.64761044)"
"645","2020-06-09T00:00:00.000","University Town Center","29.62401594","-82.37227067","SW 34th ST","Archer RD","Nearside","North","Active","POINT (-82.37227067 29.62401594)"
"689","2021-05-10T00:00:00.000","Boardwalk Apartments","29.62653511","-82.33919952","SW 13th ST","SW 14th DR","Farside","North","Active","POINT (-82.33919952 29.62653511)"
"1509","2020-09-02T00:00:00.000","Loblolly Woods South Entrance","29.65516593","-82.3723512","NW 34th St","NW 5th Ave","Nearside","North","Active","POINT (-82.3723512 29.65516593)"
"1452","2020-02-19T00:00:00.000","Campus Walk @ SW 9th St","29.64510333","-82.33370177","SW 9th ST","SW 8th AV","Nearside","South","Active","POINT (-82.33370177 29.64510333)"
"1034","2020-10-07T00:00:00.000","Madison Cove Apartments","29.6094767","-82.40145213","Archer RD","SW 56th TER","Nearside","West","Active","POINT (-82.40145213 29.6094767)"
"946","2019-12-04T00:00:00.000","Victoria Station Apartments","29.62084845","-82.36842368","SW 35th PL","SW 32nd TER","Farside","East","Active","POINT (-82.36842368 29.62084845)"
"759","2019-11-27T00:00:00.000","Pine Grove Apartments","29.67009777","-82.32138135","NE 2nd ST","NE 21st LN","Farside","South","Active","POINT (-82.32138135 29.67009777)"
"1568","2021-07-02T00:00:00.000","Wildflower Apartments","29.64046141","-82.33912376","SW 13th St","SW 11th Ave","Farside","North","Suspended","POINT (-82.33912376 29.64046141)"
"980","2020-10-07T00:00:00.000","NW 14th Place @ NW 43rd Street","29.66538784","-82.38892077","NW 43rd ST","NW 14th PL","Nearside","North","Active","POINT (-82.38892077 29.66538784)"
"636","2019-11-20T00:00:00.000","Greenwich Green Apartments","29.61756878","-82.37463434","SW 37th BLVD","SW 34th ST","Nearside","East","Active","POINT (-82.37463434 29.61756878)"
"1140","2020-01-09T00:00:00.000","Southbound SW 27th Street @ SW 35th Place","29.61930232","-82.36289011","SW 27th ST","SW 35th PL","Farside","South","Active","POINT (-82.36289011 29.61930232)"
"451","2020-06-09T00:00:00.000","Lexington Crossing Apartments","29.61621425","-82.36244382","SW 27th ST","SW 38th PL","Farside","North","Active","POINT (-82.36244382 29.61621425)"
"1343","2021-05-10T00:00:00.000","Northside Park and Senior Recreation Center","29.70792312","-82.35445424","NW 34th ST","NW 58th AVE","Farside","South","Active","POINT (-82.35445424 29.70792312)"
"1427","2020-02-18T00:00:00.000","Holy Faith Catholic Church","29.65840807","-82.38917748","NW 43rd ST","NW 8th AVE","Nearside","North","Active","POINT (-82.38917748 29.65840807)"
"407","2020-09-16T00:00:00.000","Hampton Court Apartments","29.71433592","-82.36013868","NW 23rd TER","NW 65th PL","Nearside","North","Active","POINT (-82.36013868 29.71433592)"
"332","2019-11-12T00:00:00.000","Southbound SE 35th Street @ SE 16th Avenue","29.63663644","-82.2808427","SE 35th ST","SE 16th AVE","Nearside","South","Active","POINT (-82.2808427 29.63663644)"
"1536","2020-09-16T00:00:00.000","Southbound NW 34th St @ NW 30th Pl","29.68070534","-82.37244534","NW 34th St","NW 30th Pl","Farside","South","Active","POINT (-82.37244534 29.68070534)"
"723","2019-11-27T00:00:00.000","Highland Court","29.68850162","-82.31090454","NE 39th AVE","NE 11th TER","Nearside","West","Active","POINT (-82.31090454 29.68850162)"
"1014","2019-12-04T00:00:00.000","Allstate Insurance","29.68773143","-82.38907083","NW 43rd ST","NW 37th PL","Nearside","South","Active","POINT (-82.38907083 29.68773143)"
"798","2019-11-27T00:00:00.000","Sigma Alpha Epsilon","29.64497411","-82.35529526","Museum RD","Woodlawn DR","Nearside","West","Active","POINT (-82.35529526 29.64497411)"
"963","2019-12-04T00:00:00.000","Keys Residential Complex","29.64820944","-82.35300968","Stadium RD","Woodlawn DR","Nearside","East","Active","POINT (-82.35300968 29.64820944)"
"1519","2020-09-02T00:00:00.000","Northbound NW 34th St @ NW 21st Pl","29.67202866","-82.37227906","NW 34th St","NW 24th Ave","Nearside","North","Active","POINT (-82.37227906 29.67202866)"
"1187","2020-01-14T00:00:00.000","Microbiology/Cell Science Building","29.64035567","-82.36422788","Museum RD","Radio RD","Nearside","South","Active","POINT (-82.36422788 29.64035567)"
"443","2021-05-10T00:00:00.000","Southbound SW 13th Street @ Museum Road","29.64506844","-82.33942752","SW 13th ST","Museum RD","Nearside","South","Active","POINT (-82.33942752 29.64506844)"
"893","2017-08-08T00:00:00.000","Bertie Heating & Air","29.67372756","-82.30323922","NE 23rd AVE","NE 17th TER","Nearside","East","Active","POINT (-82.30323922 29.67372756)"
"1308","2020-02-05T00:00:00.000","US Post Office @ SW 34th Street","29.61099539","-82.3718525","SW 34th ST","SW 47th AVE","Nearside","South","Active","POINT (-82.3718525 29.61099539)"
"1440","2020-02-18T00:00:00.000","Mt. Olive Primitive Baptist Church","29.65586079","-82.30591261","NE 15th ST","NE 5th PL","Farside","South","Active","POINT (-82.30591261 29.65586079)"
"221","2019-11-06T00:00:00.000","Sixth Street Plaza","29.66852422","-82.33075901","NW 6th ST","NW 19th AVE","Nearside","North","Active","POINT (-82.33075901 29.66852422)"
"845","2021-06-04T00:00:00.000","Lakeside Residential Complex","29.64219911","-82.36609918","Radio RD","Museum RD","Nearside","East","Active","POINT (-82.36609918 29.64219911)"
"1554","2020-09-01T00:00:00.000","Pod @ Plaza Blvd Westbound","29.62790999","-82.38335998","Plaza BLVD","SW 62nd BLVD","Nearside","West","Active","POINT (-82.38335998 29.62790999)"
"1493","2020-09-02T00:00:00.000","Butler Plaza RTS Transfer Station","29.62515397","-82.38788979","SW 30th Pl","SW 42nd St","Farrside","West","Active","POINT (-82.38788979 29.62515397)"
"1543","2020-09-16T00:00:00.000","NW 2nd St @ NW 16th Ave Northbound","29.66631497","-82.32652704","NW 2nd St","NW 16th Ave","Nearside","North","Active","POINT (-82.32652704 29.66631497)"
"997","2020-10-07T00:00:00.000","Robin Lane Neighborhood","29.68889443","-82.42212199","NW 39th AVE","NW 75th ST","Nearside","West","Active","POINT (-82.42212199 29.68889443)"
"1358","2020-02-05T00:00:00.000","SW 16TH Avenue Building A","29.63505027","-82.34507235","SW 16th AVE","SW  16th ST","Nearside","East","Active","POINT (-82.34507235 29.63505027)"
"546","2019-11-20T00:00:00.000","Georgetown Apartments","29.6665696","-82.34039535","NW 16th AVE","NW 13th ST","Nearside","East","Active","POINT (-82.34039535 29.6665696)"
"11","2021-07-02T00:00:00.000","Norman Parking Garage","29.64512003","-82.33711925","SW 12th ST","SW 8th AVE","Nearside","South","Suspended","POINT (-82.33711925 29.64512003)"
"1526","2020-09-02T00:00:00.000","Southbound NW 34th St @ NW 37th Ave","29.68724539","-82.37241065","NW 34th St","NW 37th Ave","Nearside","South","Active","POINT (-82.37241065 29.68724539)"
"281","2019-11-07T00:00:00.000","Jon Uman Attorney","29.65988472","-82.33100268","NW 6th ST","NW 8th PL","Nearside","South","Active","POINT (-82.33100268 29.65988472)"
"1409","2020-02-11T00:00:00.000","Northbound NW 17th ST @ NW 7th AVE","29.65749348","-82.34455613","NW 17th ST","NW 7th AVE","Nearside","North","Active","POINT (-82.34455613 29.65749348)"
"526","2019-11-20T00:00:00.000","Eastbound NW 23rd Avenue @ NW 63rd Terrace","29.67412208","-82.41045292","NW 23rd AVE","NW 63rd TER","Nearside","East","Active","POINT (-82.41045292 29.67412208)"
"76","2018-10-11T00:00:00.000","Prairie View Elementary School","29.62029204","-82.30579938","SE 15th ST","SE 35th AVE","Nearside","North","Active","POINT (-82.30579938 29.62029204)"
"486","2019-11-19T00:00:00.000","Gator Place Condominiums","29.61905311","-82.35574301","SW 23rd TER","SW 35th PL","Farside","South","Active","POINT (-82.35574301 29.61905311)"
"248","2018-10-24T00:00:00.000","Gainesville High School","29.66795343","-82.33925302","NW 13th ST","NW 18th AVE","Farside","South","Active","POINT (-82.33925302 29.66795343)"
"817","2019-11-27T00:00:00.000","Cabana Beach Apartments","29.63787361","-82.39761233","SW 52 BLVD","SW 20th AVE","Nearside","East","Active","POINT (-82.39761233 29.63787361)"
"200","2019-11-06T00:00:00.000","Anderson Hall","29.65200044","-82.34201018","W University AVE","NW 15th ST","Nearside","East","Active","POINT (-82.34201018 29.65200044)"
"1181","2020-01-14T00:00:00.000","UF Orthopaedics Institute","29.637769","-82.37404","Hull RD","SW 34th ST","Farside","West","Active","POINT (-82.37404 29.637769)"
"839","2017-08-08T00:00:00.000","Florida Department Of Agriculture","29.63544611","-82.37237567","SW 34th ST","SW 20th AVE","Farside","North","Active","POINT (-82.37237567 29.63544611)"
"1064","2021-07-02T00:00:00.000","Treebecka Park Apartments","29.63935994","-82.41054966","SW 20th AVE","SW 61st ST","Farside","West","Suspended","POINT (-82.41054966 29.63935994)"
"575","2019-11-20T00:00:00.000","Eastbound NE 12th Avenue @ NE 24th Terrace","29.66369243","-82.2924432","NE 12th AVE","NE 24th TER","Farside","East","Active","POINT (-82.2924432 29.66369243)"
"1551","2020-09-01T00:00:00.000","Social Security Administration","29.6967986","-82.33916185","NW 13th ST","NW 45th AVE","Nearside","South","Active","POINT (-82.33916185 29.6967986)"
"697","2020-10-28T00:00:00.000","Masonic Temple","29.6536971","-82.32489588","N Main ST","NE 2nd AVE","Farside","North","Active","POINT (-82.32489588 29.6536971)"
"1372","2020-02-06T00:00:00.000","Newberry Rd @ NW 75th","29.65981827","-82.42127949","Newberry RD","Tower RD","Nearside","West","Active","POINT (-82.42127949 29.65981827)"
"1164","2020-01-14T00:00:00.000","Merita Bread Box","29.68146736","-82.29147611","Waldo RD","NE 31st AVE","Nearside","North","Active","POINT (-82.29147611 29.68146736)"
"161","2019-10-31T00:00:00.000","Plaza Royale","29.65270535","-82.38150522","Newberry RD","NW 36th DR","Farside","West","Active","POINT (-82.38150522 29.65270535)"
"455","2019-11-14T00:00:00.000","Casablanca East Apartments","29.61977114","-82.36151438","SW 35th PL","SW 27th TER","Farside","East","Active","POINT (-82.36151438 29.61977114)"
"664","2021-07-02T00:00:00.000","UF Health Shands North Tower","29.63983377","-82.34194935","Newell DR","SW Archer RD","Nearside","South","Suspended","POINT (-82.34194935 29.63983377)"
"373","2020-08-17T00:00:00.000","Furniture Kingdom","29.67408627","-82.34077435","NW 23rd AVE","NW 13th ST","Farside","West","Active","POINT (-82.34077435 29.67408627)"
"1201","2020-01-15T00:00:00.000","Greyhound Station","29.67395732","-82.3234416","NW 23rd AVE","N Main ST","Nearside","West","Active","POINT (-82.3234416 29.67395732)"
"1453","2021-05-10T00:00:00.000","St. Patrick Catholic Church","29.66662447","-82.31937533","NE 16th AVE","NE 2nd ST","Nearside","West","Active","POINT (-82.31937533 29.66662447)"
"1512","2020-09-02T00:00:00.000","Southbound NW 34th St @ NW 7th Ave","29.65811015","-82.37247892","NW 34th St","NW 7th Ave","Nearside","South","Active","POINT (-82.37247892 29.65811015)"
"684","2021-05-10T00:00:00.000","Residence Inn","29.61571461","-82.34047902","SW 13th ST","Williston RD","Farside","North","Active","POINT (-82.34047902 29.61571461)"
"181","2021-06-08T00:00:00.000","Millpond Neighborhood","29.6577331","-82.39592367","Newberry RD","NW 50th BLVD","Farside","East","Active","POINT (-82.39592367 29.6577331)"
"333","2019-11-12T00:00:00.000","Southbound Se 35th Street @ SE 18th Avenue","29.63479211","-82.2808637","SE 35th ST","SE 18th AVE","Farside","South","Active","POINT (-82.2808637 29.63479211)"
"467","2019-11-14T00:00:00.000","Cancer and Genetics Research","29.63876911","-82.35141085","Mowry RD","Gale Lemerand DR","Nearside","East","Active","POINT (-82.35141085 29.63876911)"
"1288","2020-02-04T00:00:00.000","Eastbound Newberry Road @ Fort Clarke Boulevard","29.66023527","-82.43220382","Newberry RD","Fort Clarke BLVD","Farside","East","Active","POINT (-82.43220382 29.66023527)"
"116","2021-07-02T00:00:00.000","Waldo Rd @ SE 7th Avenue","29.64584161","-82.31100618","SE 7th AVE","SE 11th ST","Farside","West","Active","POINT (-82.31100618 29.64584161)"
"762","2019-11-27T00:00:00.000","Midas @ N Main Street","29.66551477","-82.32459102","N Main ST","NE 16th AVE","Farside","South","Active","POINT (-82.32459102 29.66551477)"
"1026","2021-06-15T00:00:00.000","NW 43rd St @ NW 8th Ave","29.65838144","-82.38943867","NW 43rd ST","NW 8th AVE","Farside","South","Active","POINT (-82.38943867 29.65838144)"
"292","2021-03-10T00:00:00.000","The Cotton Club","29.64575381","-82.31521511","SE 7th AVE","SE 9th ST","Nearside","East","Active","POINT (-82.31521511 29.64575381)"
"743","2019-11-27T00:00:00.000","Pine Forest Homes","29.68831662","-82.32263953","NE 39th AVE","NE 2nd ST","Nearside","East","Active","POINT (-82.32263953 29.68831662)"
"927","2019-12-04T00:00:00.000","Ben Hill Griffin Stadium North End Zone","29.6510556","-82.34974301","Gale Lemerand DR","W University AVE","Farside","South","Active","POINT (-82.34974301 29.6510556)"
"1238","2020-01-15T00:00:00.000","Sorority Row @ SW 11th Street","29.64407144","-82.33568885","SW 11th ST","E Panhellenic DR","Nearside","North","Active","POINT (-82.33568885 29.64407144)"
"951","2019-12-04T00:00:00.000","Southbound SW 26th Drive @ SW 40th Place","29.61413182","-82.36121169","SW 26th DR","SW 40th PL","Nearside","South","Active","POINT (-82.36121169 29.61413182)"
"1504","2020-09-02T00:00:00.000","PPG Paints Store","29.65294813","-82.33086519","SW 6th ST","W University Ave","Nearside","South","Active","POINT (-82.33086519 29.65294813)"
"670","2021-05-10T00:00:00.000","Dollar General","29.63212594","-82.33952402","SW 13th ST","SW18th PL","Farside","South","Active","POINT (-82.33952402 29.63212594)"
"881","2017-08-08T00:00:00.000","NE 49th AVE - Brittany Estates Neighborhood","29.69949109","-82.27834355","NE 49th AVE","Waldo RD","Farside","East","Active","POINT (-82.27834355 29.69949109)"
"730","2019-11-27T00:00:00.000","Southbound NW 6th Street @ NW 32nd Place","29.6826802","-82.3308331","NW 6th ST","NW 32nd PL","Nearside","South","Active","POINT (-82.3308331 29.6826802)"
"872","2017-08-08T00:00:00.000","University of Florida Eastside Campus @ Waldo Road","29.671875","-82.29799935","Waldo RD","NE 23rd AVE","Nearside","North","Active","POINT (-82.29799935 29.671875)"
"685","2021-05-10T00:00:00.000","The Landings Apartments","29.61867278","-82.34007793","SW 13th ST","SW 36th PL","Farside","North","Active","POINT (-82.34007793 29.61867278)"
"1439","2020-02-18T00:00:00.000","Cohens Temple","29.65597636","-82.30578885","NE 15th ST","NE 5th PL","Nearside","North","Active","POINT (-82.30578885 29.65597636)"
"814","2020-06-09T00:00:00.000","Pinetree Gardens","29.63450495","-82.38520181","SW 20th AVE","SW 40th TER","Farside","West","Active","POINT (-82.38520181 29.63450495)"
"942","2019-12-04T00:00:00.000","34th Street Plaza","29.63269014","-82.37269976","SW 34th ST","SW 20th AVE","Farside","South","Active","POINT (-82.37269976 29.63269014)"
"1465","2020-03-19T00:00:00.000","NE 18th St","29.65595465","-82.30173862","NE 18 ST","NE 5th Ave","Farside","South","Active","POINT (-82.30173862 29.65595465)"
"1337","2020-02-05T00:00:00.000","Enclave 5","29.62183194","-82.36547951","Gainesville Place Apartments","Gainesville Place Apartments","Nearside","South","Active","POINT (-82.36547951 29.62183194)"
"755","2019-11-27T00:00:00.000","Highland Court Manor Neighborhood @ NE 23rd Avenue","29.67391697","-82.31115488","NE 23rd AVE","NE 11th TER","Nearside","West","Active","POINT (-82.31115488 29.67391697)"
"317","2019-11-12T00:00:00.000","Northbound SE 35th Street @ SE 20th Avenue","29.6347148","-82.280703","SE 35th ST","SE 18th AVE","Nearside","North","Active","POINT (-82.280703 29.6347148)"
"974","2020-10-07T00:00:00.000","Dollar General","29.61481845","-82.37192334","SW 34th ST","SW 42 PL","Farside","North","Active","POINT (-82.37192334 29.61481845)"
"145","2021-06-11T00:00:00.000","W University Ave @ NW 10th St","29.65214813","-82.33489666","W University AVE","NW 10th ST","Nearside","West","Active","POINT (-82.33489666 29.65214813)"
"852","2017-08-08T00:00:00.000","Triangle Club","29.64818319","-82.31267957","SE 4th AVE","11th ST","Nearside","East","Active","POINT (-82.31267957 29.64818319)"
"1135","2020-01-09T00:00:00.000","Shands Visitor Parking","29.63963673","-82.3472878","Mowry RD","Center DR","Farside","West","Active","POINT (-82.3472878 29.63963673)"
"533","2020-06-09T00:00:00.000","Millhopper Shopping Center @ NW 16th Boulevard","29.67294743","-82.38672967","NW 16th BLVD","NW 43rd ST","Nearside","East","Active","POINT (-82.38672967 29.67294743)"
"1547","2020-09-16T00:00:00.000","Sam's Club Westbound","29.6231366","-82.3835144","SW 33rd PL","SW 37th Blvd","Farside","West","Active","POINT (-82.3835144 29.6231366)"
"888","2017-08-08T00:00:00.000","Invivo Imaging","29.70306659","-82.2791107","NE 53rd AVE","Waldo RD","Farside","West","Active","POINT (-82.2791107 29.70306659)"
"1391","2020-02-11T00:00:00.000","Metrocorp Center","29.68854075","-82.38688465","NW 39th AVE","NW 40th TER","Nearside","East","Active","POINT (-82.38688465 29.68854075)"
"1529","2020-09-16T00:00:00.000","Pinewood Terrace Community","29.693571","-82.38881393","NW 43rd St","NW 44th Ave","Nearside","North","Active","POINT (-82.38881393 29.693571)"
"1364","2020-02-05T00:00:00.000","Southbound SE 19th TER @ SE 12th AVE","29.640307","-82.29988","SE 19th TER","SE 12th AVE","Nearside","South","Active","POINT (-82.29988 29.640307)"
"968","2019-12-04T00:00:00.000","Campus Lodge Apartments","29.60890011","-82.36401368","Williston RD","SW 29Th Dr","Nearside","West","Active","POINT (-82.36401368 29.60890011)"
"719","2019-02-07T00:00:00.000","Village Green Apartments","29.68344393","-82.30573036","NE 15th ST","NE 31st AVE","Farside","North","Active","POINT (-82.30573036 29.68344393)"
"1010","2019-12-04T00:00:00.000","Huntington Lakes Apartments","29.68859443","-82.40046483","NW 39th AVE","NW 53rd ST","Nearside","East","Active","POINT (-82.40046483 29.68859443)"
"1580","2020-09-16T00:00:00.000","Celebration Pointe at Regal Cinema 10","29.623121","-82.395109","SW 32nd Rd","SW 45th St","Farside","West","Active","POINT (-82.395109 29.623121)"
"898","2017-08-08T00:00:00.000","Rose Food Store","29.66655025","-82.30327515","NE 16th AVE","NE 16th WAY","Nearside","West","Active","POINT (-82.30327515 29.66655025)"
"1488","2020-09-02T00:00:00.000","New RTS Maintenance Facility South","29.63841484","-82.32576166","SE 1st St","SE 13th AVE","Nearside","South","Active","POINT (-82.32576166 29.63841484)"
"1476","2020-03-19T00:00:00.000","McDonalds","29.68904787","-82.44159272","NW 39th Ave","NW 92nd Ct","Nearside","West","Active","POINT (-82.44159272 29.68904787)"
"637","2020-06-09T00:00:00.000","Aspen Ridge Apartments","29.61839299","-82.37233827","SW 34th ST","SW 37th BLVD","Farside","North","Active","POINT (-82.37233827 29.61839299)"
"1363","2020-08-14T00:00:00.000","UF Health Parking Garage 2","29.639286","-82.34700812","Mowry DR","Center DR",,"East","Active","POINT (-82.34700812 29.639286)"
"254","2019-11-07T00:00:00.000","Big Lot on NW 13th Street","29.6751386","-82.33899035","NW 13th ST","NW 23rd AVE","Farside","North","Active","POINT (-82.33899035 29.6751386)"
"1259","2020-09-23T00:00:00.000","Exxon Gas Station @ E University Avenue","29.65196094","-82.27293445","E University AVE","SE 43rd ST","Farside","West","Active","POINT (-82.27293445 29.65196094)"
"993","2019-12-04T00:00:00.000","Huntington Lakes Apartments","29.6888296","-82.3998465","NW 39th AVE","NW 53rd ST","Farside","West","Active","POINT (-82.3998465 29.6888296)"
"16","2021-06-17T00:00:00.000","Shands Hospital @ Center Drive","29.64020161","-82.34628818","Center DR","Mowry RD","Nearside","South","Active","POINT (-82.34628818 29.64020161)"
"187","2021-06-08T00:00:00.000","SouthState Bank","29.65333277","-82.383899","Newberry RD","NW 39th RD","Nearside","East","Active","POINT (-82.383899 29.65333277)"
"1398","2020-08-14T00:00:00.000","Westbound SW 24th AVE @ SW 75th ST","29.63061711","-82.42378699","SW 24th AVE","SW 75th ST","Farside","West","Inactive","POINT (-82.42378699 29.63061711)"
"787","2019-03-05T00:00:00.000","Treehouse Village Apartments","29.63288127","-82.32594652","SE 16th AVE","S Main ST","Nearside","West","Active","POINT (-82.32594652 29.63288127)"
"55","2021-03-10T00:00:00.000","Second Avenue Center Apartments","29.650171","-82.329834","SW 2nd AVE","SW 6th ST","Farside","East","Active","POINT (-82.329834 29.650171)"
"1059","2021-06-08T00:00:00.000","Southwest Advocacy Group","29.64472461","-82.41154916","SW 64th TER","SW 8th AVE","Farside","South","Active","POINT (-82.41154916 29.64472461)"
"507","2018-11-20T00:00:00.000","Capital City Bank @ NW 16th Boulevard","29.67289052","-82.38612217","NW 16th BLVD","NW 41st ST","Nearside","West","Active","POINT (-82.38612217 29.67289052)"
"703","2019-02-07T00:00:00.000","US Post Office @ Main St","29.66387345","-82.32445589","N Main ST","NE 14th AVE","Nearside","North","Active","POINT (-82.32445589 29.66387345)"
"832","2020-07-06T00:00:00.000","Liv Apartments","29.63543861","-82.38808767","SW 20th AVE","SW 43rd ST","Farside","East","Active","POINT (-82.38808767 29.63543861)"
"192","2021-06-11T00:00:00.000","Mark Bostick Golf Course","29.65034294","-82.36742051","SW 2nd AVE","SW 30th ST","Farside","East","Active","POINT (-82.36742051 29.65034294)"
"110","2018-10-15T00:00:00.000","Veteran's Honor Center","29.64924863","-82.30417485","SE 3rd AVE","SE 17th ST","Farside","West","Active","POINT (-82.30417485 29.64924863)"
"186","2021-06-08T00:00:00.000","LifeSouth Community Blood Center @ Newberry Road","29.65429694","-82.3865545","Newberry RD","NW 39th ST","Farside","East","Active","POINT (-82.3865545 29.65429694)"
"472","2021-07-02T00:00:00.000","Rawlings Hall","29.64630777","-82.34338935","Newell DR","McCarty DR","Nearside","North","Suspended","POINT (-82.34338935 29.64630777)"
"347","2020-09-23T00:00:00.000","SE 18th St @ E University Avenue","29.652024","-82.301384","E University AVE","SE 18th ST","Nearside","West","Active","POINT (-82.301384 29.652024)"
"156","2021-06-11T00:00:00.000","W University Ave @ NW 28th St","29.6520951","-82.36439568","W University AVE","NW 28th ST","Nearside","West","Active","POINT (-82.36439568 29.6520951)"
"361","2021-05-10T00:00:00.000","Norman Hall","29.6471576","-82.33920252","SW 13th ST","SW 5th AVE","Nearside","North","Active","POINT (-82.33920252 29.6471576)"
"1077","2020-01-07T00:00:00.000","Eastbound SW 6th Place @ SW 67th Terrace","29.64660627","-82.41457849","SW 6th PL","SW 67th TER","Nearside","East","Active","POINT (-82.41457849 29.64660627)"
"3","2021-06-17T00:00:00.000","SW 2nd Avenue @ SW 2nd Street","29.650368","-82.326465","SW 2nd AVE","SW 2nd ST","Nearside","West","Active","POINT (-82.326465 29.650368)"
"1516","2020-09-02T00:00:00.000","Southbound Westwood Middle School","29.66570261","-82.37244764","NW 34th St","NW 15th Pl","Farside","South","Active","POINT (-82.37244764 29.66570261)"
"1296","2020-02-05T00:00:00.000","Ivy House Apartment","29.64503178","-82.33504168","SW 10th ST","SW 8th AVE","Nearside","South","Active","POINT (-82.33504168 29.64503178)"
"385","2019-11-13T00:00:00.000","Equilease Square","29.68861078","-82.35433399","NW 39th AVE","NW 22nd DR","Nearside","West","Active","POINT (-82.35433399 29.68861078)"
"868","2017-08-08T00:00:00.000","Michelle Garden Apartments","29.66645026","-82.30593865","NE 16th AVE","NE 15th ST","Nearside","East","Active","POINT (-82.30593865 29.66645026)"
"494","2019-11-19T00:00:00.000","Westbound NW 16th Avenue @ NW 18th Street","29.66681503","-82.34682321","NW 16th AVE","NW 18th ST","Farside","West","Active","POINT (-82.34682321 29.66681503)"
"1096","2020-10-07T00:00:00.000","Oaks Square Complex","29.65946677","-82.41602916","Newberry RD","NW 69th TER","Farside","East","Active","POINT (-82.41602916 29.65946677)"
"309","2019-11-12T00:00:00.000","Alachua County Sheriff's Office","29.64283044","-82.28944903","Hawthorne RD","SE 27th ST","Nearside","East","Active","POINT (-82.28944903 29.64283044)"
"710","2019-02-07T00:00:00.000","Pointe 23 Apartments","29.67378524","-82.31758574","NE 23rd AVE","NE 7th ST","Nearside","East","Active","POINT (-82.31758574 29.67378524)"
"437","2021-05-10T00:00:00.000","All Star Automotive","29.65777446","-82.33929047","NW 13th ST","NW 7th AVE","Nearside","South","Active","POINT (-82.33929047 29.65777446)"
"1274","2021-03-10T00:00:00.000","Krystal @ Newberry Road","29.65983612","-82.42470931","Newberry RD","NW 76th ST","Farside","West","Active","POINT (-82.42470931 29.65983612)"
"748","2020-07-06T00:00:00.000","Fearnside Family Services Center","29.68657478","-82.30584958","NE 15th ST","NE 39th AVE","Farside","South","Active","POINT (-82.30584958 29.68657478)"
"902","2017-08-08T00:00:00.000","Department of Children and Families","29.66660264","-82.3137588","NE 16th AVE","NE 9th ST","Nearside","West","Active","POINT (-82.3137588 29.66660264)"
"1043","2020-01-07T00:00:00.000","Asbury Park Apartments","29.60368778","-82.42257483","SW 75th ST","SW 53rd PL","Nearside","North","Active","POINT (-82.42257483 29.60368778)"
"1481","2020-09-02T00:00:00.000","Cancer/Genetics Research Complex","29.6381875","-82.3534949","Mowry Rd","SW 23 Dr","Farside","East","Active","POINT (-82.3534949 29.6381875)"
"539","2021-03-10T00:00:00.000","Brywood Neighborhood","29.66666427","-82.36335668","NW 16th AVE","NW 27th TER","Farside","East","Active","POINT (-82.36335668 29.66666427)"
"1460","2020-02-19T00:00:00.000","Enclave 3","29.6235224","-82.36576324","SW 32nd Terrace","Enclave Aparments","Nearside","South","Active","POINT (-82.36576324 29.6235224)"
"768","2020-07-06T00:00:00.000","Friends of the Library Alachua County","29.65604777","-82.32508802","N Main ST","NE 6th AVE","Farside","South","Active","POINT (-82.32508802 29.65604777)"
"1500","2020-03-24T00:00:00.000","NE 15th St @ NE 7th Ave","29.6578134","-82.3054478","NE 15th St","NE 7th Ave","Nearside","South","Active","POINT (-82.3054478 29.6578134)"
"935","2019-12-04T00:00:00.000","Westbound SW 2nd Avenue @ SW 30th Street","29.65048094","-82.36726918","SW 2nd AVE","SW 30th ST","Nearside","West","Active","POINT (-82.36726918 29.65048094)"
"1451","2021-05-10T00:00:00.000","Northside Shopping Center East","29.67551071","-82.32075066","Main ST","NW 23rd AVE","Nearside","South","Active","POINT (-82.32075066 29.67551071)"
"736","2019-11-27T00:00:00.000","Wesley United Methodist Church","29.67402143","-82.33483968","NW 23rd AVE","NW 10th ST","Nearside","West","Active","POINT (-82.33483968 29.67402143)"
"1315","2020-02-05T00:00:00.000","Super Wal-Mart @ Waldo Road","29.66403627","-82.30333386","Waldo RD","NE 12th AVE","Farside","North","Active","POINT (-82.30333386 29.66403627)"
"1053","2020-01-07T00:00:00.000","Infinite Energy","29.63090094","-82.41804366","SW 24th AVE","SW 70th TER","Farside","East","Active","POINT (-82.41804366 29.63090094)"
"1079","2021-06-08T00:00:00.000","Holly Heights","29.6454","-82.41691","SW 8th AVE","SW 70th TER","Nearside","West","Active","POINT (-82.41691 29.6454)"
"808","2019-11-27T00:00:00.000","Hilton University of Florida Conference Center","29.63589333","-82.37267961","SW 34th ST","SW 19th AVE","Nearside","South","Active","POINT (-82.37267961 29.63589333)"
"912","2019-12-04T00:00:00.000","Kangaroo @ Waldo Road","29.65272095","-82.3110917","Waldo RD","E University AVE","Nearside","South","Active","POINT (-82.3110917 29.65272095)"
"989","2019-12-04T00:00:00.000","Pinewood Apartments","29.68878554","-82.39034704","NW 39th AVE","NW 43rd ST","Farside","West","Active","POINT (-82.39034704 29.68878554)"
"1213","2020-06-09T00:00:00.000","Lexington Crossing Apartments","29.61353495","-82.36227118","SW 27th ST","SW 40th PL","Farside","South","Active","POINT (-82.36227118 29.61353495)"
"1279","2020-01-29T00:00:00.000","Hidden Oak Elementary School","29.67088794","-82.43899993","Fort Clarke BLVD","NW 89th DR","Farside","North","Active","POINT (-82.43899993 29.67088794)"
"1249","2021-06-02T00:00:00.000","SW Archer Rd @ SW 40th Blvd Westbound","29.6194501","-82.38241633","Archer RD","SW 40th BLVD","Nearside","West","Active","POINT (-82.38241633 29.6194501)"
"423","2019-11-13T00:00:00.000","Palmetto Woods Neighborhood","29.68838309","-82.35398801","NW 39th AVE","NW 22nd DR","Farside","East","Active","POINT (-82.35398801 29.68838309)"
"1592","2021-04-01T00:00:00.000","Pizza Hut @ Archer Road","29.6241359","-82.375356","SW Archer Rd","SW 35th Blvd","Farside","East","Active","POINT (-82.375356 29.6241359)"
"562","2019-11-20T00:00:00.000","Sunny Food Mart","29.65927105","-82.31029077","NE 8th AVE","NE 12th ST","Nearside","East","Active","POINT (-82.31029077 29.65927105)"
"1327","2020-02-05T00:00:00.000","Eastbound SW 7th AVE @ SW 12th ST","29.64570394","-82.33655681","SW 7th AVE","SW 12th ST","Farside","East","Active","POINT (-82.33655681 29.64570394)"
"1023","2020-01-07T00:00:00.000","Suburban Heights Neighborhood","29.66487982","-82.38914371","NW 43rd ST","NW 13th AVE","Nearside","South","Active","POINT (-82.38914371 29.66487982)"
"848","2017-08-08T00:00:00.000","Lake Alice Field","29.64487467","-82.35671767","Museum RD","Fraternity DR","Farside","East","Active","POINT (-82.35671767 29.64487467)"
"585","2021-06-08T00:00:00.000","East University Ave @ SE 25th Ter","29.6517862","-82.2912556","E University AVE","SE 25th TER","Farside","East","Active","POINT (-82.2912556 29.6517862)"
"716","2019-02-07T00:00:00.000","NE 28th Avenue @ NE 15th Street","29.67695043","-82.30573086","NE 15th ST","NE 28th AVE","Nearside","North","Active","POINT (-82.30573086 29.67695043)"
"590","2021-06-08T00:00:00.000","Sunrise Food Mart @ SE 43rd St","29.65091847","-82.27249329","SE 43rd ST","E University AVE","Farside","South","Active","POINT (-82.27249329 29.65091847)"
"1533","2020-09-02T00:00:00.000","Northbound NW 43rd St @ NW 48th Pl","29.69909258","-82.38878842","NW 43rd St","NW 48th Pl","Nearside","North","Active","POINT (-82.38878842 29.69909258)"
"1116","2020-01-08T00:00:00.000","Valwood Neighborhood","29.60431939","-82.42274691","SW 75th ST","SW 53rd PL","Nearside","South","Active","POINT (-82.42274691 29.60431939)"
"243","2019-11-07T00:00:00.000","Verizon Shop","29.67747443","-82.33925252","NW 13th ST","NW 26th PL","Nearside","South","Active","POINT (-82.33925252 29.67747443)"
"42","2021-07-02T00:00:00.000","Shands Hospital @ Center Drive","29.64084372","-82.34606499","Center DR","Mowry RD","Farside","North","Suspended","POINT (-82.34606499 29.64084372)"
"46","2021-07-02T00:00:00.000","Beaty Towers","29.64470561","-82.34079068","Museum RD","SW 13th ST","Nearside","East","Suspended","POINT (-82.34079068 29.64470561)"
"208","2019-11-06T00:00:00.000","Bo Diddley Community Plaza","29.65185","-82.322859","E University AVE","E 3st ST","Nearside","East","Active","POINT (-82.322859 29.65185)"
"382","2018-11-01T00:00:00.000","Ridgeview Baptist Church","29.68566226","-82.34743718","NW 36th AVE","NW 19th ST","Nearside","East","Active","POINT (-82.34743718 29.68566226)"
"61","2021-07-02T00:00:00.000","Dignity Project","29.63900398","-82.31861654","SE 4th ST","SE 10th AVE","Farside","South","Suspended","POINT (-82.31861654 29.63900398)"
"1163","2020-01-14T00:00:00.000","Sonny's Barbecue @ Waldo Road","29.67595465","-82.29522281","Waldo RD","NE 27th AVE","Nearside","North","Active","POINT (-82.29522281 29.67595465)"
"238","2019-11-06T00:00:00.000","CVS @ NW 13th Street","29.690166","-82.33919386","NW 13th ST","NW 41st AVE","Farside","South","Active","POINT (-82.33919386 29.690166)"
"1017","2020-10-07T00:00:00.000","Sunstate Insurance","29.67644934","-82.38909345","NW 43rd ST","NW 27th AVE","Nearside","South","Active","POINT (-82.38909345 29.67644934)"
"399","2019-11-13T00:00:00.000","The Home Depot @ NW 53rd Avenue","29.70316719","-82.34649429","NW 53rd AVE","NW 13th ST","Nearside","East","Active","POINT (-82.34649429 29.70316719)"
"98","2021-02-03T00:00:00.000","SE Hawthorne Rd @ SE 18th St Eastbound","29.6487849","-82.3013771","Hawthorne RD","SE 18th St","Farside","East","Active","POINT (-82.3013771 29.6487849)"
"791","2019-03-05T00:00:00.000","Oakbrook Walk Condominiums @ SW 16th Avenue","29.63656394","-82.33828968","SW 16th AVE","SW 13th ST","Nearside","West","Active","POINT (-82.33828968 29.63656394)"
"262","2021-06-02T00:00:00.000","Westgate Home Center","29.69542593","-82.33887051","NW 13th ST","NW 45th AVE","Nearside","North","Active","POINT (-82.33887051 29.69542593)"
"954","2019-12-04T00:00:00.000","Enclave Apartments","29.625581","-82.36635733","SW 28th PL","SW 28th PL","Farside","West","Active","POINT (-82.36635733 29.625581)"
"421","2019-11-13T00:00:00.000","Walnut Creek Neighborhood","29.68844093","-82.36021701","NW 39th AVE","NW 25th TER","Nearside","East","Active","POINT (-82.36021701 29.68844093)"
"23","2021-03-10T00:00:00.000","UF Surge Area Drive","29.63054044","-82.36576268","Archer RD","Surge Area DR","Nearside","West","Active","POINT (-82.36576268 29.63054044)"
"614","2019-11-20T00:00:00.000","Southbound NE 24th Street @ NE 8th Avenue","29.66245577","-82.29369686","NE 24th ST","NE 8th AVE","Nearside","South","Active","POINT (-82.29369686 29.66245577)"
"209","2019-11-06T00:00:00.000","Alachua County Courthouse","29.64953707","-82.32490139","S Main ST","SW 2nd AVE","Nearside","North","Active","POINT (-82.32490139 29.64953707)"
"511","2019-11-19T00:00:00.000","First Church of the Nazarene","29.67421543","-82.3969155","NW 23rd AVE","NW 51st ST","Nearside","West","Active","POINT (-82.3969155 29.67421543)"
"1005","2019-12-04T00:00:00.000","Springhill Professional Center","29.688391","-82.430213","NW 83rd ST","NW 39th AVE","Nearside","North","Active","POINT (-82.430213 29.688391)"
"827","2019-11-27T00:00:00.000","Lakewood Villas Apartments","29.64632639","-82.40065519","SW 62nd BLVD","SW 52ND St","Nearside","South","Active","POINT (-82.40065519 29.64632639)"
"806","2019-11-27T00:00:00.000","Southwest Recreation Center","29.6381128","-82.36936377","Bledsoe DR","Hull RD","Nearside","South","Active","POINT (-82.36936377 29.6381128)"
"1111","2020-01-08T00:00:00.000","Kenwood Neighborhood","29.62092178","-82.42260949","SW 75th ST","SW 36th AVE","Farside","South","Active","POINT (-82.42260949 29.62092178)"
"775","2020-07-06T00:00:00.000","Sweetwater on 16th Apartments","29.6309677","-82.325332","SE 16th AVE","Williston RD","Nearside","East","Active","POINT (-82.325332 29.6309677)"
"1241","2020-07-06T00:00:00.000","Newell Drive across Hub","29.648691","-82.34578","Stadium RD","Buckman DR","Farside","West","Active","POINT (-82.34578 29.648691)"
"1349","2020-08-17T00:00:00.000","Hilton Garden Inn","29.62301617","-82.38571894","SW 33rd PL","SW 42nd ST","Farside","East","Active","POINT (-82.38571894 29.62301617)"
"258","2019-11-07T00:00:00.000","Johnson & Fletcher Insurance","29.6829092","-82.3391862","NW 13th ST","NW 33rd AVE","Nearside","North","Active","POINT (-82.3391862 29.6829092)"
"579","2019-11-20T00:00:00.000","Southbound NE 25th Street @ NE 6th Avenue","29.6567046","-82.29242336","NE 25th ST","NE 6th AVE","Farside","South","Active","POINT (-82.29242336 29.6567046)"
"1412","2021-03-10T00:00:00.000","College Park @ NW 5th AVE","29.65580888","-82.34164819","NW 5th AVE","NW 15th ST","Nearside","West","Active","POINT (-82.34164819 29.65580888)"
"959","2021-06-04T00:00:00.000","Maguire Village @ SW 34th Street","29.64207044","-82.37232667","SW 34th ST","Radio RD","Nearside","North","Active","POINT (-82.37232667 29.64207044)"
"288","2019-11-07T00:00:00.000","Alachua County Courthouse","29.64943027","-82.32510752","S Main ST","SE 2nd PL","Farside","South","Active","POINT (-82.32510752 29.64943027)"
"545","2021-06-08T00:00:00.000","NW 16th Ave @ NW 18th St","29.66659613","-82.34682135","NW 16th AVE","NW 18th ST","Nearside","East","Active","POINT (-82.34682135 29.66659613)"
"1004","2020-10-07T00:00:00.000","Windsor Assisted Living","29.68579267","-82.43022521","NW 83rd ST","NW 36th AVE",,"North","Active","POINT (-82.43022521 29.68579267)"
"28","2018-10-10T00:00:00.000","Bonefish Grill Seafood Restaurant @ Butler Plaza","29.62480428","-82.37761251","SW 35th BLVD","Archer RD","Farside","West","Active","POINT (-82.37761251 29.62480428)"
"60","2021-07-02T00:00:00.000","SE 4th St @ SE 10th Ave","29.64166565","-82.31995866","SE 4th ST","SE 10th AVE","Nearside","East","Suspended","POINT (-82.31995866 29.64166565)"
"1141","2020-01-09T00:00:00.000","Wilmot Gardens","29.63938779","-82.34971485","Mowry RD","Gale Lemerand DR","Farside","East","Active","POINT (-82.34971485 29.63938779)"
"1559","2020-09-01T00:00:00.000","Clark Butler BLVD @ Plaza southbound","29.626896","-82.384952","Clark Butler BLVD","Plaza BLVD","Nearside","South","Active","POINT (-82.384952 29.626896)"
"1051","2020-10-07T00:00:00.000","Walgreens @ SW 24th Avenue","29.63045928","-82.42134133","SW 24th AVE","SW 75th ST","Farside","East","Active","POINT (-82.42134133 29.63045928)"
"408","2018-11-07T00:00:00.000","Northbound NW 23rd Terrace @ US Hwy 441","29.71513042","-82.35867584","NW 23rd TER","NW 13th ST","Nearside","North","Active","POINT (-82.35867584 29.71513042)"
"1015","2020-01-07T00:00:00.000","Southbound NW 43rd Street @ NW 33rd Court","29.684033","-82.38907333","NW 43rd ST","NW 33rd CT","Nearside","South","Active","POINT (-82.38907333 29.684033)"
"1189","2020-01-14T00:00:00.000","Corry Village","29.64777227","-82.36005001","West Fraternity DR","Village DR","Nearside","West","Active","POINT (-82.36005001 29.64777227)"
"1118","2020-10-07T00:00:00.000","Arredondo Farms","29.60028214","-82.41839532","Archer RD","SW 75th ST","Farside","East","Active","POINT (-82.41839532 29.60028214)"
"797","2019-11-27T00:00:00.000","Hume Hall","29.64495067","-82.35220232","Museum RD","Gale Lemerand DR","Farside","West","Active","POINT (-82.35220232 29.64495067)"
"981","2020-10-07T00:00:00.000","Northbound NW 43rd Street @ NW 16th Place","29.6669586","-82.388857","NW 43rd ST","NW 16th PL","Nearside","North","Active","POINT (-82.388857 29.6669586)"
"800","2019-11-27T00:00:00.000","Corry Village","29.64494161","-82.36071266","Museum RD","Village DR","Farside","South","Active","POINT (-82.36071266 29.64494161)"
"416","2018-11-07T00:00:00.000","Pizza Hut @ NW 34th Street","29.70033526","-82.37025967","NW 34th ST","NW 49th AVE","Nearside","South","Active","POINT (-82.37025967 29.70033526)"
"1320","2020-08-26T00:00:00.000","Gainesville Regional Airport","29.68608393","-82.27632037","Airport Access RD","NE 39th AVE","Farside","West","Active","POINT (-82.27632037 29.68608393)"
"89","2021-06-11T00:00:00.000","SE 12th Ave @ SE 19th Ter","29.64019944","-82.29954819","SE 12th AVE","SE 19th TER","Nearside","East","Active","POINT (-82.29954819 29.64019944)"
"172","2021-06-11T00:00:00.000","UF Health Eye Center at The Oaks","29.65438919","-82.40897317","NW 62nd ST","NW 1st PL","Farside","South","Active","POINT (-82.40897317 29.65438919)"
"1557","2020-09-01T00:00:00.000","The Ridge @ SW 38th TER Northbound","29.63162614","-82.38087486","SW 38th TER","SW 24th AVE","Farside","North","Active","POINT (-82.38087486 29.63162614)"
"403","2021-06-08T00:00:00.000","Pine Ridge Circle K Store","29.70660522","-82.35665211","NW 34th ST","NW 23rd TER","Nearside","South","Active","POINT (-82.35665211 29.70660522)"
"308","2020-09-23T00:00:00.000","Eastbound Hawthorne Road @ SE 26th Street","29.64384663","-82.29155067","Hawthorne RD","SE 26th ST","Nearside","East","Active","POINT (-82.29155067 29.64384663)"
"753","2019-11-27T00:00:00.000","Smokey Bear Park","29.6744329","-82.30591868","NE 15th ST","NE 23rd AVE","Nearside","South","Active","POINT (-82.30591868 29.6744329)"
"376","2018-10-31T00:00:00.000","Cobblestone Apartments","29.6783969","-82.3492879","NW 23rd AVE","NW 28th CIR","Nearside","West","Active","POINT (-82.3492879 29.6783969)"
"36","2021-03-10T00:00:00.000","Capstone Quarters Apartments","29.62974694","-82.36662484","Archer RD","Surge Area DR","Farside","East","Active","POINT (-82.36662484 29.62974694)"
"563","2021-06-15T00:00:00.000","Martin Luther King Center and Citizens Field","29.65926146","-82.30821333","NE 8th AVE","NE 13th ST","Farside","East","Active","POINT (-82.30821333 29.65926146)"
"878","2017-08-08T00:00:00.000","Ironwood Golf Course","29.68779109","-82.29660969","NE 39th AVE","Waldo RD","Farside","East","Active","POINT (-82.29660969 29.68779109)"
"108","2019-10-30T00:00:00.000","SE 24th Street at Hawthorne Road","29.6461483","-82.29394927","SE 24th ST","Hawthorne RD","Nearside","South","Active","POINT (-82.29394927 29.6461483)"
"531","2019-11-20T00:00:00.000","Eastbound NW 23rd Avenue @ NW 46th Street","29.67402827","-82.39244917","NW 23rd AVE","NW 46th ST","Nearside","East","Active","POINT (-82.39244917 29.67402827)"
"14","2021-07-02T00:00:00.000","Frazier Rogers Hall","29.64494092","-82.34499721","Museum RD","Newell DR","Farside","West","Suspended","POINT (-82.34499721 29.64494092)"
"617","2019-11-20T00:00:00.000","Westbound NE 8th Avenue @ NE 23nd Street","29.65928766","-82.29466556","NE 8th AVE","NE 23nd ST","Farside","West","Active","POINT (-82.29466556 29.65928766)"
"1294","2021-06-02T00:00:00.000","Deco 39 Apartments @ SW 10th St","29.64854345","-82.33509694","SW 10th ST","SW 4th AVE","Nearside","South","Active","POINT (-82.33509694 29.64854345)"
"520","2019-11-20T00:00:00.000","Santa Fe College","29.67962796","-82.43187572","Santa Fe College","Santa Fe College","Farside","West","Active","POINT (-82.43187572 29.67962796)"
"79","2018-10-11T00:00:00.000","Showers of Blessings Harvest Center","29.62863108","-82.30579476","SE 15th ST","SE 25th AVE","Nearside","North","Active","POINT (-82.30579476 29.62863108)"
"790","2021-06-04T00:00:00.000","Parklands Care Center","29.63668844","-82.33576635","SW 16th AVE","SW 10th TER","Farside","West","Active","POINT (-82.33576635 29.63668844)"
"439","2021-05-12T00:00:00.000","ABC Liquor Store @ NW 13th Street","29.65447744","-82.33935935","NW 13th ST","NW 3rd PL","Nearside","South","Active","POINT (-82.33935935 29.65447744)"
"840","2017-08-08T00:00:00.000","Hilton University of Florida Conference Center","29.63736094","-82.37235534","SW 34th ST","Hull RD","Nearside","North","Active","POINT (-82.37235534 29.63736094)"
"1068","2020-10-07T00:00:00.000","CVS Pharmacy @ SW 75th Street","29.63119994","-82.42237683","SW 75th ST","SW 24th AVE","Farside","North","Active","POINT (-82.42237683 29.63119994)"
"204","2021-06-11T00:00:00.000","Innovation Square North","29.6519681","-82.33195935","W University AVE","SW 7th ST","Nearside","East","Active","POINT (-82.33195935 29.6519681)"
"984","2020-10-07T00:00:00.000","Millhopper Square","29.67246","-82.38886392","NW 43rd ST","NW 16th BLVD","Nearside","North","Active","POINT (-82.38886392 29.67246)"
"696","2021-07-02T00:00:00.000","University Police Department","29.64427811","-82.34360852","Newell DR","Museum RD","Farside","South","Suspended","POINT (-82.34360852 29.64427811)"
"1486","2021-03-11T00:00:00.000","Campus Circle Apartments @ 38th Ter","29.63679431","-82.38096554","SW 38th TER","Hull RD","Farside","South","Active","POINT (-82.38096554 29.63679431)"
"1537","2020-04-01T00:00:00.000","Walgreens on NW 43rd Street","29.70197656","-82.38878442","NW 43rd St","NW 52nd Pl","Nearside","North","Active","POINT (-82.38878442 29.70197656)"
"67","2021-06-11T00:00:00.000","SE 22nd Avenue @ SE 13th Street","29.63179594","-82.30869253","SE 22nd AVE","SE 13th ST","Nearside","East","Active","POINT (-82.30869253 29.63179594)"
"659","2019-11-21T00:00:00.000","Shands Hospital @ Parking Garage 9","29.63598909","-82.3501354","Gale Lemerand DR","Archer RD","Farside","South","Active","POINT (-82.3501354 29.63598909)"
"1522","2020-09-02T00:00:00.000","Southbound NW 34th St @ NW 26th Pl","29.67640407","-82.37238512","NW 34th St","NW 25th Pl","Nearside","South","Active","POINT (-82.37238512 29.67640407)"
"463","2019-11-14T00:00:00.000","University Commons Apartments","29.63073048","-82.36144102","SW 23rd TER","Archer RD","Nearside","North","Active","POINT (-82.36144102 29.63073048)"
"1520","2020-09-02T00:00:00.000","Southbound NW 34th St @ NW 21st Pl","29.67256845","-82.37238885","NW 34th St","NW 21st Pl","Nearside","South","Active","POINT (-82.37238885 29.67256845)"
"346","2020-09-23T00:00:00.000","Westbound E University Avenue @ SE 21st Street","29.65202244","-82.29747919","E University AVE","SE 21st ST","Nearside","West","Active","POINT (-82.29747919 29.65202244)"
"1272","2021-06-02T00:00:00.000","SW 43rd St @ SW 24th St Southbound","29.63125011","-82.38934634","SW 43rd St","SW 24th AVE","Nearside","South","Active","POINT (-82.38934634 29.63125011)"
"1094","2021-06-08T00:00:00.000","Tower Road @ Newberry Road","29.65934227","-82.42224133","SW 75th ST","Newberry RD","Nearside","North","Active","POINT (-82.42224133 29.65934227)"
"270","2019-11-07T00:00:00.000","Santa Fe College Charles L. Blount Center","29.6555446","-82.33076652","NW 6th ST","NW 5th AVE","Nearside","North","Active","POINT (-82.33076652 29.6555446)"
"971","2019-12-04T00:00:00.000","US Post Office @ SW 34th Street","29.60899095","-82.37131384","SW 34th ST","SW 47th AVE","Nearside","North","Active","POINT (-82.37131384 29.60899095)"
"1307","2020-02-05T00:00:00.000","Alarion Bank @ 34th ST","29.6139082","-82.37217239","SW 34th ST","SW 42nd PL","Farside","South","Active","POINT (-82.37217239 29.6139082)"
"480","2019-11-18T00:00:00.000","Mt Vernon Apartments","29.63571371","-82.35890657","SW 23rd DR","Archer RD","Nearside","South","Active","POINT (-82.35890657 29.63571371)"
"746","2019-11-27T00:00:00.000","Eden Park Apartments","29.68824885","-82.30778442","NE 39th AVE","NE 14th ST","Nearside","East","Active","POINT (-82.30778442 29.68824885)"
"132","2021-06-11T00:00:00.000","SE 22nd Avenue @ SE 12th Street","29.63185461","-82.31098386","SE 22nd AVE","SE 12th ST","Farside","West","Active","POINT (-82.31098386 29.63185461)"
"236","2019-11-06T00:00:00.000","Early Learning Coalition","29.69499259","-82.33916185","NW 13th ST","NW 44th AVE","Farside","South","Active","POINT (-82.33916185 29.69499259)"
"932","2019-12-04T00:00:00.000","UF Law School","29.6504552","-82.35909502","SW 2nd AVE","SW 26th ST","Nearside","West","Active","POINT (-82.35909502 29.6504552)"
"1042","2020-10-07T00:00:00.000","Publix @ Tower Square on SW 75th Street","29.60016778","-82.42051466","SW 75th ST","Archer RD","Farside","North","Active","POINT (-82.42051466 29.60016778)"
"1356","2020-02-05T00:00:00.000","Dauer Hall","29.65035294","-82.34477852","Buckman DR","Union DR","Nearside","South","Active","POINT (-82.34477852 29.65035294)"
"830","2020-08-17T00:00:00.000","Cabana Beach Apartments","29.63951711","-82.3952695","SW 20th AVE","SW 52nd ST","Farside","East","Active","POINT (-82.3952695 29.63951711)"
"280","2019-11-07T00:00:00.000","American Auto Insurance","29.66124914","-82.33100232","NW 6th ST","NW 10th AVE","Nearside","South","Active","POINT (-82.33100232 29.66124914)"
"1237","2020-01-15T00:00:00.000","Museum Walk Apartments","29.63757","-82.374965","Hull RD","SW 34th ST","Nearside","East","Active","POINT (-82.374965 29.63757)"
"555","2021-06-04T00:00:00.000","E University Avenue @ SE 8th Street","29.65184877","-82.31631819","E University AVE","SE 8th ST","Nearside","East","Active","POINT (-82.31631819 29.65184877)"
"252","2018-10-24T00:00:00.000","Plaza Verde - NW 23rd Avenue","29.6738826","-82.34176735","NW 23rd AVE","NW 16th TER","Farside","East","Active","POINT (-82.34176735 29.6738826)"
"1123","2021-06-08T00:00:00.000","Broken Arrow Bluff","29.60815178","-82.40338933","Archer RD","SW 56th TER","Nearside","East","Active","POINT (-82.40338933 29.60815178)"
"165","2019-10-31T00:00:00.000","Orthopedic Institute","29.6564576","-82.39186017","Newberry RD","NW 43rd ST","Farside","West","Active","POINT (-82.39186017 29.6564576)"
"945","2020-06-09T00:00:00.000","Ridgemar Commons","29.62156578","-82.37041567","SW 35th PL","SW 32nd TER","Farside","East","Active","POINT (-82.37041567 29.62156578)"
"326","2020-08-17T00:00:00.000","Eastwood Meadows Community","29.64243442","-82.27147337","SE 44th ST","SE 10th PL","Farside","North","Active","POINT (-82.27147337 29.64243442)"
"394","2018-11-06T00:00:00.000","Family Dollar @ NW 34th Street","29.70075659","-82.36939001","NW 34th ST","NW 51st PL","Nearside","North","Active","POINT (-82.36939001 29.70075659)"
"1065","2021-06-08T00:00:00.000","Tower Oaks Glen","29.63480952","-82.41438111","SW 24th AVE","SW 19th CT","Farside","West","Active","POINT (-82.41438111 29.63480952)"
"1550","2020-09-01T00:00:00.000","Hotel Eleo @ SW 16th Ave Westbound","29.63645428","-82.34110522","SW 16th AVE","SW 13th St","Farside","West","Active","POINT (-82.34110522 29.63645428)"
"1420","2021-06-08T00:00:00.000","SW 13th St @ SW 14th Ave","29.63798059","-82.33942663","SW 13 ST","SW 14th AVE","Nearside","South","Active","POINT (-82.33942663 29.63798059)"
"573","2019-11-20T00:00:00.000","Northbound NE 24th Street @ NE 10th Avenue","29.6622701","-82.29360953","NE 24th ST","NE 10th AVE","Nearside","North","Active","POINT (-82.29360953 29.6622701)"
"125","2021-06-11T00:00:00.000","SE 12th Avenue @ SE 18th Terrace","29.64030198","-82.30235536","SE 12th AVE","SE 18th TER","Farside","West","Active","POINT (-82.30235536 29.64030198)"
"1474","2021-06-02T00:00:00.000","Mi Apa @ SW 2nd Ave","29.65056266","-82.37385317","SW 2nd Ave","SW 34th St","Farside","West","Active","POINT (-82.37385317 29.65056266)"
"1008","2019-12-04T00:00:00.000","Greystone Community","29.68868176","-82.40998049","NW 39th AVE","NW 63rd ST","Nearside","East","Active","POINT (-82.40998049 29.68868176)"
"514","2019-11-19T00:00:00.000","Westbound NW 23rd Avenue @ NW 63rd Terrace","29.67424043","-82.41059583","NW 23rd AVE","NW 63rd TER","Farside","West","Active","POINT (-82.41059583 29.67424043)"
"1373","2020-07-10T00:00:00.000","CVS @ SW 13th ST","29.63604026","-82.33919856","SW 13th ST","SW 16th AVE","Nearside","North","Active","POINT (-82.33919856 29.63604026)"
"1389","2020-02-11T00:00:00.000","Eastbound NW 39th AVE @ NW 37th ST","29.68852499","-82.37769863","NW 39th AVE","NW 37th ST","Farside","East","Active","POINT (-82.37769863 29.68852499)"
"338","2019-11-12T00:00:00.000","Durelle Heights Neighborhood","29.63486144","-82.2891822","SE 27th ST","SE 18th AVE","Nearside","North","Active","POINT (-82.2891822 29.63486144)"
"496","2019-11-19T00:00:00.000","Forest Ridge Neighborhood","29.66682243","-82.35256351","NW 16th AVE","NW 22nd ST","Nearside","West","Active","POINT (-82.35256351 29.66682243)"
"629","2019-11-20T00:00:00.000","Southbound NE 9th Street @ NE 5th Avenue","29.6557811","-82.31483569","NE 9th ST","NE 5th AVE","Nearside","South","Active","POINT (-82.31483569 29.6557811)"
"115","2019-10-31T00:00:00.000","Williams Elementary School","29.64583979","-82.3094919","SE 7th AVE","SE 12th TER","Nearside","West","Active","POINT (-82.3094919 29.64583979)"
"785","2019-02-28T00:00:00.000","Springhill Baptist Church","29.63254559","-82.32071974","Williston RD","SE 1st ST","Nearside","South","Active","POINT (-82.32071974 29.63254559)"
"9","2021-06-11T00:00:00.000","Campus USA Credit Union","29.64803327","-82.33715068","SW 12th ST","SW 4th AVE","Farside","South","Active","POINT (-82.33715068 29.64803327)"
"362","2021-05-10T00:00:00.000","Social 28 Apartments","29.64904","-82.339219","SW 13th ST","SW 3rd AVE","Nearside","North","Active","POINT (-82.339219 29.64904)"
"1009","2020-10-07T00:00:00.000","Faith Presbyterian Church","29.68865393","-82.40592283","NW 39th AVE","NW 63rd ST","Farside","East","Active","POINT (-82.40592283 29.68865393)"
"444","2021-05-10T00:00:00.000","University Housing Office","29.64389156","-82.33942707","SW 13th ST","Diamond RD","Nearside","South","Active","POINT (-82.33942707 29.64389156)"
"711","2020-07-06T00:00:00.000","Chelsea Apartments (across)","29.67375243","-82.31500719","NE 23rd AVE","NE 9th ST","Nearside","East","Active","POINT (-82.31500719 29.67375243)"
"1194","2021-07-02T00:00:00.000","Commuter Lot Parking Garage","29.64204094","-82.35065685","Gale Lemerand DR","Museum RD","Farside","North","Suspended","POINT (-82.35065685 29.64204094)"
"52","2021-06-11T00:00:00.000","SW 2nd Avenue @ SW 10th Street","29.65015377","-82.33540985","SW 2nd AVE","SW 10th ST","Nearside","East","Active","POINT (-82.33540985 29.65015377)"
"892","2017-08-08T00:00:00.000","One Room School","29.68988843","-82.30583802","NE 15th ST","NE 39th AVE","Nearside","South","Active","POINT (-82.30583802 29.68988843)"
"1469","2020-03-19T00:00:00.000","Eastbound University Avenue @ SW 23rd DR","29.65216845","-82.35860125","W University Ave","SW 23rd Dr","Nearside","East","Active","POINT (-82.35860125 29.65216845)"
"596","2019-11-20T00:00:00.000","Lake Forest Elementary School","29.648533","-82.2723388","SE 43rd ST","SE 4th AVE","Nearside","North","Active","POINT (-82.2723388 29.648533)"
"147","2021-06-11T00:00:00.000","Target Copy","29.6521964","-82.34083739","W University AVE","SW 14th ST","Nearside","West","Active","POINT (-82.34083739 29.6521964)"
"846","2017-08-08T00:00:00.000","Lakeside Residential Complex","29.64224077","-82.36428101","Radio RD","Museum RD","Nearside","East","Active","POINT (-82.36428101 29.64224077)"
"428","2018-11-07T00:00:00.000","Southbound NW 21st Street @ NW 36th Avenue","29.68524001","-82.35155702","NW 21st ST","NW 36th AVE","Farside","South","Active","POINT (-82.35155702 29.68524001)"
"1555","2020-09-01T00:00:00.000","Pod @ Plaza Blvd Eastbound","29.62766031","-82.38312395","Plaza BLVD","SW 62nd BLVD","Farside","East","Active","POINT (-82.38312395 29.62766031)"
"390","2019-11-13T00:00:00.000","Westbound NW 39th Avenue @ NW 34th Street","29.68875974","-82.3715794","NW 39th AVE","NW 34th ST","Nearside","West","Active","POINT (-82.3715794 29.68875974)"
"313","2021-03-10T00:00:00.000","Lana's Place","29.63258877","-82.28808153","SE 21st AVE","SE 28 DR","Nearside","East","Active","POINT (-82.28808153 29.63258877)"
"824","2019-11-27T00:00:00.000","Hampton Oaks Apartments","29.65165844","-82.40897083","SW 62nd BLVD","NW 1st PL","Farside","South","Active","POINT (-82.40897083 29.65165844)"
"1173","2020-01-14T00:00:00.000","Southwest Recreation Center","29.63757261","-82.36858601","Hull RD","Bledsoe DR","Nearside","East","Active","POINT (-82.36858601 29.63757261)"
"1215","2020-01-15T00:00:00.000","Tigert Hall","29.65015544","-82.33947418","Union RD","SW 13th ST","Nearside","East","Active","POINT (-82.33947418 29.65015544)"
"671","2021-05-10T00:00:00.000","Lakeshore Towers Apartments","29.63032427","-82.33952002","SW 13th ST","SW 25th PL","Nearside","South","Active","POINT (-82.33952002 29.63032427)"
"1102","2020-10-07T00:00:00.000","Advance Auto Parts","29.65541772","-82.42251383","NW 75th ST","NW 4th BLVD","Farside","South","Active","POINT (-82.42251383 29.65541772)"
"525","2019-11-20T00:00:00.000","Hickory Woods Neighborhood","29.67419893","-82.41518133","NW 23rd AVE","NW 68th TER","Farside","East","Active","POINT (-82.41518133 29.67419893)"
"690","2021-05-10T00:00:00.000","Comfort Suites","29.62784128","-82.33919702","SW 13th ST","SW 23rd PL","Nearside","North","Active","POINT (-82.33919702 29.62784128)"
"1510","2020-09-02T00:00:00.000","Southbound NW 34th St @ 5th Ave","29.65530318","-82.37248585","NW 34th St","NW 5th Ave","Nearside","South","Active","POINT (-82.37248585 29.65530318)"
"865","2017-08-08T00:00:00.000","Department of Children and Families","29.66648643","-82.31363686","NE 16th AVE","NE 9th ST","Farside","East","Active","POINT (-82.31363686 29.66648643)"
"1035","2020-01-07T00:00:00.000","Kanapaha Botanical Gardens","29.60868089","-82.40295312","Archer RD","SW 56th TER","Nearside","West","Active","POINT (-82.40295312 29.60868089)"
"474","2021-03-10T00:00:00.000","Commuter Lot Parking Garage","29.642997","-82.350577","Gale Lemerand DR","Museum RD","Farside","South","Active","POINT (-82.350577 29.642997)"
"1165","2020-01-14T00:00:00.000","Hills Mini Storage","29.68572746","-82.29036362","NE 39th Ave","Waldo Rd","Farside","West","Active","POINT (-82.29036362 29.68572746)"
"503","2019-11-19T00:00:00.000","Willowcroft Neighborhood","29.668069","-82.37545259","NW 16th BLVD","NW 34th ST","Farside","West","Active","POINT (-82.37545259 29.668069)"
"760","2019-11-27T00:00:00.000","Laundry Mart","29.66733977","-82.32189769","NE 2nd ST","NE 16th AVE","Nearside","South","Active","POINT (-82.32189769 29.66733977)"
"741","2019-11-27T00:00:00.000","Gainesville Public Works","29.68836234","-82.3278297","NW 39th AVE","NW 6th ST","Farside","East","Active","POINT (-82.3278297 29.68836234)"
"1108","2021-06-02T00:00:00.000","Sunrise Subdivision","29.635027","-82.422532","SW 75th ST","SW 19th PL","Farside","South","Active","POINT (-82.422532 29.635027)"
"153","2021-06-11T00:00:00.000","West University Avenue @ NW 22nd Street","29.65213044","-82.35529018","W University AVE","NW 22nd ST","Nearside","West","Active","POINT (-82.35529018 29.65213044)"
"838","2020-08-25T00:00:00.000","West 20 Apartments","29.63403933","-82.37515778","SW 20th AVE","SW 34th ST","Nearside","East","Active","POINT (-82.37515778 29.63403933)"
"450","2019-11-14T00:00:00.000","Lexington Crossing Apartments","29.61512078","-82.36230984","SW 27th ST","SW 38th PL","Nearside","North","Active","POINT (-82.36230984 29.61512078)"
"818","2019-11-27T00:00:00.000","The Woodlands Apartments","29.64116777","-82.39814017","SW 62nd BLVD","SW 20th AVE","Nearside","North","Active","POINT (-82.39814017 29.64116777)"
"199","2021-06-11T00:00:00.000","West University Ave @ Buckman Dr","29.651974","-82.344297","W University AVE","Buckman DR","Farside","East","Active","POINT (-82.344297 29.651974)"
"1085","2020-10-07T00:00:00.000","The Gardens Apartments","29.65306977","-82.42224716","SW 75th ST","W University AVE","Nearside","North","Active","POINT (-82.42224716 29.65306977)"
"319","2019-11-12T00:00:00.000","Northbound SE 35th Street @ SE 16th Avenue","29.63667127","-82.28068987","SE 35th ST","SE 16th AVE","Farside","North","Active","POINT (-82.28068987 29.63667127)"
"998","2019-12-04T00:00:00.000","Springhill Professional Center","29.687608","-82.43036","NW 83rd ST","NW 39th AVE","Farside","South","Active","POINT (-82.43036 29.687608)"
"851","2017-08-08T00:00:00.000","Eastbound SE 4th Avenue @ SE 8th Street","29.64813677","-82.31655902","SE 4th AVE","SE 8th ST","Nearside","East","Active","POINT (-82.31655902 29.64813677)"
"139","2019-10-31T00:00:00.000","City Hall","29.65205359","-82.32359835","E University AVE","NE 1st ST","Nearside","West","Active","POINT (-82.32359835 29.65205359)"
"679","2021-05-10T00:00:00.000","Meridian Behavioral Healthcare","29.61339898","-82.34114827","SW 13th ST","Williston RD","Farside","South","Active","POINT (-82.34114827 29.61339898)"
"1152","2020-01-09T00:00:00.000","Florida Gym","29.6486886","-82.34743618","Stadium RD","Gale Lemerand DR","Nearside","West","Active","POINT (-82.34743618 29.6486886)"
"967","2019-12-04T00:00:00.000","Hunters Run Apartments","29.6120404","-82.3593791","Williston RD","SW 25th TER","Farside","West","Active","POINT (-82.3593791 29.6120404)"
"724","2019-11-27T00:00:00.000","Westbound NE 39th Ave at Main St - Gsville Nissan","29.68853119","-82.3190974","NE 39th AVE","N Main ST","Nearside","West","Active","POINT (-82.3190974 29.68853119)"
"100","2020-08-26T00:00:00.000","GTEC","29.64620594","-82.29621203","Hawthorne RD","SE 24th ST","Nearside","East","Active","POINT (-82.29621203 29.64620594)"
"357","2019-11-12T00:00:00.000","SE 7th Avenue @ SE 10th Terrace","29.6457686","-82.312574","SE 7th AVE","SE 10th TER","Nearside","West","Active","POINT (-82.312574 29.6457686)"
"368","2021-05-10T00:00:00.000","LifeSouth Community Blood Center @ NW 13th Street","29.66472527","-82.33903468","NW 13th ST","NW 14th AVE","Nearside","North","Active","POINT (-82.33903468 29.66472527)"
"1454","2021-05-10T00:00:00.000","Northeast Park","29.6665055","-82.31944909","NE 16th AVE","NE 2nd ST","Farside","East","Active","POINT (-82.31944909 29.6665055)"
"1222","2020-01-15T00:00:00.000","Hearing Aid Gainesville","29.67386727","-82.33510752","NW 23rd TER","NW 10th ST","Nearside","East","Active","POINT (-82.33510752 29.67386727)"
"1326","2020-02-05T00:00:00.000","UF Counseling and Wellness Center","29.64214794","-82.36883417","Radio RD","Bledsoe DR","Farside","East","Active","POINT (-82.36883417 29.64214794)"
"857","2020-07-06T00:00:00.000","Episcopal Children's Services (across)","29.65653916","-82.30825346","Waldo RD","NE 8th AVE","Nearside","North","Active","POINT (-82.30825346 29.65653916)"
"1268","2020-01-16T00:00:00.000","Brandywine Apartments","29.630199","-82.365372","Old Archer RD","SW 28th PL","Farside","West","Active","POINT (-82.365372 29.630199)"
"1048","2021-06-08T00:00:00.000","Garison Way","29.61952617","-82.42244908","SW 75th ST","SW 36th AVE","Nearside","North","Active","POINT (-82.42244908 29.61952617)"
"1303","2020-02-05T00:00:00.000","O2B Kids @ SW 37th BLVD","29.61773145","-82.37770201","SW 39th BLVD","Archer RD","Nearside","North","Active","POINT (-82.37770201 29.61773145)"
"1447","2020-02-18T00:00:00.000","Gardenia Gardens","29.65913486","-82.30267408","NE 8th AVE","NE 17th ST","Farside","East","Active","POINT (-82.30267408 29.65913486)"
"926","2019-12-04T00:00:00.000","Leigh Hall","29.65063778","-82.34467313","Buckman DR","W University AVE","Nearside","North","Active","POINT (-82.34467313 29.65063778)"
"220","2019-11-06T00:00:00.000","Medical Marihuana Treatment Center","29.66634093","-82.33076752","NW 6th ST","NW 16th AVE","Nearside","North","Active","POINT (-82.33076752 29.66634093)"
"300","2020-09-16T00:00:00.000","Fast Eddie's Restaurant","29.65077477","-82.30576269","SE 15th ST","SE 2st AVE","Farside","North","Active","POINT (-82.30576269 29.65077477)"
"159","2021-06-11T00:00:00.000","West University Ave @ NW 36th St","29.65198238","-82.37631845","W University AVE","NW 36th ST","Nearside","West","Active","POINT (-82.37631845 29.65198238)"
"457","2020-08-25T00:00:00.000","Hickory Place Apartments","29.62012767","-82.3568122","SW 35th PL","SW 23rd TER","Nearside","East","Active","POINT (-82.3568122 29.62012767)"
"652","2019-11-20T00:00:00.000","Shands Hospital @ Helipad","29.63552261","-82.35100218","Shealy DR","Archer RD","Farside","East","Active","POINT (-82.35100218 29.63552261)"
"1287","2020-01-29T00:00:00.000","Paddock Club Apartments","29.6633858","-82.43365953","Fort Clarke BLVD","NW 8th AVE","Nearside","South","Active","POINT (-82.43365953 29.6633858)"
"1489","2021-03-10T00:00:00.000","Aloft Hotel @ Hull Rd Westbound","29.637295","-82.377972","Hull RD","SW 37th ST","Farside","East","Active","POINT (-82.377972 29.637295)"
"1545","2020-09-02T00:00:00.000","Fresenius Medical Care","29.67103965","-82.32299946","N Main ST","NE 1st Blvd","Nearside","North","Active","POINT (-82.32299946 29.67103965)"
"1261","2021-03-10T00:00:00.000","Gardenia Gardens","29.65926381","-82.30263686","NE 8th AVE","NE 17th DR","Farside","West","Active","POINT (-82.30263686 29.65926381)"
"950","2020-06-09T00:00:00.000","Lexington Crossing Apartments","29.61536761","-82.36244534","SW 27 PL","SW 38th PL","Nearside","South","Active","POINT (-82.36244534 29.61536761)"
"725","2021-06-04T00:00:00.000","Pine Forest Homes","29.68854493","-82.32219802","NE 39th AVE","NE 2nd WAY","Nearside","West","Active","POINT (-82.32219802 29.68854493)"
"1362","2020-02-05T00:00:00.000","UF & Shands Family Medicine Main Street","29.66773277","-82.32433702","N Main ST","NW 16th AVE","Farside","North","Active","POINT (-82.32433702 29.66773277)"
"188","2021-06-08T00:00:00.000","Plaza Royale Eastbound","29.6520006","-82.38022567","Newberry RD","SW 38th ST","Farside","East","Active","POINT (-82.38022567 29.6520006)"
"541","2021-03-10T00:00:00.000","Raintree Neighborhood","29.66665008","-82.3579352","NW 16th AVE","NW 23rd TER","Nearside","East","Active","POINT (-82.3579352 29.66665008)"
"1321","2020-02-05T00:00:00.000","The Enclave Apartments","29.62116078","-82.36882668","SW 35th PL","SW 34th ST","Nearside","West","Active","POINT (-82.36882668 29.62116078)"
"1047","2021-06-08T00:00:00.000","Veterans Memorial Park","29.61490988","-82.42249532","SW 75th ST","SW 42nd PL","Nearside","North","Active","POINT (-82.42249532 29.61490988)"
"1119","2021-06-02T00:00:00.000","Dollar General @ SW Archer Rd","29.60170664","-82.41567649","Archer RD","SW 69th TER","Nearside","East","Active","POINT (-82.41567649 29.60170664)"
"871","2017-08-08T00:00:00.000","Family Worship Center","29.67019032","-82.29910378","Waldo RD","NE 21st PL","Farside","North","Active","POINT (-82.29910378 29.67019032)"
"1470","2020-03-19T00:00:00.000","Women's Club","29.65203728","-82.36471246","W University Ave","NW 28th St","Nearside","East","Active","POINT (-82.36471246 29.65203728)"
"960","2019-12-04T00:00:00.000","34th Street Wall","29.64625762","-82.37230727","SW 34th ST","SW 2nd Ave","Nearside","North","Active","POINT (-82.37230727 29.64625762)"
"1495","2020-09-02T00:00:00.000","NE 15th St @ NE 19th Pl","29.670426","-82.305899","NE 15th St","NE 19th Pl","Nearside","South","Active","POINT (-82.305899 29.670426)"
"398","2019-11-13T00:00:00.000","Sorrento New Home Community","29.70323092","-82.35305084","NW 53rd AVE","NW 21st DR","Farside","East","Active","POINT (-82.35305084 29.70323092)"
"1180","2020-01-14T00:00:00.000","Southwest Recreation Center","29.63778644","-82.36834551","Hull RD","Bledsoe DR","Nearside","West","Active","POINT (-82.36834551 29.63778644)"
"1061","2021-06-08T00:00:00.000","SW 63rd Ter @ SW 8th Ave","29.64471761","-82.41056","SW 63rd TER","SW 8th AVE","Nearside","North","Active","POINT (-82.41056 29.64471761)"
"635","2019-11-20T00:00:00.000","Gateway at Gainesville Apartments","29.61759163","-82.37774121","SW 37th BLVD","SW 38th ST","Farside","South","Active","POINT (-82.37774121 29.61759163)"
"1199","2020-01-15T00:00:00.000","VA Hospital @ Archer Rd","29.63823338","-82.34558953","Archer RD","Center DR","Farside","East","Active","POINT (-82.34558953 29.63823338)"
"1432","2016-03-02T00:00:00.000","Unity of Gainesville","29.6887696","-82.43641049","NW 39th AVE","NW 89th BLVD","Farside","East","Inactive","POINT (-82.43641049 29.6887696)"
"331","2019-11-12T00:00:00.000","Eastside Food Store","29.63862311","-82.2808462","SE 35th ST","Hawthorne RD","Farside","South","Active","POINT (-82.2808462 29.63862311)"
"837","2019-03-05T00:00:00.000","Southwest Villas Apartments","29.63395094","-82.37771617","SW 20th AVE","SW 37th WAY","Farside","East","Active","POINT (-82.37771617 29.63395094)"
"534","2021-05-10T00:00:00.000","Eastbound NW 16th Boulevard @ NW 39th Drive","29.67169343","-82.38397034","NW 16th BLVD","NW 39th DR","Nearside","East","Active","POINT (-82.38397034 29.67169343)"
"1366","2020-02-05T00:00:00.000","Westbound NW 8th AVE @ NW 4th ST","29.65951098","-82.32821011","NW 8th AVE","NW 4th ST","Nearside","West","Active","POINT (-82.32821011 29.65951098)"
"432","2018-11-07T00:00:00.000","Cobblestone Apartments","29.67811815","-82.34924646","NW 23rd ST","NW 28th CIR","Farside","East","Active","POINT (-82.34924646 29.67811815)"
"194","2021-06-11T00:00:00.000","SW 2nd Avenue @ SW 26th Street","29.65034694","-82.36127801","SW 2nd AVE","SW 26th ST","Nearside","East","Active","POINT (-82.36127801 29.65034694)"
"1546","2020-09-02T00:00:00.000","The Clock Restaurant","29.67148187","-82.3229951","N Main ST","NE 1st Blvd","Nearside","South","Active","POINT (-82.3229951 29.67148187)"
"776","2019-02-28T00:00:00.000","Spring Hill Church","29.63235677","-82.32048619","Williston RD","SE 1st ST","Farside","North","Active","POINT (-82.32048619 29.63235677)"
"1394","2020-08-14T00:00:00.000","Southbound NW 55th ST @ NW 14th AVE","29.66490778","-82.40161758","NW 55th ST","NW 14th AVE","Farside","South","Inactive","POINT (-82.40161758 29.66490778)"
"424","2019-11-13T00:00:00.000","Girls Place of Alachua County","29.68840775","-82.35159703","NW 39th AVE","NW 21st ST","Nearside","East","Active","POINT (-82.35159703 29.68840775)"
"334","2019-11-12T00:00:00.000","Southbound SE 35th Street @ SE 20th Avenue","29.63275966","-82.28088015","SE 35th ST","SE 20th AVE","Nearside","South","Active","POINT (-82.28088015 29.63275966)"
"4","2021-06-17T00:00:00.000","The Continuum","29.65032525","-82.32967432","SW 2nd AVE","SW 6th ST","Nearside","West","Active","POINT (-82.32967432 29.65032525)"
"386","2019-11-13T00:00:00.000","Forest of the Unicorn Neighborhood","29.68863634","-82.35816847","NW 39th AVE","NW 24th BLVD","Nearside","West","Active","POINT (-82.35816847 29.68863634)"
"1155","2020-01-09T00:00:00.000","Spanish Trace Apartments","29.62835676","-82.37445971","Windmeadows BLVD","SW 34th ST","Farside","West","Active","POINT (-82.37445971 29.62835676)"
"1532","2020-09-02T00:00:00.000","Southbound NW 43rd St @ NW 46th Ave","29.6967748","-82.38903173","NW 43rd St","NW 46th Ave","Nearside","South","Active","POINT (-82.38903173 29.6967748)"
"706","2019-02-07T00:00:00.000","Laundry Mart","29.66719093","-82.32174419","NE 2nd ST","NE 16th AVE","Farside","North","Active","POINT (-82.32174419 29.66719093)"
"601","2021-06-08T00:00:00.000","Fred Cone Park Westbound","29.65199193","-82.28707086","E University AVE","SE 27th ST","Nearside","West","Active","POINT (-82.28707086 29.65199193)"
"591","2021-06-08T00:00:00.000","Compassionate Outreach Ministries","29.64832669","-82.27249808","SE 43rd ST","SE 4th AVE","Nearside","South","Active","POINT (-82.27249808 29.64832669)"
"358","2019-11-12T00:00:00.000","The Cotton Club","29.64584972","-82.31504448","SE 7th AVE","SE 9th ST","Nearside","West","Active","POINT (-82.31504448 29.64584972)"
"124","2021-06-11T00:00:00.000","SE 19th Ter @ SE 10th Pl","29.64188191","-82.29941977","SE 19th TER","SE 10th PL","Nearside","South","Active","POINT (-82.29941977 29.64188191)"
"897","2017-08-08T00:00:00.000","Crab House","29.66803508","-82.30084745","Waldo RD","Ne 18th PL","Farside","South","Active","POINT (-82.30084745 29.66803508)"
"1275","2020-01-28T00:00:00.000","Westbound Newberry Road @ Fort Clarke Boulevard","29.660448","-82.432568","Newberry RD","Fort Clarke BLVD","Nearside","West","Active","POINT (-82.432568 29.660448)"
"245","2020-06-26T00:00:00.000","Plaza Verde @ NW 13th St Southbound","29.67271989","-82.33924919","NW 13th ST","NW 23rd AVE","Farside","South","Active","POINT (-82.33924919 29.67271989)"
"47","2021-07-02T00:00:00.000","Sorority Row @ SW 8th Avenue","29.64485444","-82.33780768","SW 8th AVE","SW 12th ST","Farside","East","Suspended","POINT (-82.33780768 29.64485444)"
"903","2017-08-08T00:00:00.000","Southbound NE 9th Street @ NE 14th Avenue","29.66496577","-82.31482819","NE 9th ST","NE 14th AVE","Nearside","South","Active","POINT (-82.31482819 29.66496577)"
"667","2019-11-27T00:00:00.000","Summit House Condominiums","29.63574727","-82.34248185","SW 16th AVE","SW 16th ST","Farside","East","Active","POINT (-82.34248185 29.63574727)"
"1505","2020-09-02T00:00:00.000","Planned Furnishings","29.6519202","-82.33077239","NW 6th ST","W University Ave","Nearside","North","Active","POINT (-82.33077239 29.6519202)"
"994","2019-12-04T00:00:00.000","Faith Presbyterian Church","29.68890519","-82.4058531","NW 39th AVE","NW 53rd ST","Farside","West","Active","POINT (-82.4058531 29.68890519)"
"1459","2021-06-02T00:00:00.000","Kensington South @ 38th Ter","29.63360598","-82.38099979","SW 38th TER","SW 20th AVE","Farside","South","Active","POINT (-82.38099979 29.63360598)"
"686","2021-05-10T00:00:00.000","CDS Family and Behavioral Services","29.62037778","-82.33979885","SW 13th ST","SW 36th PL","Nearside","North","Active","POINT (-82.33979885 29.62037778)"
"936","2021-03-10T00:00:00.000","Publix @ SW 34th Street","29.65043748","-82.37073148","SW 2nd AVE","SW 34th ST","Nearside","West","Active","POINT (-82.37073148 29.65043748)"
"586","2021-06-08T00:00:00.000","Lake Road Community and Cone Park Branch Library","29.65174977","-82.28943136","E University AVE","SE 26th TER","Farside","East","Active","POINT (-82.28943136 29.65174977)"
"813","2019-11-27T00:00:00.000","Kensington Apartments North","29.63412278","-82.3827975","SW 20th AVE","SW 38th TER","Farside","West","Active","POINT (-82.3827975 29.63412278)"
"239","2019-11-06T00:00:00.000","Publix @ NW 39th Avenue","29.68749926","-82.33915201","NW 13th ST","NW 39th AVE","Farside","South","Active","POINT (-82.33915201 29.68749926)"
"737","2019-11-27T00:00:00.000","NW 23rd Avenue @ NW 12th St","29.67405258","-82.338429","NW 23rd AVE","NW 12th ST","Farside","West","Active","POINT (-82.338429 29.67405258)"
"1304","2020-02-05T00:00:00.000","Regions Bank @ Archer Road","29.619361","-82.379101","SW 39th BLVD","Archer RD","Nearside","North","Active","POINT (-82.379101 29.619361)"
"1081","2021-02-03T00:00:00.000","Sparrow Apartments","29.6453256","-82.4208109","SW 8th AVE","SW 75th ST","Nearside","West","Active","POINT (-82.4208109 29.6453256)"
"943","2020-06-09T00:00:00.000","Kelly's Kwik Stop","29.62974544","-82.37273201","SW 34th ST","SW 24th AVE","Farside","South","Active","POINT (-82.37273201 29.62974544)"
"913","2019-11-27T00:00:00.000","Southbound SE 11th Street @ SE 2nd Avenue","29.65031018","-82.31161287","SE 11th ST","SE 2nd AVE","Nearside","South","Active","POINT (-82.31161287 29.65031018)"
"756","2019-11-27T00:00:00.000","Westbound NE 23rd Avenue @ NE 9th Street","29.67393235","-82.31461884","NE 23rd AVE","NE 9th ST","Nearside","West","Active","POINT (-82.31461884 29.67393235)"
"1280","2020-01-29T00:00:00.000","Hidden Oak Elementary School","29.67081143","-82.43910265","Fort Clarke BLVD","NW 23rd AVE","Nearside","South","Active","POINT (-82.43910265 29.67081143)"
"510","2019-11-19T00:00:00.000","Westbound NW 23rd Avenue @ NW 46th Terrace","29.67420243","-82.39292017","NW 23rd AVE","NW 46th TER","Nearside","West","Active","POINT (-82.39292017 29.67420243)"
"372","2021-05-10T00:00:00.000","Lux 13 Apartments","29.6715981","-82.33903452","NW 13th ST","NW 21st AVE","Farside","North","Active","POINT (-82.33903452 29.6715981)"
"1585","2020-07-06T00:00:00.000","NW 6th St @ NW 3rd Ave","29.6537929","-82.3308989","NW 6th St","NW 3rd Ave","Nearside","North","Active","POINT (-82.3308989 29.6537929)"
"891","2017-08-08T00:00:00.000","Lewis Place @ Ironwood Apartments","29.69138282","-82.30594187","NE 15th ST","NE 39th Avenue","Nearside","South","Active","POINT (-82.30594187 29.69138282)"
"314","2019-11-12T00:00:00.000","Faith Missionary Church","29.63258494","-82.28568137","SE 21st AVE","SE 30th Dr","Nearside","East","Active","POINT (-82.28568137 29.63258494)"
"683","2021-07-02T00:00:00.000","Meridian Behavioral Healthcare","29.61310682","-82.34090362","SW 13th ST","Williston RD","Nearside","North","Active","POINT (-82.34090362 29.61310682)"
"164","2019-10-31T00:00:00.000","Millennium Center","29.6556116","-82.38940844","Newberry RD","NW 43rd ST","Nearside","West","Active","POINT (-82.38940844 29.6556116)"
"1103","2020-01-08T00:00:00.000","Tower Hill","29.65354761","-82.42253182","NW 75th ST","W University AVE","Nearside","South","Active","POINT (-82.42253182 29.65354761)"
"1511","2020-09-02T00:00:00.000","Northbound NW 34th St @ NW 8th Ave","29.65751614","-82.37235009","NW 34th St","NW 8th Ave","Nearside","North","Active","POINT (-82.37235009 29.65751614)"
"1022","2020-01-07T00:00:00.000","Southbound NW 43rd Street @ NW 15th Place","29.66678943","-82.3891125","NW 43rd ST","NW 15th PL","Nearside","South","Active","POINT (-82.3891125 29.66678943)"
"847","2017-08-08T00:00:00.000","Corry Village","29.64477438","-82.36087488","Museum RD","Village DR","Nearside","North","Active","POINT (-82.36087488 29.64477438)"
"720","2020-07-06T00:00:00.000","Fearnside Family Services Center (across)","29.68617643","-82.30571675","NE 15th ST","NE 39th AVE","Nearside","North","Active","POINT (-82.30571675 29.68617643)"
"1299","2021-03-10T00:00:00.000","Kohl's Department Store @ SW 34th ST","29.62349125","-82.37275221","SW 34th ST","SW 35th PL","Nearside","South","Active","POINT (-82.37275221 29.62349125)"
"470","2021-07-02T00:00:00.000","Physics Building","29.64356127","-82.35033468","Gale Lemerand DR","Museum RD","Nearside","North","Suspended","POINT (-82.35033468 29.64356127)"
"179","2021-06-11T00:00:00.000","Newberry Rd @ NW 53rd Ter","29.6590056","-82.39996017","Newberry RD","NW 53rd TER","Nearside","East","Active","POINT (-82.39996017 29.6590056)"
"1441","2020-02-18T00:00:00.000","Lewis Place @ Ironwood Apartments","29.6913847","-82.30571584","NE 15th ST","NE 39th AVE","Farside","North","Active","POINT (-82.30571584 29.6913847)"
"485","2019-11-19T00:00:00.000","Southwood Apartments","29.62078617","-82.35593683","SW 23rd TER","SW 34th PL","Farside","South","Active","POINT (-82.35593683 29.62078617)"
"1027","2021-06-08T00:00:00.000","Butler Plaza West @ Clark Butler Boulevard","29.62132828","-82.38091884","SW 37th BLVD","Archer RD","Nearside","South","Active","POINT (-82.38091884 29.62132828)"
"761","2020-07-06T00:00:00.000","Sandwich Inn @ NE 16th Ave","29.6666841","-82.32311485","NE 16th AVE","NE 2nd ST","Nearside","West","Active","POINT (-82.32311485 29.6666841)"
"1330","2020-02-05T00:00:00.000","Alachua County Juvenile Detention","29.68018568","-82.2796301","NE 39th AVE","Waldo RD","Farside","West","Active","POINT (-82.2796301 29.68018568)"
"642","2020-06-09T00:00:00.000","University Terrace Condominiums","29.61700561","-82.37215334","SW 34th ST","SW 39th BLVD","Nearside","North","Active","POINT (-82.37215334 29.61700561)"
"1115","2020-01-08T00:00:00.000","Stillwind Neighborhood","29.60621978","-82.42272966","SW 75th ST","SW 51st BLVD","Farside","South","Active","POINT (-82.42272966 29.60621978)"
"1133","2020-06-26T00:00:00.000","Fraternity Row @ West Fraternity Dr","29.64786727","-82.35799618","Fraternity Row","W Fraternity Row","Nearside","West","Active","POINT (-82.35799618 29.64786727)"
"293","2021-03-10T00:00:00.000","Mt Moriah Baptist Church","29.64575777","-82.31241602","SE 7th AVE","SE 10th TER","Nearside","East","Active","POINT (-82.31241602 29.64575777)"
"205","2019-11-06T00:00:00.000","The Continuum","29.65192512","-82.3294374","W University AVE","W 6th ST","Farside","East","Active","POINT (-82.3294374 29.65192512)"
"1475","2020-03-19T00:00:00.000","President's Park","29.65053981","-82.35543542","SW 2nd Ave","SW 23rd St","Nearside","West","Active","POINT (-82.35543542 29.65053981)"
"1056","2021-06-08T00:00:00.000","SW 61st St @ SW 20th Ave","29.64057111","-82.4071445","SW 61st ST","SW 20th AVE","Farside","North","Active","POINT (-82.4071445 29.64057111)"
"66","2021-06-11T00:00:00.000","SE 22nd Avenue @ SE 12th Street","29.63178861","-82.31059986","SE 22nd AVE","SE 12th ST","Nearside","East","Active","POINT (-82.31059986 29.63178861)"
"729","2019-11-27T00:00:00.000","Southbound SW 6th Street @ NW 36th Avenue","29.68522298","-82.3308343","NW 6th ST","NW 35th AVE","Farside","South","Active","POINT (-82.3308343 29.68522298)"
"983","2020-10-07T00:00:00.000","Millhopper Pines Apartments","29.67061895","-82.38885043","NW 43rd ST","NW 18th PL","Farside","North","Active","POINT (-82.38885043 29.67061895)"
"766","2019-11-27T00:00:00.000","Fire Stone @ N Main Street","29.65817014","-82.32511322","N Main ST","NE 7th AV","Nearside","South","Active","POINT (-82.32511322 29.65817014)"
"1402","2020-08-14T00:00:00.000","Westbound SW 87th DR @ SW 91st ST","29.62838361","-82.43639485","SW 87th DR","SW 91st ST","Nearside","West","Inactive","POINT (-82.43639485 29.62838361)"
"801","2020-11-23T00:00:00.000","UF Bat Houses","29.64265544","-82.36404001","Museum RD","Radio RD","Nearside","South","Active","POINT (-82.36404001 29.64265544)"
"1161","2020-01-14T00:00:00.000","Springs Residence Building","29.648637","-82.356544","Fraternity Row","Woodlawn DR","Farside","West","Active","POINT (-82.356544 29.648637)"
"955","2021-06-04T00:00:00.000","SW 32nd Ter @ Old Archer Rd","29.62732828","-82.37072884","Old Archer RD","SW 31st TER","Nearside","North","Active","POINT (-82.37072884 29.62732828)"
"97","2018-10-11T00:00:00.000","Veteran's Honor Center","29.64909794","-82.30334586","SE 3rd AVE","SE 17th ST","Nearside","East","Active","POINT (-82.30334586 29.64909794)"
"877","2017-08-08T00:00:00.000","Quick Mart @ NE 15th Street","29.68815493","-82.30567869","NE 15th ST","NE 39th AVE","Nearside","North","Active","POINT (-82.30567869 29.68815493)"
"1450","2021-05-10T00:00:00.000","Northside Shopping Center West","29.67553332","-82.32362505","NE 1 BLVD","NW 23 AVE","Farside","North","Active","POINT (-82.32362505 29.67553332)"
"420","2019-11-13T00:00:00.000","First Assembly Church","29.68849476","-82.36615117","NW 39th AVE","NW 29th TER","Nearside","East","Active","POINT (-82.36615117 29.68849476)"
"24","2021-03-10T00:00:00.000","Tropic Carwash","29.62956244","-82.36781834","Archer RD","Surge Area DR","Farside","West","Active","POINT (-82.36781834 29.62956244)"
"1499","2020-03-24T00:00:00.000","NE 15th St @ NE 3rd Ave Nearside","29.65365432","-82.30573749","NE 15th St","NE 3rd Ave","Nearside","North","Active","POINT (-82.30573749 29.65365432)"
"1185","2020-01-14T00:00:00.000","Microbiology/Cell Science Building","29.64026163","-82.36410017","Museum RD","Radio Rd","Nearside","North","Active","POINT (-82.36410017 29.64026163)"
"972","2020-06-09T00:00:00.000","Laurels Apartments","29.61150395","-82.37156334","SW 34th ST","SW 47th AVE","Farside","North","Active","POINT (-82.37156334 29.61150395)"
"404","2021-06-08T00:00:00.000","Pine Ridge I","29.70773359","-82.35790484","NW 23rd TER","NW 57th PL","Nearside","North","Active","POINT (-82.35790484 29.70773359)"
"214","2019-11-06T00:00:00.000","Santa Fe College Charles L. Blount Center","29.6555636","-82.33018902","NW 6th ST","NW 4th AVE","Nearside","North","Active","POINT (-82.33018902 29.6555636)"
"977","2019-12-04T00:00:00.000","Millennium Center","29.65644027","-82.38992983","NW 43rd ST","Newberry RD","Farside","North","Active","POINT (-82.38992983 29.65644027)"
"1209","2020-01-15T00:00:00.000","Oxford Terrace Apartments","29.643225","-82.333698","SW 9th ST","SW Depot AVE","Nearside","South","Active","POINT (-82.333698 29.643225)"
"564","2021-06-04T00:00:00.000","Martin Luther King Center and Citizens Field","29.66012176","-82.30593724","Waldo RD","NE 8th AVE","Farside","North","Active","POINT (-82.30593724 29.66012176)"
"1338","2020-02-05T00:00:00.000","Sonny's Barbecue @ Waldo Road","29.676823","-82.29491","Waldo RD","NE 27th AVE","Farside","South","Active","POINT (-82.29491 29.676823)"
"144","2021-06-11T00:00:00.000","W University Ave @ NW 8th St","29.65214981","-82.33235928","W University AVE","NW 8th ST","Nearside","West","Active","POINT (-82.33235928 29.65214981)"
"454","2019-11-14T00:00:00.000","Northbound SW 27th Street @ SW 35th Place","29.61962611","-82.36275901","SW 27th ST","SW 35th PL","Nearside","North","Active","POINT (-82.36275901 29.61962611)"
"1316","2020-02-05T00:00:00.000","Super Wal-Mart @ Waldo Road","29.66377693","-82.30375186","Waldo RD","NE 12th AVE","Nearside","South","Active","POINT (-82.30375186 29.66377693)"
"1011","2019-12-04T00:00:00.000","NW Grille Seafood","29.68852843","-82.397711","NW 39th AVE","NW 51st ST","Nearside","East","Active","POINT (-82.397711 29.68852843)"
"558","2021-06-04T00:00:00.000","NE 9th Street @ NE 5th Avenue","29.65560385","-82.31470207","NE 9th ST","NE 5th AVE","Nearside","North","Active","POINT (-82.31470207 29.65560385)"
"381","2018-11-01T00:00:00.000","Altrusa House of Gainesville","29.68571076","-82.34951401","NW 36th AVE","NE 20th ST","Nearside","East","Active","POINT (-82.34951401 29.68571076)"
"1528","2020-09-02T00:00:00.000","Southbound NW 43rd St @ NW 41st Pl","29.69044883","-82.38914127","NW 43rd St","NW 41st Pl","Farside","South","Active","POINT (-82.38914127 29.69044883)"
"436","2021-05-10T00:00:00.000","Applebee's @ NW 13th Street","29.66133131","-82.33927482","NW 13th ST","NW 10th AVE","Nearside","South","Active","POINT (-82.33927482 29.66133131)"
"1386","2020-02-11T00:00:00.000","Breckenridge Neighborhood","29.68879176","-82.378614","NW 39th AVE","NW 37th TER","Farside","West","Active","POINT (-82.378614 29.68879176)"
"69","2021-06-11T00:00:00.000","Showers of Blessing Church Southbound","29.6284414","-82.30587561","SE 15th ST","SE 25th AVE","Farside","South","Active","POINT (-82.30587561 29.6284414)"
"1479","2020-03-19T00:00:00.000","Sorrento New Home Community","29.70335942","-82.35314126","NW 53rd AVE","NW 55th Avenue","Nearside","West","Active","POINT (-82.35314126 29.70335942)"
"101","2021-06-11T00:00:00.000","Dollar General @ SE 24th St","29.64612277","-82.29376756","SE 24th ST","Hawthorne RD","Farside","North","Active","POINT (-82.29376756 29.64612277)"
"301","2020-09-16T00:00:00.000","Eastbound University Avenue @ SE 15th Street","29.65180444","-82.30473586","E University AVE","SE 15th ST","Farside","East","Active","POINT (-82.30473586 29.65180444)"
"934","2019-12-04T00:00:00.000","Campus Church of Christ","29.65042794","-82.36276034","SW 2nd AVE","SW 26th ST","Farside","West","Active","POINT (-82.36276034 29.65042794)"
"259","2021-01-13T00:00:00.000","ALDI Food market","29.68760653","-82.33885664","NW 13th ST","NW 39th AVE","Nearside","North","Active","POINT (-82.33885664 29.68760653)"
"1074","2021-03-10T00:00:00.000","Holly Heights Apartments","29.64613944","-82.41768883","SW 70th TER","SW 6th PL","Nearside","North","Active","POINT (-82.41768883 29.64613944)"
"275","2019-11-07T00:00:00.000","Furniture & Antique @ NW 6th Street","29.67276999","-82.33088564","NW 6th ST","NW 21st AVE","Farside","South","Active","POINT (-82.33088564 29.67276999)"
"459","2019-11-14T00:00:00.000","UF Beef Teaching Unit","29.62181311","-82.35583135","SW 23rd TER","SW 32nd PL","Farside","North","Active","POINT (-82.35583135 29.62181311)"
"609","2019-11-20T00:00:00.000","Mt Carmel Baptist Church","29.658911","-82.2923","NE 25th ST","NE 8th AVE","Nearside","North","Active","POINT (-82.2923 29.658911)"
"22","2021-03-10T00:00:00.000","Country Village Apartments","29.63204594","-82.36253384","Archer RD","SW 23rd TER","Farside","West","Active","POINT (-82.36253384 29.63204594)"
"1464","2020-03-19T00:00:00.000","NE 18th St","29.65589939","-82.30164414","NE 18 ST","NE 5th Ave","Farside","North","Active","POINT (-82.30164414 29.65589939)"
"807","2019-11-27T00:00:00.000","University Village South Apartments","29.6377478","-82.37037284","Hull RD","SW 34th ST","Nearside","West","Active","POINT (-82.37037284 29.6377478)"
"506","2019-11-19T00:00:00.000","Westbound NW 16th Boulevard @ NW 39th Street","29.671723","-82.383541","NW 16th BLVD","NW 39th ST","Nearside","West","Active","POINT (-82.383541 29.671723)"
"988","2021-06-04T00:00:00.000","Monterey Neighborhood","29.68511193","-82.388816","NW 43rd ST","NW 34th AVE","Farside","North","Active","POINT (-82.388816 29.68511193)"
"701","2019-02-07T00:00:00.000","CVS Pharmacy @ N Main Street","29.66049843","-82.32444935","N Main ST","NE 10th AVE","Nearside","North","Active","POINT (-82.32444935 29.66049843)"
"1138","2020-01-09T00:00:00.000","Arbor Apartments","29.62010093","-82.35852871","SW 35th PL","SW 23rd TER","Farside","West","Active","POINT (-82.35852871 29.62010093)"
"653","2019-11-20T00:00:00.000","Shands Hospital @ Parking Garage 9","29.63632261","-82.35007435","Gale Lemerand DR","Archer RD","Nearside","North","Active","POINT (-82.35007435 29.63632261)"
"185","2021-06-08T00:00:00.000","SIMED Health","29.65490026","-82.38818212","Newberry RD","NW 43rd ST","Nearside","East","Active","POINT (-82.38818212 29.65490026)"
"466","2019-11-14T00:00:00.000","Forestry Field Lab/Plant Growth","29.63817644","-82.35669601","Mowry RD","Hull RD","Farside","East","Active","POINT (-82.35669601 29.63817644)"
"1515","2020-09-02T00:00:00.000","Northbound Westwood Middle School","29.66502258","-82.37233526","NW 34th St","NW 15th Ave","Nearside","North","Active","POINT (-82.37233526 29.66502258)"
"663","2021-07-02T00:00:00.000","UF Health Pediatric ER","29.64099944","-82.34266468","Newell DR","SW Archer RD","Farside","South","Suspended","POINT (-82.34266468 29.64099944)"
"796","2019-03-05T00:00:00.000","Sun Bay Apartments","29.63639392","-82.3325412","SW 16th AVE","SW 6th ST","Nearside","East","Active","POINT (-82.3325412 29.63639392)"
"1313","2020-02-05T00:00:00.000","Bed and Breakfast District","29.65008869","-82.31843697","SE 2nd AVE","SE 7th ST","Nearside","East","Active","POINT (-82.31843697 29.65008869)"
"1099","2021-06-08T00:00:00.000","Subway @ Newberry RD","29.65977394","-82.41347966","Newberry RD","Oaks Mall","Nearside","West","Active","POINT (-82.41347966 29.65977394)"
"490","2019-11-19T00:00:00.000","The Polos Apartments","29.61317401","-82.35682786","Williston RD","SW 23rd ST","Farside","West","Active","POINT (-82.35682786 29.61317401)"
"1579","2020-09-16T00:00:00.000","Outside of Butler Plaza TS","29.62494","-82.38691","SW 30th Pl","SW 42nd St","Nearside","East","Active","POINT (-82.38691 29.62494)"
"882","2017-08-08T00:00:00.000","NE49th AVE - PFG Foods","29.69931192","-82.27529037","NE 49th AVE","NE 40th TER","Nearside","East","Active","POINT (-82.27529037 29.69931192)"
"752","2019-11-27T00:00:00.000","NE 15th Street @ NE 26th Avenue","29.67664757","-82.30587685","NE 15th ST","NE 26th AVE","Nearside","South","Active","POINT (-82.30587685 29.67664757)"
"1250","2021-07-02T00:00:00.000","Mobil Gas Station @ Archer Road","29.61595995","-82.38898884","Archer RD","SW 43rd ST","Nearside","West","Active","POINT (-82.38898884 29.61595995)"
"40","2021-06-11T00:00:00.000","ShandsCair Helicopter Pad","29.63640161","-82.35091151","Archer RD","Gale Lemerand DR","Nearside","East","Active","POINT (-82.35091151 29.63640161)"
"1016","2021-03-24T00:00:00.000","Millhopper Branch Library","29.6815862","-82.3892215","NW 43rd ST","NW 31st AVE","Farside","South","Active","POINT (-82.3892215 29.6815862)"
"464","2019-11-14T00:00:00.000","Mt Vernon Apartments @ SW 23rd Drive","29.63577261","-82.35879151","SW 23rd DR","Archer RD","Farside","North","Active","POINT (-82.35879151 29.63577261)"
"970","2019-12-04T00:00:00.000","Williston Plaza","29.60593628","-82.37105451","SW 34th ST","Williston RD","Farside","North","Active","POINT (-82.37105451 29.60593628)"
"900","2017-08-08T00:00:00.000","Auto Audio","29.66661993","-82.31012186","NE 16th AVE","NE 12th ST","Nearside","West","Active","POINT (-82.31012186 29.66661993)"
"1448","2021-06-02T00:00:00.000","NW 8th Ave @ NW 4th St Eastbound","29.65931603","-82.32817956","NW 8 AVE","NW 4 ST","Farside","East","Active","POINT (-82.32817956 29.65931603)"
"842","2017-08-08T00:00:00.000","Southwest Recreation Center","29.63817061","-82.36924684","Bledsoe DR","Hull RD","Farside","North","Active","POINT (-82.36924684 29.63817061)"
"218","2019-11-06T00:00:00.000","Bailey Village Assisted Living","29.66386443","-82.33076319","NW 6th ST","NW 13th ST","Farside","North","Active","POINT (-82.33076319 29.66386443)"
"825","2019-11-27T00:00:00.000","Fairmont Oaks Apartments","29.65005587","-82.40779139","SW 62nd BLVD","NW 4th PL","Farside","South","Active","POINT (-82.40779139 29.65005587)"
"1478","2020-03-19T00:00:00.000","Great Lakes Carpet @ NW 53rd Avenue","29.70332423","-82.34644194","NW 53rd AVE","NW 19th ST","Nearside","West","Active","POINT (-82.34644194 29.70332423)"
"1174","2020-01-14T00:00:00.000","Lacrosse Field","29.63758708","-82.36517442","Hull RD","Natural Area DR","Nearside","East","Active","POINT (-82.36517442 29.63758708)"
"13","2021-07-02T00:00:00.000","Beaty Towers","29.644929","-82.340175","Museum RD","SW 13th ST","Farside","West","Suspended","POINT (-82.340175 29.644929)"
"999","2019-12-04T00:00:00.000","Northridge Neighborhood","29.686069","-82.43036921","NW 83rd ST","NW 36th AVE","Nearside","South","Active","POINT (-82.43036921 29.686069)"
"109","2020-10-07T00:00:00.000","Phase III Supply","29.64701144","-82.29722836","Hawthorne RD","SE 21st ST","Nearside","West","Active","POINT (-82.29722836 29.64701144)"
"256","2020-07-06T00:00:00.000","Mount Pleasant Cemetary","29.6797121","-82.33895001","NW 13th ST","NW 29th RD","Farside","North","Active","POINT (-82.33895001 29.6797121)"
"1524","2020-09-02T00:00:00.000","Southbound NW 34th St @ NW 33rd Ln","29.68376501","-82.37242465","NW 34th St","NW 33rd Ln","Nearside","South","Active","POINT (-82.37242465 29.68376501)"
"1353","2020-02-05T00:00:00.000","College Park @ NW 17th ST","29.653653","-82.344698","NW 17th ST","NW 3rd AVE
NW 3RD AVE","Farside","North","Active","POINT (-82.344698 29.653653)"
"524","2019-11-20T00:00:00.000","Quail Ridge Neighborhood","29.6741895","-82.41826059","NW 23rd AVE","NW 71st ST","Nearside","East","Active","POINT (-82.41826059 29.6741895)"
"1413","2020-02-18T00:00:00.000","College Park @ NW 17th ST","29.65370125","-82.34480072","NW 17th ST","NW 3rd AVE","Nearside","South","Active","POINT (-82.34480072 29.65370125)"
"440","2021-05-10T00:00:00.000","The Standard","29.652496","-82.339413","NW 13th ST","NW 1st AVE","Nearside","South","Active","POINT (-82.339413 29.652496)"
"618","2019-11-20T00:00:00.000","Duval Elementary School","29.6592966","-82.29714036","NE 8th AVE","NE 21st ST","Nearside","West","Active","POINT (-82.29714036 29.6592966)"
"789","2019-03-05T00:00:00.000","Sun Bay Apartments","29.63660794","-82.33246919","SW 16th AVE","SW 6th ST","Farside","West","Active","POINT (-82.33246919 29.63660794)"
"819","2019-11-27T00:00:00.000","Rockwood Villas Apartments","29.64482577","-82.39924759","SW 62nd BLVD","SW 9th PL","Farside","North","Active","POINT (-82.39924759 29.64482577)"
"841","2017-08-08T00:00:00.000","Harn Museum","29.63755444","-82.37007734","Hull RD","Bledsoe DR","Farside","East","Active","POINT (-82.37007734 29.63755444)"
"203","2021-06-11T00:00:00.000","UF Human Resources","29.65196159","-82.33375126","W University AVE","W 8th ST","Nearside","East","Active","POINT (-82.33375126 29.65196159)"
"695","2021-05-10T00:00:00.000","Oakbrook Walk Condominiums","29.63820861","-82.33924168","SW 13th ST","SW 14th AVE","Farside","North","Active","POINT (-82.33924168 29.63820861)"
"57","2019-10-30T00:00:00.000","Hippodrome Theater","29.6502146","-82.32413102","SE 2nd AVE","SE 1st ST","Nearside","East","Active","POINT (-82.32413102 29.6502146)"
"1190","2020-01-14T00:00:00.000","Family Housing","29.64091514","-82.36959345","Family Housing","Bledsoe DR","Farside","South","Active","POINT (-82.36959345 29.64091514)"
"1166","2020-01-14T00:00:00.000","Ironwood Golf Course","29.688154","-82.297072","NE 39th AVE","Waldo RD","Nearside","West","Active","POINT (-82.297072 29.688154)"
"1374","2020-02-11T00:00:00.000","Westbound NW 39th AVE @ NW 19th TER","29.68863541","-82.34796719","NW 39th AVE","NW 19th TER","Nearside","West","Active","POINT (-82.34796719 29.68863541)"
"1145","2020-07-06T00:00:00.000","Fraternity Row II across Springs","29.64831477","-82.35759684","Fraternity Row","W Fraternity Row","Farside","East","Active","POINT (-82.35759684 29.64831477)"
"367","2021-05-10T00:00:00.000","Xerographic Copy Center","29.6610406","-82.33906452","NW 13th ST","NW 10th AVE","Nearside","North","Active","POINT (-82.33906452 29.6610406)"
"658","2019-01-23T00:00:00.000","Shands Hospital @ Davis Cancer Pavilion","29.63768794","-82.35042318","Gale Lemerand DR","Archer RD","Nearside","South","Active","POINT (-82.35042318 29.63768794)"
"339","2019-11-12T00:00:00.000","Northbound SE 27th Street @ SE 15th Avenue","29.63705661","-82.28912986","SE 27th ST","SE 15th AVE","Nearside","North","Active","POINT (-82.28912986 29.63705661)"
"858","2017-08-08T00:00:00.000","Lakeside Housing Complex","29.64123127","-82.36410034","Museum RD","Radio RD","Farside","North","Active","POINT (-82.36410034 29.64123127)"
"627","2019-11-20T00:00:00.000","Southbound NE 9th Street @ NE 7th Avenue","29.65863077","-82.31484769","NE 9th ST","NE 7th AVE","Nearside","South","Active","POINT (-82.31484769 29.65863077)"
"1514","2020-03-24T00:00:00.000","Littlewood Elementary School","29.66044331","-82.37246751","NW 34th St","NW 8th Ave","Nearside","South","Active","POINT (-82.37246751 29.66044331)"
"148","2021-06-11T00:00:00.000","W University Ave @ NW 16th St","29.652184","-82.343096","W University AVE","NW 16th ST","Nearside","West","Active","POINT (-82.343096 29.652184)"
"498","2021-06-08T00:00:00.000","NW 16th Ave @ NW 24th St","29.66683606","-82.35802695","NW 16th AVE","NW 24th ST","Nearside","West","Active","POINT (-82.35802695 29.66683606)"
"764","2020-07-06T00:00:00.000","Gainesville Shopping Center South","29.66158478","-82.32459438","N Main ST","NE 10th AVE","Nearside","South","Active","POINT (-82.32459438 29.66158478)"
"1286","2020-01-29T00:00:00.000","Legacy @ Fort Clarke Apartments","29.66719827","-82.43508732","Fort Clarke BLVD","NW 15th PL","Nearside","South","Active","POINT (-82.43508732 29.66719827)"
"745","2020-07-06T00:00:00.000","Highland Court Manor","29.6882554","-82.31056087","NE 39th AVE","NE 12th ST","Nearside","East","Active","POINT (-82.31056087 29.6882554)"
"133","2018-10-15T00:00:00.000","Gainesville Housing Authority","29.63397127","-82.31596136","SE 4th ST","SE 19th PL","Farside","North","Active","POINT (-82.31596136 29.63397127)"
"678","2021-06-08T00:00:00.000","Circle K @ Williston Road","29.61584278","-82.34078552","SW 13th ST","Williston RD","Nearside","South","Active","POINT (-82.34078552 29.61584278)"
"307","2019-11-12T00:00:00.000","Southeast Gator Liquor @ Hawthorne Road","29.64499727","-82.29383753","Hawthorne RD","SE 24th ST","Farside","East","Active","POINT (-82.29383753 29.64499727)"
"930","2019-12-04T00:00:00.000","Gale Lemerand Athletic Center","29.6483911","-82.35373268","Stadium RD","Woodlawn DR","Nearside","West","Active","POINT (-82.35373268 29.6483911)"
"1351","2020-02-05T00:00:00.000","Hailey Gardens","29.63139501","-82.38921346","SW 43rd ST","SW 22nd LN","Nearside","North","Active","POINT (-82.38921346 29.63139501)"
"953","2020-08-26T00:00:00.000","Gainesville Place Apartments","29.62347528","-82.36550084","Gainesville Place Apartments","Gainesville Place Apartments","Farside","North","Active","POINT (-82.36550084 29.62347528)"
"1240","2020-08-17T00:00:00.000","Northbound NE 25th Street @ NE 3rd Place","29.65411694","-82.29226936","NE 25th ST","NE 3rd PL","Nearside","North","Active","POINT (-82.29226936 29.65411694)"
"728","2019-11-27T00:00:00.000","Stephen Foster Elementary School","29.68760476","-82.33084502","NW 6th ST","NW 39th Ave","Farside","South","Active","POINT (-82.33084502 29.68760476)"
"802","2019-11-27T00:00:00.000","Lakeside Apartments","29.6423183","-82.36645192","Radio RD","Museum RD","Farside","West","Active","POINT (-82.36645192 29.6423183)"
"692","2021-05-10T00:00:00.000","Village Square","29.63028527","-82.33917835","SW 13th ST","SW 25th PL","Farside","North","Active","POINT (-82.33917835 29.63028527)"
"1036","2021-06-08T00:00:00.000","Westgate Manor","29.60730781","-82.40556093","Archer RD","SW 58th DR","Farside","West","Active","POINT (-82.40556093 29.60730781)"
"1216","2020-08-26T00:00:00.000","Arlington Square Apartments","29.649863","-82.322475","SE 3rd ST","SE 2nd PL","Nearside","South","Active","POINT (-82.322475 29.649863)"
"325","2021-06-08T00:00:00.000","Verdant Cove Apartments","29.64189987","-82.27241966","SE 43rd ST","SE 10th PL","Nearside","North","Active","POINT (-82.27241966 29.64189987)"
"1560","2020-09-01T00:00:00.000","Eastwood Meadows Community","29.642433","-82.271533","SE 44th ST","SE 10th PL","Farside","South","Active","POINT (-82.271533 29.642433)"
"154","2021-06-11T00:00:00.000","West University Avenue @ NW 23rd Drive","29.6522859","-82.3588583","W University AVE","NW 23rd DR","Nearside","West","Active","POINT (-82.3588583 29.6522859)"
"1415","2020-02-18T00:00:00.000","Family Dollar @ NE 23rd AVE","29.6739856","-82.3205789","NE 23rd AVE","N Main ST","Nearside","West","Active","POINT (-82.3205789 29.6739856)"
"504","2019-11-19T00:00:00.000","NW 16th Boulevard @ NW 37th Boulevard","29.67019172","-82.37998011","NW 16th BLVD","NW 37th BLVD","Farside","West","Active","POINT (-82.37998011 29.67019172)"
"1144","2020-01-09T00:00:00.000","Fraternity Row","29.64644677","-82.35797018","Fraternity Row","Museum RD","Farside","North","Active","POINT (-82.35797018 29.64644677)"
"1050","2021-06-08T00:00:00.000","Bellamy Grand Apartments","29.62839661","-82.42237099","SW 75th ST","SW 24th AVE","Farside","North","Active","POINT (-82.42237099 29.62839661)"
"1538","2020-09-16T00:00:00.000","Hunter's Crossing Shopping Center","29.7019725","-82.38901447","NW 43rd St","NW 52nd Pl","Farside","South","Active","POINT (-82.38901447 29.7019725)"
"811","2019-11-27T00:00:00.000","Pinnacle Point Apartments","29.63411361","-82.37768501","SW 20th AVE","SW 38th ST","Nearside","West","Active","POINT (-82.37768501 29.63411361)"
"966","2019-12-04T00:00:00.000","Weimer Hall","29.6485696","-82.34733385","Stadium RD","Gale Lemerand DR","Farside","East","Active","POINT (-82.34733385 29.6485696)"
"1323","2020-02-05T00:00:00.000","College Manor Apartments","29.65033394","-82.33780135","SW 2nd AVE","SW 13th ST","Nearside","West","Active","POINT (-82.33780135 29.65033394)"
"1104","2020-10-07T00:00:00.000","The Gardens Apartments","29.651929","-82.422549","SW 75th ST","SW 1st PL","Nearside","South","Active","POINT (-82.422549 29.651929)"
"1325","2021-03-10T00:00:00.000","Division of Blind Services","29.68650376","-82.38906317","NW 43rd ST","NW 36th AVE","Nearside","South","Active","POINT (-82.38906317 29.68650376)"
"721","2020-06-26T00:00:00.000","NE 39th Ave @ Farside NE 15th St Westbound","29.68849793","-82.30653636","NE 39th AVE","NE 15th ST","Farside","West","Active","POINT (-82.30653636 29.68849793)"
"446","2019-11-14T00:00:00.000","Shands Hospital @ Archer Road","29.63904961","-82.34408885","Archer RD","SW 16th ST","Farside","West","Active","POINT (-82.34408885 29.63904961)"
"1223","2020-01-15T00:00:00.000","Forest Meadows Funeral Home","29.6738446","-82.33181568","NW 23rd TER","NW 6th ST","Nearside","East","Active","POINT (-82.33181568 29.6738446)"
"1020","2020-10-07T00:00:00.000","Southbound NW 43rd Street @ NW 19th Avenue","29.670114","-82.38912","NW 43rd ST","NW 19th AVE","Nearside","South","Active","POINT (-82.38912 29.670114)"
"53","2021-06-11T00:00:00.000","Innovation Square East","29.65018094","-82.33208414","SW 2nd AVE","SW 7th TER","Farside","East","Active","POINT (-82.33208414 29.65018094)"
"429","2018-11-07T00:00:00.000","Glen Springs Apartments","29.68289084","-82.35157285","NW 21st ST","NW 32nd PL","Farside","South","Active","POINT (-82.35157285 29.68289084)"
"1491","2020-09-02T00:00:00.000","Tax Collector @ Butler Plaza Eastbound","29.6239526","-82.38079895","Windmeadows Blvd","Clark Butler Blvd","Farside","East","Active","POINT (-82.38079895 29.6239526)"
"35","2020-09-16T00:00:00.000","Silver Creek Apartments","29.62907841","-82.3681701","Archer RD","Old Archer Rd onramp","Farside","East","Active","POINT (-82.3681701 29.62907841)"
"1306","2021-01-13T00:00:00.000","Publix @ Butler Plaza","29.62530641","-82.37879407","SW 35th BLVD","Windmeadows BLVD","Farside","South","Active","POINT (-82.37879407 29.62530641)"
"1531","2020-09-02T00:00:00.000","Northbound NW 43rd St @ NW 46th Ave","29.69652036","-82.38879923","NW 43rd St","NW 46th Ave","Nearside","North","Active","POINT (-82.38879923 29.69652036)"
"375","2018-10-31T00:00:00.000","Brook Wood Terrace Neighborhood","29.67645676","-82.34789085","NW 23rd AVE","NW 16th TER","Farside","West","Active","POINT (-82.34789085 29.67645676)"
"223","2021-06-14T00:00:00.000","NW 6th St @ NW 23rd Ave","29.6727886","-82.33073185","NW 6th ST","NW 22nd AVE","Farside","North","Active","POINT (-82.33073185 29.6727886)"
"896","2017-08-08T00:00:00.000","University of Florida Eastside Campus @ Waldo Road","29.67176736","-82.29833884","Waldo RD","NE 21st PL","Farside","South","Active","POINT (-82.29833884 29.67176736)"
"481","2019-11-18T00:00:00.000","University Commons Apartments","29.63026778","-82.36158634","SW 23rd TER","Archer RD","Farside","South","Active","POINT (-82.36158634 29.63026778)"
"529","2019-11-20T00:00:00.000","First Church of the Nazarene","29.6739981","-82.39737817","NW 23rd AVE","NW 51st ST","Nearside","East","Active","POINT (-82.39737817 29.6739981)"
"279","2019-11-07T00:00:00.000","GrannyD's","29.6638831","-82.33100918","NW 6th ST","NW 13th AVE","Nearside","South","Active","POINT (-82.33100918 29.6638831)"
"82","2021-06-11T00:00:00.000","McPherson Recreation Center","29.63375196","-82.30579405","SE 15th ST","SE 22nd AVE","Farside","North","Active","POINT (-82.30579405 29.63375196)"
"166","2021-06-11T00:00:00.000","Gainesville Health and Fitness","29.657615","-82.394869","Newberry RD","NW 48th BLVD","Nearside","West","Active","POINT (-82.394869 29.657615)"
"867","2017-08-08T00:00:00.000","Auto Audio","29.66645793","-82.31060719","NE 16th AVE","NE 12th ST","Nearside","East","Active","POINT (-82.31060719 29.66645793)"
"544","2019-11-20T00:00:00.000","Eastbound NW 16th Avenue @ NW 20th Way","29.66660695","-82.34990068","NW 16th AVE","NW 20th WAY","Nearside","East","Active","POINT (-82.34990068 29.66660695)"
"250","2021-06-02T00:00:00.000","NW 16th Ave @ NW 16th Ter","29.6668221","-82.34306301","NW 16th AVE","NW 16th TER","Nearside","West","Active","POINT (-82.34306301 29.6668221)"
"198","2019-11-06T00:00:00.000","St. Augustine Catholic Church","29.6519771","-82.34643418","W University AVE","Fletcher DR","Nearside","East","Active","POINT (-82.34643418 29.6519771)"
"1003","2019-12-04T00:00:00.000","The Arc","29.68389593","-82.43021649","NW 83rd ST","North RD","Farside","North","Active","POINT (-82.43021649 29.68389593)"
"571","2019-11-20T00:00:00.000","Northbound NE 24th Street @ NE 8th Avenue","29.65916093","-82.29379536","NE 8th AVE","NE 24th ST","Nearside","East","Active","POINT (-82.29379536 29.65916093)"
"1067","2020-01-07T00:00:00.000","Carriage House Lane","29.63058694","-82.42042299","SW 24th AVE","SW 73rd TER","Nearside","West","Active","POINT (-82.42042299 29.63058694)"
"1062","2021-06-08T00:00:00.000","Linton Oaks Neighborhood","29.643025","-82.40822137","SW 61st ST","SW 10th PL","Nearside","South","Active","POINT (-82.40822137 29.643025)"
"31","2021-06-17T00:00:00.000","Regal  Cinema 14 @ Butler Plaza","29.62774011","-82.37767401","Windmeadows BLVD","SW 35th BLVD","Farside","North","Active","POINT (-82.37767401 29.62774011)"
"1388","2020-02-11T00:00:00.000","Sable Chase Neighborhood","29.68853842","-82.37453876","NW 39th AVE","NW 35th ST","Farside","East","Active","POINT (-82.37453876 29.68853842)"
"10","2018-10-03T00:00:00.000","Norman Hall","29.64674428","-82.33717883","SW 12th ST","SW 6th AVE","Farside","South","Active","POINT (-82.33717883 29.64674428)"
"113","2021-06-11T00:00:00.000","SE 15th Street @ SE 7th Avenue","29.6459966","-82.30596103","SE 15th ST","SE 7th AVE","Nearside","South","Active","POINT (-82.30596103 29.6459966)"
"1455","2020-02-19T00:00:00.000","Walmart Northbound","29.70991592","-82.35582366","NW 23rd ST","NW 62nd AVE","Farside","North","Active","POINT (-82.35582366 29.70991592)"
"786","2020-07-06T00:00:00.000","Sweetwater on 16th Apartments (across)","29.63043365","-82.32412812","SE 16th AVE","SE Williston RD","Farside","West","Active","POINT (-82.32412812 29.63043365)"
"414","2018-11-07T00:00:00.000","Barnhill Clinic","29.70259709","-82.36559292","NW 34th ST","NW 29th ST","Farside","South","Active","POINT (-82.36559292 29.70259709)"
"174","2019-11-04T00:00:00.000","Terwilliger Elementary School","29.65587844","-82.40876583","NW 62nd ST","NW 4th PL","Nearside","North","Active","POINT (-82.40876583 29.65587844)"
"87","2021-06-11T00:00:00.000","SE 12th Ave @ SE 17th Ter","29.64022461","-82.30274386","SE 12th AVE","SE 17th TER","Farside","East","Active","POINT (-82.30274386 29.64022461)"
"1267","2021-03-10T00:00:00.000","University Commons Apartments","29.63119394","-82.3632431","Old Archer RD","SW 23rd TER","Farside","West","Active","POINT (-82.3632431 29.63119394)"
"515","2019-11-19T00:00:00.000","Hickory Woods Neighborhood","29.67428977","-82.4151598","NW 23rd AVE","NW 68th TER","Nearside","West","Active","POINT (-82.4151598 29.67428977)"
"345","2020-06-23T00:00:00.000","Harper's Pointe","29.65201731","-82.2952179","E University AVE","SE 24th ST","Farside","West","Active","POINT (-82.2952179 29.65201731)"
"363","2021-06-08T00:00:00.000","SW 13th St @ W University Ave","29.6514826","-82.33919868","SW 13th ST","W University AVE","Nearside","North","Active","POINT (-82.33919868 29.6514826)"
"595","2019-11-20T00:00:00.000","Lake Forest Trails Neighborhood","29.64617144","-82.27239087","SE 43rd ST","SE 6th AVE","Farside","North","Active","POINT (-82.27239087 29.64617144)"
"713","2019-02-07T00:00:00.000","NE 23rd Avenue @ NE 11th Terrace","29.67375829","-82.31113343","NE 23rd AVE","NE 11th TER","Nearside","East","Active","POINT (-82.31113343 29.67375829)"
"312","2019-11-12T00:00:00.000","Durelle Heights Neighborhood","29.63458861","-82.28925253","SE 27th ST","SE 18th AVE","Farside","South","Active","POINT (-82.28925253 29.63458861)"
"925","2019-12-04T00:00:00.000","The HUB","29.6485296","-82.34495985","Stadium RD","Buckman DR","Nearside","East","Active","POINT (-82.34495985 29.6485296)"
"1284","2020-01-29T00:00:00.000","Ft Clarke Middle School","29.673158","-82.439357","Fort Clarke BLVD","NW 23rd AVE","Farside","South","Active","POINT (-82.439357 29.673158)"
"1506","2020-09-02T00:00:00.000","The Trophy Shop","29.65759737","-82.33889224","NW 7th Ave","NW 13th St","Nearside","West","Active","POINT (-82.33889224 29.65759737)"
"672","2021-05-10T00:00:00.000","City College Gainesville","29.62892638","-82.33950127","SW 13th ST","SW 25th PL","Nearside","South","Active","POINT (-82.33950127 29.62892638)"
"1041","2020-01-07T00:00:00.000","Bank of America @ Tower Square on Archer Road","29.60045409","-82.41862589","Archer RD","SW 75th ST","Farside","West","Active","POINT (-82.41862589 29.60045409)"
"391","2018-11-01T00:00:00.000","Gethsemane Lutheran Church","29.69135326","-82.37220451","NW 34th ST","NW 41st AVE","Nearside","North","Active","POINT (-82.37220451 29.69135326)"
"521","2019-11-20T00:00:00.000","Santa Fe College","29.67777977","-82.43053349","NW South RD","NW 83rd ST","Nearside","East","Active","POINT (-82.43053349 29.67777977)"
"1236","2020-01-15T00:00:00.000","Cabana Beach Apartments","29.63591311","-82.39788367","SW 52nd BLVD","SW 20th AVE","Farside","North","Active","POINT (-82.39788367 29.63591311)"
"1124","2020-10-07T00:00:00.000","Dogwood Dog Park","29.60927628","-82.40128033","Archer RD","SW 52nd TER","Nearside","East","Active","POINT (-82.40128033 29.60927628)"
"949","2019-12-04T00:00:00.000","Lexington Crossing Apartments","29.61698278","-82.36263418","SW 27th ST","SW 35th PL","Farside","South","Active","POINT (-82.36263418 29.61698278)"
"476","2021-07-02T00:00:00.000","Parking & Transportation Services","29.639548","-82.350579","Gale Lemerand DR","Mowry RD","Nearside","South","Suspended","POINT (-82.350579 29.639548)"
"757","2020-07-06T00:00:00.000","Pointe 23 Apartments","29.67394919","-82.31690735","NE 23rd AVE","NE 7th TER","Farside","West","Active","POINT (-82.31690735 29.67394919)"
"742","2020-07-06T00:00:00.000","Bella Vista Village (across)","29.68833519","-82.32524606","NW 39th AVE","NW 1st TER","Farside","East","Active","POINT (-82.32524606 29.68833519)"
"127","2018-10-15T00:00:00.000","Lincoln Estates Neighborhood","29.64032782","-82.30574171","SE 12th AVE","SE 15th ST","Nearside","West","Active","POINT (-82.30574171 29.64032782)"
"1471","2020-09-15T00:00:00.000","Domino's Pizza","29.65213105","-82.3712188","W University Ave","NW 33rd Ct","Nearside","East","Active","POINT (-82.3712188 29.65213105)"
"987","2020-10-07T00:00:00.000","Millhopper Branch Library","29.68202931","-82.38884342","NW 43rd ST","NW 31st AVE","Farside","North","Active","POINT (-82.38884342 29.68202931)"
"320","2021-06-15T00:00:00.000","Eastside Food Store","29.63873311","-82.28069337","SE 35th ST","Hawthorne RD","Nearside","North","Active","POINT (-82.28069337 29.63873311)"
"1087","2020-01-07T00:00:00.000","Pine Meadow Apartments","29.65326344","-82.41862299","W University AVE","SW 75th ST","Farside","East","Active","POINT (-82.41862299 29.65326344)"
"409","2018-11-07T00:00:00.000","Walmart Northbound","29.709163","-82.355985","NW 23rd ST","NW 62nd AVE","Farside","South","Active","POINT (-82.355985 29.709163)"
"1549","2020-09-01T00:00:00.000","Hilton Garden Inn","29.62319396","-82.38657029","SW 33rd PL","SW 42nd ST","Nearside","West","Active","POINT (-82.38657029 29.62319396)"
"1582","2020-08-31T00:00:00.000","Fifield Park and Ride","29.64058","-82.36155","Memorial Rd",,,"East","Active","POINT (-82.36155 29.64058)"
"215","2019-11-06T00:00:00.000","Williams Fellowship Hall","29.65737302","-82.33077003","NW 6th ST","NW 7th AVE","Nearside","North","Active","POINT (-82.33077003 29.65737302)"
"425","2019-11-14T00:00:00.000","Eastbound NW 39th Ave at NW 19th St Green Tree Pk","29.68841702","-82.34786804","NW 39th AVE","NW 19th ST","Nearside","East","Active","POINT (-82.34786804 29.68841702)"
"1393","2020-08-14T00:00:00.000","Northbound NW 55th ST @ NW 14th AVE","29.66523744","-82.40143733","NW 55th ST","NW 14th AVE","Nearside","North","Inactive","POINT (-82.40143733 29.66523744)"
"850","2017-08-08T00:00:00.000","GRU Administration Building","29.64831694","-82.32136902","SE 4th AVE","SE 4th ST","Farside","East","Active","POINT (-82.32136902 29.64831694)"
"1025","2020-01-07T00:00:00.000","Landmark Woods Neighborhood","29.66139806","-82.38917626","NW 43rd ST","NW 9th PL","Nearside","South","Active","POINT (-82.38917626 29.66139806)"
"619","2020-06-23T00:00:00.000","Bartley Temple United Methodist Church","29.6596756","-82.29981153","NE 19th ST","NE 8th AVE","Farside","North","Active","POINT (-82.29981153 29.6596756)"
"441","2021-05-10T00:00:00.000","Tigert Hall","29.6500546","-82.33944752","SW 13th ST","SW 2nd AVE","Farside","South","Active","POINT (-82.33944752 29.6500546)"
"592","2021-06-08T00:00:00.000","Lake Forest Trails Neighborhood Southbound","29.64606628","-82.27251019","SE 43rd ST","SE 6th AVE","Nearside","South","Active","POINT (-82.27251019 29.64606628)"
"1125","2020-10-07T00:00:00.000","Hailey Forest Condominiums","29.61197311","-82.3961685","Archer RD","SW 50th ST","Farside","East","Active","POINT (-82.3961685 29.61197311)"
"560","2021-06-04T00:00:00.000","NE 9th Street @ NE 8th Avenue","29.65898662","-82.3147046","NE 9th ST","NE 8th AVE","Nearside","North","Active","POINT (-82.3147046 29.65898662)"
"48","2021-07-02T00:00:00.000","Norman Hall","29.64602661","-82.33702318","SW 12th ST","SW 7th AVE","Farside","North","Suspended","POINT (-82.33702318 29.64602661)"
"1329","2020-02-05T00:00:00.000","Alachua County Juvenile Detention","29.68015559","-82.28020603","NE 39th AVE","Waldo RD","Farside","East","Active","POINT (-82.28020603 29.68015559)"
"1310","2020-02-05T00:00:00.000","Walker Furniture","29.60882961","-82.37349417","SW 47th AVE","SW 34th ST","Nearside","North","Active","POINT (-82.37349417 29.60882961)"
"1527","2020-09-02T00:00:00.000","Northbound NW 43rd St @ NW 39th Ave","29.69021062","-82.38887837","NW 43rd St","NW 39th Ave","Farside","North","Active","POINT (-82.38887837 29.69021062)"
"247","2021-03-10T00:00:00.000","Gainesville High School","29.67050243","-82.33925052","NW 13th ST","NW 19th LN","Nearside","South","Active","POINT (-82.33925052 29.67050243)"
"1127","2021-06-08T00:00:00.000","Archer Rd @ SW 44th St","29.61473602","-82.39068014","Archer RD","SW 44th ST","Nearside","East","Active","POINT (-82.39068014 29.61473602)"
"380","2018-11-01T00:00:00.000","Kiwanis Park","29.6856246","-82.35148401","NW 21st ST","NW 36th AVE","Nearside","North","Active","POINT (-82.35148401 29.6856246)"
"206","2019-11-06T00:00:00.000","AT&T Building","29.65193408","-82.32804658","W University AVE","W 3rd ST","Nearside","East","Active","POINT (-82.32804658 29.65193408)"
"39","2019-10-30T00:00:00.000","The Bartram Apartments","29.63369636","-82.3581948","Archer RD","SW 23rd DR","Farside","East","Active","POINT (-82.3581948 29.63369636)"
