"stop_id","lastupdate","stop_name","latitude","longitude","street","crossroad","position_","direction","status","location"
"886","2017-08-08T00:00:00.000","Job Corps Center","29.70442309","-82.27406287","NE 54th PL","NE 54th AVE","Nearside","West","Active","POINT (-82.27406287 29.70442309)"
"1217","2021-03-10T00:00:00.000","Schiebler Childrens Medical Facility","29.63517394","-82.34565052","SW 16th AVE","Shealy DR","Nearside","West","Active","POINT (-82.34565052 29.63517394)"
"103","2021-06-11T00:00:00.000","SE 24th Street @ E University Avenue","29.65112827","-82.29320086","SE 24th ST","E University AVE","Nearside","North","Active","POINT (-82.29320086 29.65112827)"
"1462","2020-03-19T00:00:00.000","NE 18 ST @ NE 3 AVE","29.6533778","-82.3017928","NE 18 ST","NE 3 AVE","Nearside","North","Active","POINT (-82.3017928 29.6533778)"
"1100","2021-06-08T00:00:00.000","West Newberry Road @ NW 69th Ter","29.65976794","-82.41598699","Newberry RD","NW 69th TER","Nearside","West","Active","POINT (-82.41598699 29.65976794)"
"863","2017-08-08T00:00:00.000","Northbound NE 9th Street @ NE 10th Place","29.66137286","-82.31471379","NE 9th ST","NE 10th PL","Nearside","North","Active","POINT (-82.31471379 29.66137286)"
"1449","2021-06-02T00:00:00.000","Gator City Motors SB N Main St","29.66904445","-82.32428207","Main ST","NW 16th AVE","Nearside","South","Active","POINT (-82.32428207 29.66904445)"
"501","2019-11-19T00:00:00.000","NW 30th Terrace @ NW 16th Avenue","29.66686165","-82.36767463","NW 16th AVE","NW 30th TER","Farside","West","Active","POINT (-82.36767463 29.66686165)"
"197","2019-11-06T00:00:00.000","Ben Hill Griffin Stadium","29.6519746","-82.34904918","W University AVE","Gale Lemerand DR","Farside","East","Active","POINT (-82.34904918 29.6519746)"
"1038","2021-06-08T00:00:00.000","SW Archer Rd @ SW 63rd Blvd","29.60552727","-82.40896546","Archer RD","SW 63rd BLVD","Nearside","West","Active","POINT (-82.40896546 29.60552727)"
"150","2019-10-31T00:00:00.000","University Lutheran Church","29.6521822","-82.34769327","W University AVE","NW 19th ST","Nearside","West","Active","POINT (-82.34769327 29.6521822)"
"673","2021-05-10T00:00:00.000","Wyndham Garden Hotel","29.62440561","-82.33955502","SW 13th ST","SW 14th DR","Nearside","South","Active","POINT (-82.33955502 29.62440561)"
"1535","2020-09-02T00:00:00.000","Northbound NW 34th St @ NW 31st Ave","29.68127738","-82.37231474","NW 34th St","NW 31st Ave","Nearside","North","Active","POINT (-82.37231474 29.68127738)"
"477","2019-11-14T00:00:00.000","Cancer & Genetics Research Center","29.6389188","-82.3514088","Mowry RD","Gale Lemerand DR","Farside","West","Active","POINT (-82.3514088 29.6389188)"
"1146","2020-07-06T00:00:00.000","Beta Theta Pi across Springs","29.648522","-82.35645","Fraternity Row","Woodlawn DR","Nearside","East","Active","POINT (-82.35645 29.648522)"
"1253","2020-01-16T00:00:00.000","Graham Hall","29.64581027","-82.35025685","Gale Lemerand DR","Museum RD","Farside","North","Active","POINT (-82.35025685 29.64581027)"
"461","2020-08-17T00:00:00.000","University Club Apartments","29.62583078","-82.35633251","SW 23rd TER","SW 28th PL","Farside","North","Active","POINT (-82.35633251 29.62583078)"
"859","2020-08-17T00:00:00.000","Cabana Beach Apartments","29.63807828","-82.39798767","SW 52nd BLVD","SW 20th AVE","Nearside","West","Active","POINT (-82.39798767 29.63807828)"
"1456","2020-02-19T00:00:00.000","NE 49th AVE","29.69964419","-82.2782648","NE 49th AVE","Waldo RD","Farside","West","Active","POINT (-82.2782648 29.69964419)"
"366","2021-06-08T00:00:00.000","Alight Gainesville Apartments @ NW 13th St","29.658724","-82.33906869","NW 13th ST","NW 7th AVE","Farside","North","Active","POINT (-82.33906869 29.658724)"
"1219","2020-01-15T00:00:00.000","Webb Livestock Pavilion","29.63398861","-82.35110535","Shealy DR","SW 16th AVE","Nearside","North","Active","POINT (-82.35110535 29.63398861)"
"722","2020-08-17T00:00:00.000","Eden Park at Ironwood","29.68850943","-82.30882702","NE 39th AVE","NE 14th ST","Farside","West","Active","POINT (-82.30882702 29.68850943)"
"1513","2020-09-02T00:00:00.000","Westside Recreation Center","29.66059556","-82.37234847","NW 34th St","NW 8th Ave","Farside","North","Active","POINT (-82.37234847 29.66059556)"
"1324","2020-02-05T00:00:00.000","Sorority Row","29.64482141","-82.33570469","SW 11th ST","SW 8th AVE","Nearside","North","Active","POINT (-82.33570469 29.64482141)"
"661","2019-11-21T00:00:00.000","Regions Bank @ SW 37th Boulevard","29.61964","-82.379477","SW 37th BLVD","SW 38th ST","Nearside","South","Active","POINT (-82.379477 29.61964)"
"343","2020-10-07T00:00:00.000","Dollar General","29.64523094","-82.2936928","Hawthorne RD","SE 24th ST","Nearside","West","Active","POINT (-82.2936928 29.64523094)"
"1301","2021-02-17T00:00:00.000","Stoneridge Apartments","29.61851945","-82.37269734","SW 34th ST","SW 39th BLVD","Nearside","South","Active","POINT (-82.37269734 29.61851945)"
"1","2020-08-24T00:00:00.000","Rosa Parks Downtown Station","29.64556734","-82.32269681","SE 3rd ST","SE 3rd ST","Nearside","North","Active","POINT (-82.32269681 29.64556734)"
"1057","2021-06-08T00:00:00.000","Linton Oaks Neighborhood","29.64318674","-82.40819003","SW 61st ST","SW 10th PL","Farside","North","Active","POINT (-82.40819003 29.64318674)"
"763","2019-11-27T00:00:00.000","Publix @ N Main Street","29.66376429","-82.32458618","N Main ST","NE 14th AVE","Farside","South","Active","POINT (-82.32458618 29.66376429)"
"920","2019-12-04T00:00:00.000","GRU Administration Building","29.64841357","-82.32146051","SE 4th AVE","SE 4th ST","Nearside","West","Active","POINT (-82.32146051 29.64841357)"
"134","2021-07-02T00:00:00.000","Norwood Neighborhood","29.63637452","-82.31723972","SE 4th ST","SE 14th LN","Farside","North","Suspended","POINT (-82.31723972 29.63637452)"
"1542","2020-04-01T00:00:00.000","The Polos Southwest Entrance","29.61357757","-82.35993945","SW 40th Pl","SW 25th Ter","Nearside","East","Active","POINT (-82.35993945 29.61357757)"
"677","2021-05-10T00:00:00.000","The Landings Apartments","29.618568","-82.340371","SW 13th ST","SW 36th PL","Farside","South","Active","POINT (-82.340371 29.618568)"
"482","2019-11-19T00:00:00.000","University of Florida Energy Research","29.62789494","-82.35930918","SW 23rd TER","Archer RD","Farside","South","Active","POINT (-82.35930918 29.62789494)"
"557","2021-06-04T00:00:00.000","NE 9th Street @ NE 3rd Avenue","29.65420459","-82.31468404","NE 9th ST","NE 3rd AVE","Farside","North","Active","POINT (-82.31468404 29.65420459)"
"1352","2020-02-05T00:00:00.000","Forest Park","29.6329738","-82.38911929","SW 43rd ST","SW 21st PL","Farside","North","Active","POINT (-82.38911929 29.6329738)"
"249","2021-03-10T00:00:00.000","Georgetown Apartments","29.6668006","-82.34052118","NW 16th AVE","NW 13th ST","Farside","West","Active","POINT (-82.34052118 29.6668006)"
"727","2019-11-27T00:00:00.000","Oasis Carwash","29.68860624","-82.32784941","NW 39th AVE","NW 6th ST","Nearside","West","Active","POINT (-82.32784941 29.68860624)"
"803","2019-11-27T00:00:00.000","UF Counseling and Wellness Center","29.64230641","-82.3689536","Radio RD","Bledsoe DR","Nearside","West","Active","POINT (-82.3689536 29.64230641)"
"1040","2021-06-08T00:00:00.000","Okito America","29.60210729","-82.41547584","Archer RD","SW 69th TER","Nearside","West","Active","POINT (-82.41547584 29.60210729)"
"1408","2021-05-28T00:00:00.000","Westbound NW 5th AVE @ NW 17th ST","29.65584739","-82.34454084","NW 5th AVE","NW 17th ST","Nearside","West","Active","POINT (-82.34454084 29.65584739)"
"167","2021-06-11T00:00:00.000","Newberry Rd @ NW 51st St","29.65833394","-82.39689833","Newberry RD","NW 51st ST","Farside","West","Active","POINT (-82.39689833 29.65833394)"
"947","2020-06-09T00:00:00.000","Gainesville Place Apartments @ SW 35th Place","29.61968251","-82.36507941","SW 35th PL","SW 28th TER","Farside","East","Active","POINT (-82.36507941 29.61968251)"
"1002","2019-12-04T00:00:00.000","Santa Fe College @ NW 83rd Street","29.68060993","-82.43026999","NW 83rd ST","NW 31st AVE","Nearside","North","Active","POINT (-82.43026999 29.68060993)"
"324","2019-11-12T00:00:00.000","Eastside High School","29.639827","-82.27243","SE 43rd ST","SE 13th AVE","Farside","North","Active","POINT (-82.27243 29.639827)"
"396","2021-06-08T00:00:00.000","NW 34th St @ NW 53rd Ave","29.70273643","-82.36496801","NW 34th ST","NW 29th ST","Nearside","North","Active","POINT (-82.36496801 29.70273643)"
"1497","2020-10-07T00:00:00.000","Alachua School Bus Parking Lot","29.64857171","-82.300287","SE Hawthorne Rd","SE 20th St","Farside","West","Active","POINT (-82.300287 29.64857171)"
"1387","2020-02-11T00:00:00.000","Sable Chase Neighborhood","29.68877336","-82.37455097","NW 39th AVE","NW 35th ST","Nearside","West","Active","POINT (-82.37455097 29.68877336)"
"434","2021-05-10T00:00:00.000","Direct Auto Insurance","29.664547","-82.339285","NW 13th ST","NW 14th AVE","Farside","South","Active","POINT (-82.339285 29.664547)"
"1013","2019-12-05T00:00:00.000","Pine Woods Apartments","29.68854768","-82.39126286","NW 39th AVE","NW 45th ST","Nearside","East","Active","POINT (-82.39126286 29.68854768)"
"1502","2020-03-24T00:00:00.000","Northbound Metcalfe Elementary School","29.66828465","-82.30574735","NE 15th St","NE 18th Ave","Nearside","North","Active","POINT (-82.30574735 29.66828465)"
"7","2021-06-17T00:00:00.000","Infinity Hall","29.65031427","-82.33460268","SW 2nd AVE","SW 10th ST","Nearside","West","Active","POINT (-82.33460268 29.65031427)"
"1186","2020-01-14T00:00:00.000","Lakeside Residential Building","29.64125278","-82.36422348","Museum RD","Radio RD","Farside","South","Active","POINT (-82.36422348 29.64125278)"
"624","2019-11-20T00:00:00.000","Sunny Food Mart","29.65938254","-82.31019822","NE 8th AVE","NE 12th ST","Farside","West","Active","POINT (-82.31019822 29.65938254)"
"175","2021-06-11T00:00:00.000","Oaks Mall @ SW 62nd Street Northbound","29.657894","-82.408798","NW 62nd ST","Newberry RD","Nearside","North","Active","POINT (-82.408798 29.657894)"
"364","2021-06-08T00:00:00.000","Publix @ NW 13th Street and W University Ave","29.65374","-82.339101","NW 13th ST","W University AVE","Farside","North","Active","POINT (-82.339101 29.65374)"
"516","2019-11-19T00:00:00.000","Quail Ridge Neighborhood","29.67430277","-82.41797849","NW 23rd AVE","NW 71st ST","Nearside","West","Active","POINT (-82.41797849 29.67430277)"
"1192","2020-01-14T00:00:00.000","Turlington Hall","29.648079","-82.343575","Newell DR","Union RD","Farside","South","Active","POINT (-82.343575 29.648079)"
"608","2019-11-20T00:00:00.000","Northbound NE 25th Street @ NE 6th Avenue","29.65713327","-82.29227303","NE 25th ST","NE 6th AVE","Farside","North","Active","POINT (-82.29227303 29.65713327)"
"899","2017-08-08T00:00:00.000","Michelle Garden Apartments","29.66658375","-82.30568848","NE 16th AVE","NE 15th ST","Nearside","West","Active","POINT (-82.30568848 29.66658375)"
"714","2020-07-06T00:00:00.000","Boulware Charter School","29.6738115","-82.3082771","NE 23rd AVE","NE 14th ST","Nearside","East","Active","POINT (-82.3082771 29.6738115)"
"844","2017-08-08T00:00:00.000","Maguire Field","29.6409678","-82.36924759","Bledsoe DR","Radio RD","Nearside","North","Active","POINT (-82.36924759 29.6409678)"
"388","2019-11-13T00:00:00.000","Assembly of Gods Church","29.68872401","-82.36650984","NW 39th AVE","NW 29th TER","Farside","West","Active","POINT (-82.36650984 29.68872401)"
"938","2019-12-04T00:00:00.000","Maguire Village @ SW 34th Street","29.64243211","-82.37264884","SW 34th ST","Radio RD","Nearside","South","Active","POINT (-82.37264884 29.64243211)"
"306","2019-11-12T00:00:00.000","Eastbound University Avenue @ SE 24th Street","29.65177477","-82.29373886","E University AVE","SE 24th ST","Nearside","East","Active","POINT (-82.29373886 29.65177477)"
"822","2019-11-27T00:00:00.000","Palm Garden of Gainesville","29.64988594","-82.40664133","SW 62nd BLVD","SW 4th PL","Nearside","North","Active","POINT (-82.40664133 29.64988594)"
"1467","2020-03-19T00:00:00.000","NE 18th St @ NE 8th Ave","29.65892469","-82.30173143","NE 18 ST","NE 8th Ave","Farside","South","Active","POINT (-82.30173143 29.65892469)"
"1169","2020-01-14T00:00:00.000","Northwood Pines Neighborhood","29.704937","-82.360048","NW 34th ST","NW 25th TER","Nearside","North","Active","POINT (-82.360048 29.704937)"
"12","2018-10-03T00:00:00.000","Norman Field @ SW 8th Avenue","29.64495627","-82.33809468","SW 8th AVE","SW 12th ST","Farside","West","Active","POINT (-82.33809468 29.64495627)"
"1507","2016-03-02T00:00:00.000","UF & Shands at Springhill","29.68898608","-82.4344755","NW 39th Ave","NW 83rd St","Farside","West","Proposed","POINT (-82.4344755 29.68898608)"
"523","2019-11-20T00:00:00.000","Shenandoah Neighborhood","29.6740746","-82.42518282","NW 23rd AVE","NW 77th TER","Farside","East","Active","POINT (-82.42518282 29.6740746)"
"522","2019-11-20T00:00:00.000","The Pentecostals of Gainesville","29.67422327","-82.42841316","NW 23rd AVE","NW 83rd ST","Farside","East","Active","POINT (-82.42841316 29.67422327)"
"84","2021-06-11T00:00:00.000","SE 15th Street @ SE 13th Place","29.63904543","-82.30579603","SE 15th ST","SE 13th PL","Farside","North","Active","POINT (-82.30579603 29.63904543)"
"1594","2021-08-25T00:00:00.000","AT&T Store @ NW 4th Place","29.6562723","-82.4087125","NW 4th Place","NW 62nd Street","Nearside","West","Active","POINT (-82.4087125 29.6562723)"
"739","2019-11-27T00:00:00.000","Eastbound NW 39th Avenue @ NW 10th Street","29.68842063","-82.33446234","NW 39th AVE","NW 10th ST","Farside","East","Active","POINT (-82.33446234 29.68842063)"
"758","2019-11-27T00:00:00.000","David's BBQ","29.67285138","-82.31984135","NE 2nd ST","NE 23rd AVE","Farside","South","Active","POINT (-82.31984135 29.67285138)"
"201","2021-06-11T00:00:00.000","West University Ave @ SW 13th St","29.65198277","-82.33823035","W University AVE","SW 13th ST","Farside","East","Active","POINT (-82.33823035 29.65198277)"
"699","2021-06-08T00:00:00.000","Alachua County Supervisor of Elections","29.65633995","-82.32492072","N Main ST","NE 6th AVE","Farside","North","Active","POINT (-82.32492072 29.65633995)"
"1083","2020-10-07T00:00:00.000","Cricket Club Apartments","29.64793527","-82.42229716","SW 75th ST","SW 8th AVE","Nearside","North","Active","POINT (-82.42229716 29.64793527)"
"986","2019-12-04T00:00:00.000","Bank of America @ NW 43rd Street","29.6777446","-82.388858","NW 43rd ST","NW 27th LN","Nearside","North","Active","POINT (-82.388858 29.6777446)"
"666","2019-11-27T00:00:00.000","Health Science Center Administration","29.63739039","-82.3430339","SW 16th ST","SW 16th AVE","Nearside","South","Active","POINT (-82.3430339 29.63739039)"
"1105","2020-01-08T00:00:00.000","Cricket Club Apartments","29.64811325","-82.42253801","SW 75th ST","SW 8th AVE","Nearside","South","Active","POINT (-82.42253801 29.64811325)"
"965","2019-12-04T00:00:00.000","Gator Corner Dining","29.64853144","-82.35011418","Stadium RD","Gale Lemerand DR","Nearside","East","Active","POINT (-82.35011418 29.64853144)"
"1019","2020-10-07T00:00:00.000","St. Michael's Day School","29.67212113","-82.38910801","NW 43rd ST","NW 23rd AVE","Farside","South","Active","POINT (-82.38910801 29.67212113)"
"1264","2020-01-16T00:00:00.000","Cottage Grove Apartments at Gainesville","29.60950178","-82.34185652","SW 13th ST","SW Williston RD","Farside","South","Active","POINT (-82.34185652 29.60950178)"
"1305","2020-02-05T00:00:00.000","Best Buy @ Butler Plaza","29.621497","-82.380736","SW 37th BLVD","Windmeadows BLVD","Nearside","North","Active","POINT (-82.380736 29.621497)"
"1492","2020-09-02T00:00:00.000","Lowe's @ Butler Plaza Westbound","29.62386136","-82.38131131","Windmeadows Blvd","Clark Butler Blvd","Nearside","West","Active","POINT (-82.38131131 29.62386136)"
"468","2019-11-14T00:00:00.000","Parking & Transportation Services","29.63979111","-82.35038735","Gale Lemerand DR","Mowry RD","Farside","North","Active","POINT (-82.35038735 29.63979111)"
"744","2019-11-27T00:00:00.000","Wade Raulerson Honda Dealership","29.68830659","-82.31852102","NE 39th AVE","N Main ST","Farside","East","Active","POINT (-82.31852102 29.68830659)"
"217","2019-11-06T00:00:00.000","Big Ron's Yoga","29.66099543","-82.33080268","NW 6th ST","NW 10th AVE","Nearside","North","Active","POINT (-82.33080268 29.66099543)"
"1285","2020-01-29T00:00:00.000","Southbound Fort Clarke Boulevard @ Eagle Point","29.669047","-82.43736","Fort Clarke BLVD","NW 17th PL","Nearside","South","Active","POINT (-82.43736 29.669047)"
"929","2019-12-04T00:00:00.000","O'Connell Center @ Stadium Road","29.6485231","-82.35048301","Stadium RD","Gale Lemerand DR","Farside","West","Active","POINT (-82.35048301 29.6485231)"
"1121","2021-06-02T00:00:00.000","Radiant Credit Union @ Archer Rd","29.60508744","-82.40924596","Archer RD","SW 63rd BLVD","Nearside","East","Active","POINT (-82.40924596 29.60508744)"
"255","2019-11-07T00:00:00.000","Burlington @ NW 13th Street","29.67746376","-82.33896085","NW 13th ST","NW 26th PL","Farside","North","Active","POINT (-82.33896085 29.67746376)"
"1525","2020-09-02T00:00:00.000","Northbound NW 34th St @ NW 31st Blvd","29.68658377","-82.3722623","NW 34th St","NW 31st Blvd","Nearside","North","Active","POINT (-82.3722623 29.68658377)"
"553","2021-06-04T00:00:00.000","Alachua County Library Headquarters","29.65176577","-82.32231769","SE 3rd ST","E University AVE","Nearside","North","Active","POINT (-82.32231769 29.65176577)"
"1235","2020-01-15T00:00:00.000","Super Wal-mart @ NE 12th Avenue","29.66283893","-82.30220653","NE 12th AVE","Waldo RD","Nearside","West","Active","POINT (-82.30220653 29.66283893)"
"278","2019-11-07T00:00:00.000","Atlantic Design","29.6660861","-82.33095418","NW 6th ST","NW 16th AVE","Farside","South","Active","POINT (-82.33095418 29.6660861)"
"1395","2020-08-14T00:00:00.000","Southbound NW 55th ST @ NW 9th LN","29.66083227","-82.40158333","NW 55th ST","NW 9th LN","Farside","South","Inactive","POINT (-82.40158333 29.66083227)"
"1561","2020-09-01T00:00:00.000","Haile Plantation I","29.60716487","-82.4381515","SW 51st Road","SW 91st Ter","Farside","West","Active","POINT (-82.4381515 29.60716487)"
"56","2021-06-11T00:00:00.000","SW 2nd Ave @ SW 2nd St","29.650203","-82.326684","SW 2nd AVE","SW 2nd ST","Nearside","East","Active","POINT (-82.326684 29.650203)"
"1063","2021-07-02T00:00:00.000","Linton Oaks Neighborhood","29.64045782","-82.40726909","SW 61st ST","SW 20th AVE","Nearside","South","Suspended","POINT (-82.40726909 29.64045782)"
"979","2020-10-07T00:00:00.000","Landmark Woods Neighborhood","29.66328133","-82.38891734","NW 43rd ST","NW 12th AVE","Nearside","North","Active","POINT (-82.38891734 29.66328133)"
"1139","2020-01-09T00:00:00.000","Casablanca Apartments","29.61991231","-82.36126334","SW 35th PL","SW 27th ST","Nearside","West","Active","POINT (-82.36126334 29.61991231)"
"570","2019-11-20T00:00:00.000","Eastbound NE 8th Avenue @ NE 22nd Street","29.65918177","-82.29602286","NE 8th AVE","NE 22nd ST","Nearside","East","Active","POINT (-82.29602286 29.65918177)"
"33","2018-10-10T00:00:00.000","Spanish Trace Apartments","29.62816728","-82.37429067","Windmeadows BLVD","SW 34th ST","Nearside","East","Active","POINT (-82.37429067 29.62816728)"
"1341","2020-02-05T00:00:00.000","Enclave 4","29.62278261","-82.36676568","Enclave Apartments","Enclave Apartments","Nearside","East","Active","POINT (-82.36676568 29.62278261)"
"1206","2020-01-15T00:00:00.000","Arlington Square Apartments","29.64951749","-82.32230172","SE 3rd ST","SE 2nd PL","Nearside","North","Active","POINT (-82.32230172 29.64951749)"
"1472","2020-03-19T00:00:00.000","Kauffman Tires","29.651786","-82.375868","W University Ave","SW 36th St","Nearside","East","Active","POINT (-82.375868 29.651786)"
"412","2019-11-13T00:00:00.000","Northwood Pines Neighborhood","29.70519255","-82.35971591","NW 34th ST","NW 23rd TER","Nearside","South","Active","POINT (-82.35971591 29.70519255)"
"426","2018-11-07T00:00:00.000","Ridgeview Baptist Church","29.68588793","-82.34743935","NW 19th ST","NW 36th AVE","Nearside","South","Active","POINT (-82.34743935 29.68588793)"
"447","2019-11-14T00:00:00.000","Hunters Run Apartments","29.61278861","-82.35933118","SW 25th TER","Williston RD","Farside","North","Active","POINT (-82.35933118 29.61278861)"
"783","2019-02-28T00:00:00.000","Chevron Gas Station @ Williston Road","29.63507215","-82.31778641","Williston RD","SE 4th ST","Farside","South","Active","POINT (-82.31778641 29.63507215)"
"598","2021-06-08T00:00:00.000","Eastside Plaza Westbound","29.65197077","-82.27698441","E University AVE","SE 39th ST","Farside","West","Active","POINT (-82.27698441 29.65197077)"
"50","2021-07-02T00:00:00.000","Campus USA Credit Union","29.6481866","-82.33707502","SW 12th ST","SW 4th AVE","Nearside","North","Suspended","POINT (-82.33707502 29.6481866)"
"34","2021-06-11T00:00:00.000","Archer Rd @ SW 34th St","29.62758089","-82.37119809","Archer RD","SW 34th ST","Farside","East","Active","POINT (-82.37119809 29.62758089)"
"895","2017-08-08T00:00:00.000","BP Gas Station @ NE 23rd Avenue","29.67372909","-82.29801264","NE 23rd AVE","Waldo RD","Nearside","East","Active","POINT (-82.29801264 29.67372909)"
"374","2020-06-26T00:00:00.000","UF Health Homecare","29.67407376","-82.34277369","NW 23rd AVE","NW 16th TER","Nearside","West","Active","POINT (-82.34277369 29.67407376)"
"528","2019-11-20T00:00:00.000","Northwest Baptist Church","29.6740061","-82.40184483","NW 23rd AVE","NW 55th ST","Nearside","East","Active","POINT (-82.40184483 29.6740061)"
"75","2019-10-30T00:00:00.000","Robinson Heights","29.615717","-82.305947","SE 15th ST","SE 41st AVE","Nearside","South","Active","POINT (-82.305947 29.615717)"
"1482","2020-09-02T00:00:00.000","Lake Alice Conservation Area","29.638446","-82.353818","Mowry Rd","SW 23 Dr","Nearside","West","Active","POINT (-82.353818 29.638446)"
"996","2020-10-07T00:00:00.000","Emerald Woods Neighborhood","29.68890359","-82.41596868","NW 39th AVE","NW 59th ST","Nearside","West","Active","POINT (-82.41596868 29.68890359)"
"18","2019-10-30T00:00:00.000","Shands Hospital @ Davis Cancer Pavilion","29.63702289","-82.34988451","Archer RD","Gale Lemerand DR","Nearside","West","Active","POINT (-82.34988451 29.63702289)"
"788","2019-03-05T00:00:00.000","Winn Dixie @ SW 16th Avenue","29.63629061","-82.32859485","SW 16th AVE","SW 6th ST","Nearside","West","Active","POINT (-82.32859485 29.63629061)"
"277","2019-11-07T00:00:00.000","Acupuncture Center","29.66913227","-82.33092902","NW 6th ST","NW 19th AVE","Farside","South","Active","POINT (-82.33092902 29.66913227)"
"990","2021-06-15T00:00:00.000","Magnolia Parke","29.68878626","-82.39289991","NW 39th AVE","NW 46th TER","Nearside","West","Active","POINT (-82.39289991 29.68878626)"
"1066","2021-06-08T00:00:00.000","SW 24th Ave @ SW 70th Ter","29.63102836","-82.41807139","SW 24th AVE","SW 70th TER","Farside","West","Active","POINT (-82.41807139 29.63102836)"
"508","2019-11-19T00:00:00.000","Millhopper Shopping Center","29.67362143","-82.38766433","NW 16th BLVD","NW 43rd ST","Nearside","West","Active","POINT (-82.38766433 29.67362143)"
"704","2019-02-07T00:00:00.000","Kangaroo @ N Main St","29.66639816","-82.32439379","N Main ST","NE 16th AVE","Nearside","North","Active","POINT (-82.32439379 29.66639816)"
"162","2019-10-31T00:00:00.000","Tire Kingdom @ Newberry Road","29.65380844","-82.384512","Newberry RD","NW 39th RD","Farside","West","Active","POINT (-82.384512 29.65380844)"
"810","2020-08-17T00:00:00.000","Windsor Terrace Apartments","29.63422252","-82.37490668","SW 20th AVE","SW 34th ST","Farside","West","Active","POINT (-82.37490668 29.63422252)"
"849","2017-08-08T00:00:00.000","Hume Hall","29.64483661","-82.35198835","Museum RD","Gale Lemerand DR","Nearside","East","Active","POINT (-82.35198835 29.64483661)"
"1136","2020-01-09T00:00:00.000","Wilmot Gardens","29.639628","-82.349386","Mowry RD","Gale Lemerand DR",,"West","Active","POINT (-82.349386 29.639628)"
"1270","2021-06-04T00:00:00.000","SW 32nd Ter @ Old Archer Rd","29.626849","-82.37054","Gainesville Place Entrance","Old Archer Road","Farside","South","Active","POINT (-82.37054 29.626849)"
"969","2019-12-04T00:00:00.000","Nationwide Insurance @ Williston Road","29.6061827","-82.36775094","Williston RD","SW 29Th Dr","Farside","West","Active","POINT (-82.36775094 29.6061827)"
"1024","2020-01-07T00:00:00.000","Landmark Woods Neighborhood","29.66322427","-82.38917833","NW 43rd ST","NW 12th AVE","Farside","South","Active","POINT (-82.38917833 29.66322427)"
"1091","2020-01-07T00:00:00.000","Home Depot @ NW 4th Boulevard","29.65618235","-82.41849854","NW 4th BLVD","NW 75th ST","Nearside","West","Active","POINT (-82.41849854 29.65618235)"
"182","2021-06-08T00:00:00.000","Gainesville Health and Fitness","29.65727377","-82.39470833","Newberry RD","NW 48th BLVD","Nearside","East","Active","POINT (-82.39470833 29.65727377)"
"473","2019-11-14T00:00:00.000","Reitz Student Union","29.64514027","-82.34698268","McCarty DR","Museum RD","Nearside","South","Active","POINT (-82.34698268 29.64514027)"
"1289","2020-02-04T00:00:00.000","Pepboys Auto @ Newberry RD","29.65959694","-82.42497132","Newberry RD","NW 76th BLVD","Nearside","East","Active","POINT (-82.42497132 29.65959694)"
"488","2019-11-19T00:00:00.000","Countryside at the University Apartments","29.61598136","-82.35541365","SW 23rd TER","Williston RD","Nearside","South","Active","POINT (-82.35541365 29.61598136)"
"295","2019-11-12T00:00:00.000","Williams Elementary School","29.6457296","-82.30893653","SE 7th AVE","SE 12th TER","Farside","East","Active","POINT (-82.30893653 29.6457296)"
"1487","2020-09-02T00:00:00.000","New RTS Maintenance Facility North","29.63811265","-82.32569067","SE 1st St","SE 13th AVE","Nearside","North","Active","POINT (-82.32569067 29.63811265)"
"1581","2021-07-02T00:00:00.000","McKnight Brain Institute","29.64189","-82.343671","Newell Dr","Newell Dr","Farside","North","Suspended","POINT (-82.343671 29.64189)"
"1309","2020-02-05T00:00:00.000","Williston Plaza","29.60638462","-82.37261401","SW 48th LN","SW 34th ST","Nearside","West","Active","POINT (-82.37261401 29.60638462)"
"749","2019-11-27T00:00:00.000","Village Green Apartments","29.68351123","-82.30587477","NE 15th ST","NE 31st AVE","Farside","South","Active","POINT (-82.30587477 29.68351123)"
"644","2019-11-20T00:00:00.000","Kangaroo @ SW 34th Street","29.62244298","-82.3725812","SW 34th ST","SW 35th AVE","Farside","North","Active","POINT (-82.3725812 29.62244298)"
"222","2021-06-11T00:00:00.000","Hand N' Hand Day Care Northbound","29.67056243","-82.33075352","NW 6th ST","NW 19th LN","Farside","North","Active","POINT (-82.33075352 29.67056243)"
"1109","2020-10-07T00:00:00.000","Tower 24 Shopping Center","29.62891728","-82.42259316","SW 75th ST","SW 26th AVE","Nearside","South","Active","POINT (-82.42259316 29.62891728)"
"1239","2020-09-23T00:00:00.000","Caroline Manor Affordable Housing","29.65200294","-82.2919187","E University AVE","NE 25th ST","Nearside","West","Active","POINT (-82.2919187 29.65200294)"
"769","2019-11-27T00:00:00.000","The Collier Companies","29.65376363","-82.32512619","N Main ST","NW 2nd AVE","Nearside","South","Active","POINT (-82.32512619 29.65376363)"
"873","2017-08-08T00:00:00.000","BP Gas Station @ NE 23rd Avenue","29.67387093","-82.29795153","NE 23rd AVE","Waldo RD","Farside","West","Active","POINT (-82.29795153 29.67387093)"
"1158","2020-01-14T00:00:00.000","Walker Hall","29.64968846","-82.34155571","Union RD","Newell DR","Farside","East","Active","POINT (-82.34155571 29.64968846)"
"1517","2020-09-02T00:00:00.000","Northbound NW 34th St @ NW 16th Ave","29.66848987","-82.37231785","NW 34th St","NW 16th Ave","Farside","North","Active","POINT (-82.37231785 29.66848987)"
"282","2019-11-07T00:00:00.000","Greater Bethel African Methodist Episcopal Church","29.65639446","-82.33087253","NW 6th ST","NW 6th AVE","Farside","South","Active","POINT (-82.33087253 29.65639446)"
"26","2021-03-10T00:00:00.000","Whole Foods @ Butler Town Center","29.62560361","-82.37439434","Archer RD","SW 34th ST","Farside","West","Active","POINT (-82.37439434 29.62560361)"
"576","2019-11-20T00:00:00.000","Southbound NE 25th Street @ NE 11th Place","29.6630651","-82.29204603","NE 25th ST","NE 11th PL","Farside","South","Active","POINT (-82.29204603 29.6630651)"
"1183","2020-01-14T00:00:00.000","Cultural Plaza Park and Ride 1","29.63673627","-82.36795351","Hull RD","Bledsoe DR","Farside","East","Active","POINT (-82.36795351 29.63673627)"
"63","2021-07-02T00:00:00.000","Norwood Neighborhood","29.63624575","-82.31726257","SE 4th ST","SE 14th LN","Nearside","South","Suspended","POINT (-82.31726257 29.63624575)"
"1333","2020-02-05T00:00:00.000","Enclave 1","29.62541033","-82.36779262","SW 32nd Terrace","None","Farside","East","Active","POINT (-82.36779262 29.62541033)"
"142","2021-06-11T00:00:00.000","The Seagle Building","29.652085","-82.328769","W University AVE","W 3rd ST","Farside","West","Active","POINT (-82.328769 29.652085)"
"833","2020-07-06T00:00:00.000","Addison Lane","29.63429594","-82.3848395","SW 20th AVE","SW 40th TER","Nearside","East","Active","POINT (-82.3848395 29.63429594)"
"1428","2020-02-18T00:00:00.000","FDOT Operations Center","29.6734376","-82.2639662","NE 39th AVE","NE 52nd  ST","Nearside","North","Active","POINT (-82.2639662 29.6734376)"
"406","2021-06-08T00:00:00.000","Pineridge III","29.71133576","-82.36017484","NW 23rd TER","NW 62nd AVE","Nearside","North","Active","POINT (-82.36017484 29.71133576)"
"1049","2020-01-07T00:00:00.000","Tower Road Branch Library","29.62610332","-82.42245869","SW 75th ST","SW 24th AVE","Farside","North","Active","POINT (-82.42245869 29.62610332)"
"1196","2020-01-15T00:00:00.000","Animal Science Building","29.63158944","-82.35143001","Shealy DR","SW 16th AVE","Farside","South","Active","POINT (-82.35143001 29.63158944)"
"569","2019-11-20T00:00:00.000","Duval Elementary School","29.6591796","-82.29821669","NE 8th AVE","NE 20th ST","Farside","East","Active","POINT (-82.29821669 29.6591796)"
"1548","2020-09-16T00:00:00.000","Sam's Club Eastbound","29.62299946","-82.38345284","SW 33rd PL","SW 37th Blvd","Nearside","East","Active","POINT (-82.38345284 29.62299946)"
"452","2019-11-14T00:00:00.000","Gainesville Place Apartments @ SW 35th Place","29.61979926","-82.36474101","SW 35th PL","SW 28th TER","Nearside","West","Active","POINT (-82.36474101 29.61979926)"
"216","2019-11-06T00:00:00.000","Gainesville Police Department","29.659092","-82.330762","NW 6th ST","NW 8th AVE","Nearside","North","Active","POINT (-82.330762 29.659092)"
"336","2019-11-12T00:00:00.000","Faith Missionary Church","29.63265844","-82.28569037","SE 21st AVE","SE 30th Dr","Farside","West","Active","POINT (-82.28569037 29.63265844)"
"413","2019-11-13T00:00:00.000","Northwood Oaks Neighborhood","29.70408409","-82.36223334","NW 34th ST","NW 54th AVE","Nearside","South","Active","POINT (-82.36223334 29.70408409)"
"623","2021-06-15T00:00:00.000","Martin Luther King Center and Citizens Field","29.6593761","-82.30803611","NE 8th AVE","NE 13th ST","Nearside","West","Active","POINT (-82.30803611 29.6593761)"
"85","2021-06-11T00:00:00.000","Lincoln Estates Neighborhood","29.64024461","-82.30544869","SE 12th AVE","SE 15th ST","Farside","East","Active","POINT (-82.30544869 29.64024461)"
"442","2021-05-10T00:00:00.000","Southbound SW 13th Street @ Inner Road","29.64766494","-82.33951718","SW 13th ST","Inner RD","Nearside","South","Active","POINT (-82.33951718 29.64766494)"
"118","2021-04-23T00:00:00.000","Shands Cancer Hospital","29.63924527","-82.34271735","Archer RD","SW 16th ST","Farside","East","Active","POINT (-82.34271735 29.63924527)"
"1530","2020-09-02T00:00:00.000","Southbound NW 43rd St @ NW 44th Ave","29.6940835","-82.38903565","NW 43rd St","NW 44th Ave","Farside","South","Active","POINT (-82.38903565 29.6940835)"
"379","2018-10-31T00:00:00.000","Northbound NW 21st Avenue @ NW 33rd Avenue","29.68332198","-82.35148758","NW 21st ST","NW 33rd AVE","Nearside","North","Active","POINT (-82.35148758 29.68332198)"
"38","2021-06-16T00:00:00.000","University Commons Apartments @ Archer Road","29.63196028","-82.36199718","Archer RD","SW 23rd TER","Nearside","East","Active","POINT (-82.36199718 29.63196028)"
"323","2021-06-08T00:00:00.000","Circle K Mobil Gas @ Hawthorne Rd","29.63621577","-82.27241187","SE 43rd ST","Hawthorne RD","Farside","North","Active","POINT (-82.27241187 29.63621577)"
"669","2021-05-10T00:00:00.000","Liv+ Apartments 13th St","29.6343996","-82.339784","SW 13th ST","SW 18th PL","Nearside","South","Active","POINT (-82.339784 29.6343996)"
"1277","2020-01-28T00:00:00.000","Legacy @ Fort Clarke Apartments","29.66746594","-82.43511415","Fort Clarke BLVD","NW 15th PL","Farside","North","Active","POINT (-82.43511415 29.66746594)"
"688","2021-05-10T00:00:00.000","Tanglewood Apartments","29.62330344","-82.33934468","SW 13th ST","SW 14th DR","Nearside","North","Active","POINT (-82.33934468 29.62330344)"
"241","2019-11-07T00:00:00.000","Grace Presbyterian Church","29.68135439","-82.33920944","NW 13th ST","NW 31st AVE","Nearside","South","Active","POINT (-82.33920944 29.68135439)"
"1033","2021-06-08T00:00:00.000","SW Archer Road @ SW 50th Street","29.61213662","-82.39635156","Archer RD","SW 50th ST","Nearside","West","Active","POINT (-82.39635156 29.61213662)"
"1071","2020-06-11T00:00:00.000","The Woodlands Neighborhood","29.64260511","-82.42238316","SW 75th ST","SW 10th PL","Nearside","North","Active","POINT (-82.42238316 29.64260511)"
"261","2019-11-07T00:00:00.000","Sunshine Inn","29.691674","-82.338877","NW 13th ST","NW 42nd AVE","Nearside","North","Active","POINT (-82.338877 29.691674)"
"815","2020-07-06T00:00:00.000","Circle K SW 20th Ave Westbound","29.63573114","-82.38820978","SW 20th AVE","SW 42nd DR","Farside","West","Active","POINT (-82.38820978 29.63573114)"
"612","2019-11-20T00:00:00.000","Westbound NE 12th Avenue @ NE 24th Terrace","29.663785","-82.292497","NE 12th AVE","NE 24th TER","Nearside","West","Active","POINT (-82.292497 29.663785)"
"1466","2020-03-19T00:00:00.000","NE 18th St @ NE 8th Ave","29.65903474","-82.30159401","NE 18 ST","Ne 8th Ave","Nearside","North","Active","POINT (-82.30159401 29.65903474)"
"1539","2020-09-02T00:00:00.000","Possum Creek Park","29.702658","-82.386707","NW 41st Ter","NW 53rd Ave","Farside","North","Active","POINT (-82.386707 29.702658)"
"448","2020-06-09T00:00:00.000","Westbound SW 40th Place @ NW 26th Terrace","29.61365117","-82.3601048","SW 40th PL","SW 26th TER","Nearside","West","Active","POINT (-82.3601048 29.61365117)"
"512","2019-11-19T00:00:00.000","Northwest Baptist Church","29.67419968","-82.40228299","NW 23rd AVE","NW 55th ST","Farside","West","Active","POINT (-82.40228299 29.67419968)"
"853","2017-08-08T00:00:00.000","Northbound SE 11th Street @ SE 2nd Avenue","29.64988527","-82.31131336","SE 11th ST","SE 2nd AVE","Nearside","North","Active","POINT (-82.31131336 29.64988527)"
"316","2019-11-12T00:00:00.000","SE 35th St @ SE 21st Avenue","29.63254327","-82.2809372","SE 21st AVE","SE 35th ST","Nearside","East","Active","POINT (-82.2809372 29.63254327)"
"887","2017-08-08T00:00:00.000","BP Gas Station @ Waldo Road","29.70288246","-82.27894958","Waldo RD","NE 53rd AVE","Nearside","South","Active","POINT (-82.27894958 29.70288246)"
"370","2021-05-10T00:00:00.000","PNC Bank @ NW 13th Street","29.66848245","-82.33902418","NW 13th ST","NW 18th AVE","Farside","North","Active","POINT (-82.33902418 29.66848245)"
"681","2021-05-10T00:00:00.000","US441 South","29.60755573","-82.34214467","SW 13th ST","Williston RD","Farside","South","Active","POINT (-82.34214467 29.60755573)"
"1593","2021-04-22T00:00:00.000","Social Security Administration Northbound","29.6968215","-82.3391622","NW 13th St","NW 45th Ave","Farside","North","Active","POINT (-82.3391622 29.6968215)"
"1126","2021-06-08T00:00:00.000","Haystacks Community","29.61312134","-82.3939459","Archer RD","SW 47th TER","Nearside","East","Active","POINT (-82.3939459 29.61312134)"
"157","2021-06-11T00:00:00.000","Westgate Shopping Center","29.65229344","-82.36962801","W University AVE","NW 32nd ST","Nearside","West","Active","POINT (-82.36962801 29.65229344)"
"349","2019-11-12T00:00:00.000","Westbound E University Avenue @ NE 16th Street","29.652019","-82.304166","E University AVE","NE 16th ST","Nearside","West","Active","POINT (-82.304166 29.652019)"
"176","2021-06-11T00:00:00.000","McDonalds @ Newberry Road","29.65947","-82.407881","Newberry RD","NW 62nd ST","Farside","East","Active","POINT (-82.407881 29.65947)"
"718","2019-02-07T00:00:00.000","Northbound NE 15th Street @ NE 31st Avenue","29.68176926","-82.30572686","NE 15th ST","NE 31st AVE","Farside","North","Active","POINT (-82.30572686 29.68176926)"
"1295","2020-02-05T00:00:00.000","Stratford Court Apartments","29.646832","-82.335084","SW 10th ST","SW 6th AVE","Nearside","South","Active","POINT (-82.335084 29.646832)"
"1443","2020-02-18T00:00:00.000","North Point @ Ironwood","29.69810012","-82.30586309","NE 15th ST","NE 47th PL","Nearside","South","Active","POINT (-82.30586309 29.69810012)"
"478","2019-11-14T00:00:00.000","IFAS Lab","29.63827953","-82.35697034","Mowry RD","Hull RD","Farside","West","Active","POINT (-82.35697034 29.63827953)"
"794","2019-03-05T00:00:00.000","Sai Quick Stop","29.63637861","-82.33806602","SW 16th AVE","SW 13th ST","Farside","East","Active","POINT (-82.33806602 29.63637861)"
"1097","2020-01-07T00:00:00.000","Oaks Mall","29.6595136","-82.41387533","Newberry RD","Oaks Mall","Nearside","East","Active","POINT (-82.41387533 29.6595136)"
"129","2021-06-11T00:00:00.000","McPherson Recreation Center Southbound","29.63373294","-82.30590919","SE 15th ST","SE 22nd AVE","Nearside","South","Active","POINT (-82.30590919 29.63373294)"
"483","2019-11-19T00:00:00.000","University Club Apartments","29.62536578","-82.35634218","SW 23rd TER","SW 31 PL","Nearside","South","Active","POINT (-82.35634218 29.62536578)"
"1328","2020-02-05T00:00:00.000","Eastbound SW 7th AVE @ SW 10th ST","29.64568438","-82.33510106","SW 7th AVE","SW 10th ST","Nearside","East","Active","POINT (-82.33510106 29.64568438)"
"1477","2020-03-19T00:00:00.000","Kangaroo Station","29.68880361","-82.44220971","NW 39th Ave","NW 92nd Ct","Nearside","East","Active","POINT (-82.44220971 29.68880361)"
"1113","2020-06-15T00:00:00.000","Tower Village","29.61239305","-82.42263565","SW 75th ST","SW 45th PL","Farside","South","Active","POINT (-82.42263565 29.61239305)"
"1248","2020-01-16T00:00:00.000","Parkside II Apartments","29.642824","-82.335418","Depot AVE","SW 11th ST","Nearside","West","Active","POINT (-82.335418 29.642824)"
"676","2021-05-10T00:00:00.000","Chop Stix Cafe","29.62091311","-82.34002318","SW 13th ST","SW 14th DR","Farside","South","Active","POINT (-82.34002318 29.62091311)"
"828","2020-08-17T00:00:00.000","Rockwood Villas Apartments","29.644412","-82.399155","SW 62nd BLVD","SW 9th PL","Nearside","South","Active","POINT (-82.399155 29.644412)"
"1359","2020-02-05T00:00:00.000","Gainesville Healthcare Center","29.63738241","-82.34287485","SW 16th ST","Circle of Hope","Nearside","North","Active","POINT (-82.34287485 29.63738241)"
"1044","2020-10-07T00:00:00.000","Kanapaha Middle School","29.60702578","-82.42254033","SW 75th ST","SW 51st BLVD","Farside","North","Active","POINT (-82.42254033 29.60702578)"
"207","2021-06-11T00:00:00.000","West University Ave @ SW 1st St","29.65186166","-82.32601734","W University AVE","SW 1st ST","Nearside","East","Active","POINT (-82.32601734 29.65186166)"
"538","2019-11-20T00:00:00.000","Covenant Church","29.66666059","-82.36891011","NW 16th AVE","NW 31st TER","Nearside","East","Active","POINT (-82.36891011 29.66666059)"
"952","2020-08-26T00:00:00.000","Gainesville Place Apartments","29.62192044","-82.36515984","Gainesville Place Apartments","Gainesville Place Apartments","Farside","North","Active","POINT (-82.36515984 29.62192044)"
"402","2019-11-13T00:00:00.000","ABC Liquor Store @ NW 34th Street","29.709592","-82.354333","NW 34th ST","NW 58th AVE","Nearside","South","Active","POINT (-82.354333 29.709592)"
"92","2021-06-11T00:00:00.000","Lincoln Estates Neighborhood","29.64444194","-82.29935353","SE 19th TER","SE 8th AVE","Nearside","North","Active","POINT (-82.29935353 29.64444194)"
"869","2017-08-08T00:00:00.000","Fair View Apartments","29.66643406","-82.30408831","NE 16th AVE","NE 16th TER","Nearside","East","Active","POINT (-82.30408831 29.66643406)"
"1191","2020-08-26T00:00:00.000","Family Housing","29.63941661","-82.37065234","Family Housing","Hull RD","Farside","South","Active","POINT (-82.37065234 29.63941661)"
"957","2021-06-04T00:00:00.000","The Trails Apartments","29.6293415","-82.37241262","SW 34th ST","Windmeadows BLVD","Farside","North","Active","POINT (-82.37241262 29.6293415)"
"1006","2019-12-04T00:00:00.000","Robin Lane Neighborhood","29.688643","-82.422159","NW 39th AVE","NW 75th ST","Farside","East","Active","POINT (-82.422159 29.688643)"
"329","2021-06-08T00:00:00.000","SE 43rd St @ Hawthorne Rd","29.63622277","-82.27255904","SE 43rd ST","Hawthorne RD","Nearside","South","Active","POINT (-82.27255904 29.63622277)"
"418","2018-11-07T00:00:00.000","Southbound NW 34th Street @ NW 41st Avenue","29.6909001","-82.37238334","NW 34th ST","NW 41st AVE","Farside","South","Active","POINT (-82.37238334 29.6909001)"
"1318","2020-08-17T00:00:00.000","GRACE Marketplace","29.68357085","-82.28617224","NE 39th AVE","Waldo RD","Nearside","West","Active","POINT (-82.28617224 29.68357085)"
"1177","2020-01-14T00:00:00.000","Fifield Hall","29.63772561","-82.36002101","Hull RD","Mowry RD","Farside","West","Active","POINT (-82.36002101 29.63772561)"
"1501","2020-09-02T00:00:00.000","NE 15th St @ NE 8th Ave","29.659135","-82.305768","NE 15th St","NE 8th Ave","Nearside","North","Active","POINT (-82.305768 29.659135)"
"632","2020-08-17T00:00:00.000","Florida School of Traditional Midwifery","29.6520268","-82.3163835","E University AVE","NE 8th ST","Nearside","West","Active","POINT (-82.3163835 29.6520268)"
"1552","2020-04-02T00:00:00.000","Kangaroo Excpress @ Newberry/Tower Road","29.65958521","-82.42257182","Newberry RD","NW 75th ST","Nearside","East","Active","POINT (-82.42257182 29.65958521)"
"190","2021-06-08T00:00:00.000","The Wynwood Apartments","29.65045294","-82.37450984","SW 2nd AVE","SW 34th ST","Nearside","East","Active","POINT (-82.37450984 29.65045294)"
"1054","2021-06-08T00:00:00.000","Tower Oaks Glen Eastbound","29.63488728","-82.41419516","SW 24th AVE","SW 19th CT","Farside","East","Active","POINT (-82.41419516 29.63488728)"
"537","2019-11-20T00:00:00.000","Willowcroft Neighborhood","29.6676716","-82.37510667","NW 16th BLVD","NW 35th WAY","Farside","East","Active","POINT (-82.37510667 29.6676716)"
"135","2021-07-02T00:00:00.000","Dignity Project","29.63923444","-82.31862919","SE 4th ST","SE 11th PL","Nearside","North","Suspended","POINT (-82.31862919 29.63923444)"
"191","2021-06-11T00:00:00.000","Publix at Westgate Plaza Eastbound","29.65031217","-82.37078814","SW 2nd AVE","SW 34th ST","Farside","East","Active","POINT (-82.37078814 29.65031217)"
"909","2021-03-10T00:00:00.000","Episcopal Children's Services","29.65654393","-82.30849403","Waldo RD","NE 8th AVE","Farside","South","Active","POINT (-82.30849403 29.65654393)"
"1392","2020-08-14T00:00:00.000","Northbound NW 55th ST @ NW 9th LN","29.660929","-82.401488","NW 55th ST","NW 9th LN","Nearside","North","Inactive","POINT (-82.401488 29.660929)"
"561","2021-06-04T00:00:00.000","NE 8th Avenue @ NE 11th Street","29.6592805","-82.31152368","NE 8th AVE","NE 11th ST","Farside","East","Active","POINT (-82.31152368 29.6592805)"
"1368","2020-02-05T00:00:00.000","Westbound SE 2nd AVE @ SE 10th ST","29.6502154","-82.31322169","SE 2nd AVE","SE 10th Street","Nearside","West","Active","POINT (-82.31322169 29.6502154)"
"168","2021-06-11T00:00:00.000","Newberry Rd @ NW 8th Ave","29.6590861","-82.39916283","Newberry RD","N 8th AVE","Nearside","West","Active","POINT (-82.39916283 29.6590861)"
"360","2021-05-10T00:00:00.000","Norman Field","29.64542832","-82.33920502","SW 13th ST","SW 8th AVE","Farside","North","Active","POINT (-82.33920502 29.64542832)"
"588","2021-06-08T00:00:00.000","Morningside Nature Center Eastbound","29.6517731","-82.28011987","E University AVE","SE SE 38th ST","Nearside","East","Active","POINT (-82.28011987 29.6517731)"
"2","2019-10-29T00:00:00.000","Hampton Inn Hotel","29.65034625","-82.32380428","SE 2nd AVE","SE 1st ST","Nearside","West","Active","POINT (-82.32380428 29.65034625)"
"1534","2020-09-02T00:00:00.000","Hunter's Crossing Apartments","29.699549","-82.3891964","NW 43rd St","NW 48th Pl","Nearside","South","Active","POINT (-82.3891964 29.699549)"
"384","2019-11-13T00:00:00.000","Girls Place of Alachua County","29.68863043","-82.35132718","NW 39th AVE","NW 21st ST","Nearside","West","Active","POINT (-82.35132718 29.68863043)"
"1153","2020-01-09T00:00:00.000","Tolbert Residence Hall","29.64774577","-82.34980435","Gale Lemerand DR","Stadium RD","Farside","South","Active","POINT (-82.34980435 29.64774577)"
"709","2020-07-06T00:00:00.000","McCoy Court Apartments","29.67283582","-82.31968416","NE 2nd ST","NE 23rd AVE","Nearside","North","Active","POINT (-82.31968416 29.67283582)"
"732","2019-11-27T00:00:00.000","Oak Gate Condominiums","29.6790414","-82.33083986","NW 6th ST","NW 29th AVE","Nearside","South","Active","POINT (-82.33083986 29.6790414)"
"438","2021-05-10T00:00:00.000","The Gate Food Store @ NW 13th Street","29.6559366","-82.33930485","NW 13th ST","NW 5th AVE","Nearside","South","Active","POINT (-82.33930485 29.6559366)"
"111","2021-06-11T00:00:00.000","SE 15th Street @ SE 4th Avenue","29.64838294","-82.30594303","SE 15th ST","SE 4th AVE","Nearside","South","Active","POINT (-82.30594303 29.64838294)"
"311","2019-11-12T00:00:00.000","Southbound SE 27th Street @ SE 15th Avenue","29.63707113","-82.28926955","SE 27th ST","SE 15th AVE","Farside","South","Active","POINT (-82.28926955 29.63707113)"
"433","2018-11-07T00:00:00.000","Brookwood Terrace","29.67648476","-82.34804918","NW 23rd BLVD","NW 16th TER","Farside","East","Active","POINT (-82.34804918 29.67648476)"
"1503","2020-03-24T00:00:00.000","Southbound Metcalfe Elementary School","29.66845669","-82.3058838","NE 15th St","NE 18th Ave","Nearside","South","Active","POINT (-82.3058838 29.66845669)"
"417","2018-11-07T00:00:00.000","Capri Neighborhood","29.69458176","-82.37236967","NW 34th ST","NW 44th PL","Farside","South","Active","POINT (-82.37236967 29.69458176)"
"342","2020-10-07T00:00:00.000","Alachua County Sheriffs Department","29.64403873","-82.29137521","Hawthorne RD","SE 25th TER","Farside","West","Active","POINT (-82.29137521 29.64403873)"
"630","2019-11-20T00:00:00.000","Southbound NE 9th Street @ NE 3rd Avenue","29.65409046","-82.31481333","NE 9th ST","NE 3rd AVE","Nearside","South","Active","POINT (-82.31481333 29.65409046)"
"8","2019-10-29T00:00:00.000","Courtyard Apartments","29.64957427","-82.33717885","SW 12th ST","SW 2nd AVE","Nearside","South","Active","POINT (-82.33717885 29.64957427)"
"1273","2021-01-27T00:00:00.000","Kensington Apartments @ SW 38th Terrace","29.6340858","-82.3810012","SW 38th TER","SW 20th AVE","Nearside","North","Active","POINT (-82.3810012 29.6340858)"
"365","2021-06-08T00:00:00.000","Sweetberries Eatery","29.65620294","-82.33911285","NW 13th ST","NW 5th AVE","Farside","North","Active","POINT (-82.33911285 29.65620294)"
"90","2021-06-11T00:00:00.000","SE 19th Ter @ SE 10th Pl","29.64174863","-82.29932598","SE 19th TER","SE 10th PL","Nearside","North","Active","POINT (-82.29932598 29.64174863)"
"517","2019-11-19T00:00:00.000","Shenandoah Neighborhood","29.67421128","-82.42504857","NW 23rd AVE","NW 77th TER","Nearside","West","Active","POINT (-82.42504857 29.67421128)"
"171","2020-07-06T00:00:00.000","Oaks Mall @ NW 62nd ST","29.65687","-82.408976","NW 62nd ST","NW 4th PL",,"South","Active","POINT (-82.408976 29.65687)"
"715","2019-02-07T00:00:00.000","Smokey Bear Park","29.6744987","-82.30576321","NE 15th ST","NE 23rd AVE","Farside","North","Active","POINT (-82.30576321 29.6744987)"
"1302","2020-06-09T00:00:00.000","Greenwich Green Apartments","29.61770161","-82.37470051","SW 39th BLVD","SW 34th ST","Nearside","West","Active","POINT (-82.37470051 29.61770161)"
"602","2021-06-08T00:00:00.000","Pine Meadows Community","29.6519906","-82.28987786","E University AVE","NE 26th TER","Nearside","West","Active","POINT (-82.28987786 29.6519906)"
"939","2019-12-04T00:00:00.000","Orthopaedics and Sports Medicine Institute","29.63788461","-82.37266767","SW 34th ST","Hull RD","Nearside","South","Active","POINT (-82.37266767 29.63788461)"
"389","2019-11-13T00:00:00.000","Westbound NW 39th Avenue @ NW 31st Street","29.68872961","-82.36860264","NW 39th AVE","NW 31st TER","Nearside","West","Active","POINT (-82.36860264 29.68872961)"
"735","2019-11-27T00:00:00.000","Renas Let's Dance","29.6740139","-82.33220089","NW 23rd AVE","NW 6th ST","Farside","West","Active","POINT (-82.33220089 29.6740139)"
"910","2020-07-06T00:00:00.000","UF Health Family Medicine Eastside","29.65502911","-82.30949489","Waldo RD","NE 5th AVE","Farside","South","Active","POINT (-82.30949489 29.65502911)"
"754","2020-07-06T00:00:00.000","NE 23rd Ave Farside NE 14th St Westbound","29.67389393","-82.30806669","NE 23rd AVE","NE 14th ST","Farside","West","Active","POINT (-82.30806669 29.67389393)"
"1078","2021-02-03T00:00:00.000","Gordon Manor Neighborhood","29.6453553","-82.4147603","SW 8th Ave","SW 67th Ter","Farside","West","Active","POINT (-82.4147603 29.6453553)"
"1278","2020-01-28T00:00:00.000","Northbound Fort Clarke Boulevard @ Eagle Point","29.66885983","-82.43690493","Fort Clarke BLVD","NW 17th PL","Nearside","North","Active","POINT (-82.43690493 29.66885983)"
"131","2021-06-11T00:00:00.000","SE 22nd Avenue @ SE 13th Street","29.63186409","-82.30857958","SE 22nd AVE","SE 13th ST","Nearside","West","Active","POINT (-82.30857958 29.63186409)"
"304","2019-11-12T00:00:00.000","Eastbound University Avenue @ SE 21st Street","29.65179927","-82.29772353","E University AVE","SE 21st ST","Nearside","East","Active","POINT (-82.29772353 29.65179927)"
"1039","2020-01-07T00:00:00.000","Kanapaha Station Plaza","29.60343675","-82.41295365","Archer RD","SW 66th ST","Nearside","West","Active","POINT (-82.41295365 29.60343675)"
"1101","2020-01-08T00:00:00.000","Tower Plaza","29.65816185","-82.42250356","NW 75th ST","Newberry RD","Farside","South","Active","POINT (-82.42250356 29.65816185)"
"518","2019-11-19T00:00:00.000","Santa Fe College @ NW 83rd Street","29.67524293","-82.43010849","NW 83rd ST","NW 23rd AVE","Farside","North","Active","POINT (-82.43010849 29.67524293)"
"327","2021-06-08T00:00:00.000","Verdant Cove Apartments","29.64218627","-82.2725472","SE 43rd ST","SE 10th PL","Nearside","South","Active","POINT (-82.2725472 29.64218627)"
"502","2019-11-19T00:00:00.000","Zion Evangelical Lutheran Church","29.66709243","-82.37335737","NW 16th BLVD","NW 34th ST","Farside","West","Active","POINT (-82.37335737 29.66709243)"
"740","2020-07-06T00:00:00.000","Stephen Foster Elementary School @ 39th Ave","29.68842759","-82.33178468","NW 39th AVE","NW 7th ST","Nearside","East","Active","POINT (-82.33178468 29.68842759)"
"152","2019-10-31T00:00:00.000","Hillel at the University of Florida","29.6521776","-82.35020785","W University AVE","NW 20th DR","Farside","West","Active","POINT (-82.35020785 29.6521776)"
"1496","2020-10-07T00:00:00.000","Family Dollar Shopping Center","29.64596615","-82.29514404","SE Hawthorne Rd","SE 24th St","Farside","West","Active","POINT (-82.29514404 29.64596615)"
"985","2019-12-04T00:00:00.000","Thorn Brook Shops","29.67506201","-82.38885485","NW 43rd ST","NW 16th BLVD","Farside","North","Active","POINT (-82.38885485 29.67506201)"
"1473","2021-06-02T00:00:00.000","SW 2nd Ave Fire Station","29.65112802","-82.3770207","SW 2nd Ave","SW 36th St","Farside","West","Active","POINT (-82.3770207 29.65112802)"
"1084","2020-01-07T00:00:00.000","Reflections Apartments","29.65071116","-82.42226733","SW 75th ST","SW 1st PL","Nearside","North","Active","POINT (-82.42226733 29.65071116)"
"1484","2020-09-02T00:00:00.000","Varsity House Apartments @ SW 38th Ter","29.636435","-82.380731","SW 38th TER","Hull RD","Nearside","North","Active","POINT (-82.380731 29.636435)"
"462","2019-11-14T00:00:00.000","University of Florida Energy Research","29.62806161","-82.35935034","SW 23rd TER","SW Archer RD","Nearside","North","Active","POINT (-82.35935034 29.62806161)"
"1254","2020-01-16T00:00:00.000","Gator Corner Dining Facility @ Gale Lemerand","29.64816727","-82.34961785","Gale Lemerand DR","Stadium RD","Nearside","North","Active","POINT (-82.34961785 29.64816727)"
"1319","2021-04-21T00:00:00.000","Gainesville Regional Airport Outbound","29.67896676","-82.2766162","Airport Access RD","NE 39th AVE","Nearside","West","Active","POINT (-82.2766162 29.67896676)"
"1221","2020-01-15T00:00:00.000","Eastbound NW 23rd Avenue @ NW 13th Street","29.67389077","-82.33804002","NW 23rd AVE","NW 13th ST","Farside","East","Active","POINT (-82.33804002 29.67389077)"
"1018","2020-07-06T00:00:00.000","CVS @ Millhopper","29.67491241","-82.38909898","NW 43rd ST","NW 23rd AVE","Nearside","South","Active","POINT (-82.38909898 29.67491241)"
"1521","2020-09-02T00:00:00.000","Northbound NW 34th St @ NW 26th Ave","29.6762061","-82.37224992","NW 34th St","NW 26th Ave","Nearside","North","Active","POINT (-82.37224992 29.6762061)"
"1117","2020-10-07T00:00:00.000","Tower Square @ SW 75th Street","29.60064031","-82.42148124","SW 75th ST","SW 58th PL","Farside","South","Active","POINT (-82.42148124 29.60064031)"
"1444","2021-05-28T00:00:00.000","Alight Gainesville Apartments @ NW 12th St","29.65797763","-82.33714947","NW 12th ST","NW 7th AVE","Nearside","South","Active","POINT (-82.33714947 29.65797763)"
"1058","2020-01-07T00:00:00.000","Shell Rock Villas Neighborhood","29.64458307","-82.40916671","SW 61st ST","SW 8th PL","Nearside","North","Active","POINT (-82.40916671 29.64458307)"
"1468","2020-03-19T00:00:00.000","Gainesville Scooter","29.664849","-82.326118","NW 14th Ave","N Main Street","Farside","West","Active","POINT (-82.326118 29.664849)"
"1314","2020-02-05T00:00:00.000","Bed and Breakfast District","29.65032694","-82.31871036","SE 2nd AVE","SE 7th ST","Farside","West","Active","POINT (-82.31871036 29.65032694)"
"427","2018-11-07T00:00:00.000","Altrusa House of Gainesville","29.68577276","-82.34953668","NW 36th AVE","NW 20th ST","Farside","West","Active","POINT (-82.34953668 29.68577276)"
"378","2021-06-08T00:00:00.000","NW 21st St @ 31st Ave","29.68161008","-82.35150409","NW 21st ST","NW 31st ST","Farside","North","Active","POINT (-82.35150409 29.68161008)"
"1556","2020-06-23T00:00:00.000","The Ridge @ SW 38th Ter Southbound","29.631231","-82.380975","SW 38th TER","SW 24th AVE","Nearside","South","Active","POINT (-82.380975 29.631231)"
"1170","2020-01-14T00:00:00.000","Pine Ridge Apartments","29.70629198","-82.35698748","NW 34th ST","NW 23rd TER","Nearside","North","Active","POINT (-82.35698748 29.70629198)"
"479","2019-11-18T00:00:00.000","Campus Edge Condominiums","29.63704951","-82.35891682","SW 23rd DR","Hull RD","Farside","South","Active","POINT (-82.35891682 29.63704951)"
"37","2020-06-09T00:00:00.000","Brandywine Apartments","29.63036821","-82.36536649","Archer RD","Surge Area DR","Farside","East","Active","POINT (-82.36536649 29.63036821)"
"51","2021-07-02T00:00:00.000","Camden Court Apartments","29.64970077","-82.33704802","SW 12th ST","SW 2th AVE","Nearside","North","Suspended","POINT (-82.33704802 29.64970077)"
"823","2019-11-27T00:00:00.000","Hampton Oaks Apartments","29.65241577","-82.40879566","SW 62nd BLVD","NW 1st PL","Nearside","North","Active","POINT (-82.40879566 29.65241577)"
"237","2019-11-06T00:00:00.000","Sandy's Boutique","29.69198809","-82.33915695","NW 13th ST","NW 42nd AVE","Farside","South","Active","POINT (-82.33915695 29.69198809)"
"1112","2021-06-08T00:00:00.000","Veterans Memorial Park","29.61553949","-82.42262195","SW 75th ST","SW 42nd AVE","Farside","South","Active","POINT (-82.42262195 29.61553949)"
"774","2019-02-28T00:00:00.000","Treehouse Village Apartments","29.63272711","-82.32607719","SE 16th AVE","S Main ST","Farside","East","Active","POINT (-82.32607719 29.63272711)"
"532","2019-11-20T00:00:00.000","Floral Expressions","29.6739751","-82.390177","NW 23rd AVE","NW 43rd ST","Nearside","East","Active","POINT (-82.390177 29.6739751)"
"422","2019-11-13T00:00:00.000","Uptown Village Apartments","29.68841093","-82.35714034","NW 39th AVE","NW 24th BLVD","Farside","East","Active","POINT (-82.35714034 29.68841093)"
"107","2021-06-11T00:00:00.000","Alachua County Health Department","29.6490856","-82.2949412","Alachua County Health Department","SE 24th ST","Farside","South","Active","POINT (-82.2949412 29.6490856)"
"581","2019-11-20T00:00:00.000","Southbound NE 25th Street @ NE 3rd Place","29.6543946","-82.29240753","NE 25th ST","NE 3rd PL","Nearside","South","Active","POINT (-82.29240753 29.6543946)"
"291","2021-03-10T00:00:00.000","Eastbound SE Depot Avenue @ SE 7th Street","29.645606","-82.318141","SE Depot AVE","SE 8th ST","Nearside","East","Active","POINT (-82.318141 29.645606)"
"556","2021-06-04T00:00:00.000","NE 9th Street @ E University Avenue","29.65240177","-82.31465786","NE 9th ST","E University AVE","Farside","North","Active","POINT (-82.31465786 29.65240177)"
"958","2021-06-04T00:00:00.000","34th Street Plaza Northbound","29.63155861","-82.37240934","SW 34th ST","SW 20th AVE","Nearside","North","Active","POINT (-82.37240934 29.63155861)"
"864","2017-08-08T00:00:00.000","Northbound NE 9th Street @ NE 14th Avenue","29.66488793","-82.31469752","NE 9th ST","NE 14th AVE","Farside","North","Active","POINT (-82.31469752 29.66488793)"
"589","2021-05-10T00:00:00.000","Eastside Plaza","29.6517471","-82.27676787","E University AVE","SE 39th ST","Nearside","East","Active","POINT (-82.27676787 29.6517471)"
"395","2018-11-06T00:00:00.000","YMCA @ NW 34th Street","29.70190693","-82.36686251","NW 34th ST","NW 30th TER","Farside","North","Active","POINT (-82.36686251 29.70190693)"
"1069","2021-06-08T00:00:00.000","Sunrise Subdivision","29.63549478","-82.42240916","SW 75th ST","SW 19th PL","Farside","North","Active","POINT (-82.42240916 29.63549478)"
"27","2021-03-10T00:00:00.000","Chili's Grill and Bar @ Butler Plaza","29.62378176","-82.37608714","Archer RD","SW 35th BLVD","Nearside","West","Active","POINT (-82.37608714 29.62378176)"
"196","2019-11-06T00:00:00.000","Pressly Stadium","29.6504461","-82.35543068","SW 2nd AVE","Woodlawn DR","Farside","East","Active","POINT (-82.35543068 29.6504461)"
"242","2019-11-07T00:00:00.000","McDonald's @ NW 13th Street","29.6794232","-82.33922241","NW 13th ST","NW 29th AVE","Nearside","South","Active","POINT (-82.33922241 29.6794232)"
"1106","2020-10-07T00:00:00.000","The Woodlands Neighborhood","29.642743","-82.422518","SW 75th ST","SW 10th PL","Farside","South","Active","POINT (-82.422518 29.642743)"
"1001","2019-12-04T00:00:00.000","Santa Fe College @ NW 83rd Street","29.68070888","-82.43039198","NW 83rd ST","Administration RD","Nearside","South","Active","POINT (-82.43039198 29.68070888)"
"43","2021-07-02T00:00:00.000","Center Dr @ Museum Rd","29.64436011","-82.34685268","Center DR","Museum RD","Nearside","North","Suspended","POINT (-82.34685268 29.64436011)"
"140","2019-10-31T00:00:00.000","Alachua County Office of the State Attorney","29.65205724","-82.32640771","W University AVE","NW 2nd ST","Nearside","West","Active","POINT (-82.32640771 29.65205724)"
"1269","2020-01-16T00:00:00.000","Archer Court Apartments","29.62941028","-82.36710018","Old Archer RD","SW 28th Pl","Nearside","West","Active","POINT (-82.36710018 29.62941028)"
"660","2019-11-21T00:00:00.000","Shands Hospital @ Helipad","29.63550244","-82.35124418","Shealy DR","SW 16TH AVE","Farside","West","Active","POINT (-82.35124418 29.63550244)"
"337","2018-10-29T00:00:00.000","Lana's Place","29.63269744","-82.2890722","SE 21st AVE","SE 27th ST","Nearside","West","Active","POINT (-82.2890722 29.63269744)"
"1150","2020-01-09T00:00:00.000","Criser Hall","29.64985429","-82.34175926","Union RD","SW 13th ST","Nearside","West","Active","POINT (-82.34175926 29.64985429)"
"784","2019-02-28T00:00:00.000","Southbound Williston Road @ SE 1st Terrace","29.63414577","-82.31912336","Williston RD","SE 1st TER","Nearside","South","Active","POINT (-82.31912336 29.63414577)"
"680","2021-05-10T00:00:00.000","Bridge House","29.61141878","-82.34148502","SW 13th ST","SW 45th LN","Nearside","South","Active","POINT (-82.34148502 29.61141878)"
"1457","2020-02-19T00:00:00.000","Physical Plant Radio Road","29.64231286","-82.37073272","Radio RD","SW 34 ST","Nearside","West","Active","POINT (-82.37073272 29.64231286)"
"369","2021-05-10T00:00:00.000","CVS @ NW 13th Street","29.66640027","-82.33904452","NW 13th ST","NW 16th AVE","Nearside","North","Active","POINT (-82.33904452 29.66640027)"
"297","2019-11-12T00:00:00.000","Eastbound SE 7th Avenue @ SE 15th Street","29.64572377","-82.30601469","SE 7th AVE","SE 15th ST","Nearside","East","Active","POINT (-82.30601469 29.64572377)"
"495","2019-11-19T00:00:00.000","Westbound NW 16th Avenue @ NW 20th Way","29.666823","-82.349721","NW 16th AVE","NW 20th WAY","Nearside","West","Active","POINT (-82.349721 29.666823)"
"99","2020-09-16T00:00:00.000","SE Hawthorne Rd @ SE 21st St Eastbound","29.6469971","-82.2977727","Hawthorne RD","SE 21st ST","Nearside","East","Active","POINT (-82.2977727 29.6469971)"
"856","2020-07-06T00:00:00.000","UF Health Family Medicine Eastside (across)","29.65501537","-82.30927575","Waldo RD","NE 5th AVE","Farside","North","Active","POINT (-82.30927575 29.65501537)"
"1193","2020-01-14T00:00:00.000","Rawlings Hall","29.64660765","-82.34357212","Newell DR","McCarty DR","Nearside","South","Active","POINT (-82.34357212 29.64660765)"
"1156","2020-01-09T00:00:00.000","Windmeadows Apartments","29.6274583","-82.37816707","Windmeadows BLVD","SW 35th ST","Nearside","West","Active","POINT (-82.37816707 29.6274583)"
"597","2021-06-08T00:00:00.000","Sunrise Food Mart @ SE 43rd St Northbound","29.65097027","-82.2723612","SE 43rd ST","E University AVE","Nearside","North","Active","POINT (-82.2723612 29.65097027)"
"146","2019-10-31T00:00:00.000","Holiday Inn @ W University Avenue","29.652163","-82.338924","W University AVE","SW 13th ST","Farside","West","Active","POINT (-82.338924 29.652163)"
"456","2019-11-14T00:00:00.000","Arbor Park Apartments","29.61996578","-82.35881801","SW 35th PL","SW 27th TER","Nearside","East","Active","POINT (-82.35881801 29.61996578)"
"917","2019-12-04T00:00:00.000","Westbound SE 4th Avenue @ SE 8th Street","29.64827988","-82.31635951","SE 4th AVE","SE 8th ST","Nearside","West","Active","POINT (-82.31635951 29.64827988)"
"804","2019-11-27T00:00:00.000","Family Housing","29.64110603","-82.36936099","Bledsoe DR","Radio RD","Farside","South","Active","POINT (-82.36936099 29.64110603)"
"726","2020-06-12T00:00:00.000","Bella Vista Village","29.6885893","-82.32541806","NW 39th AVE","NW 1st TER","Nearside","West","Active","POINT (-82.32541806 29.6885893)"
"1122","2021-06-08T00:00:00.000","Westgate Manor Eastbound","29.60701778","-82.40561283","Archer RD","SW 51st LN","Farside","East","Active","POINT (-82.40561283 29.60701778)"
"1214","2020-01-15T00:00:00.000","Corry Village","29.64761044","-82.36005034","Village DR","W Fraternity Row","Nearside","North","Active","POINT (-82.36005034 29.64761044)"
"645","2020-06-09T00:00:00.000","University Town Center","29.62401594","-82.37227067","SW 34th ST","Archer RD","Nearside","North","Active","POINT (-82.37227067 29.62401594)"
"689","2021-05-10T00:00:00.000","Boardwalk Apartments","29.62653511","-82.33919952","SW 13th ST","SW 14th DR","Farside","North","Active","POINT (-82.33919952 29.62653511)"
"1509","2020-09-02T00:00:00.000","Loblolly Woods South Entrance","29.65516593","-82.3723512","NW 34th St","NW 5th Ave","Nearside","North","Active","POINT (-82.3723512 29.65516593)"
"1452","2020-02-19T00:00:00.000","Campus Walk @ SW 9th St","29.64510333","-82.33370177","SW 9th ST","SW 8th AV","Nearside","South","Active","POINT (-82.33370177 29.64510333)"
"1034","2020-10-07T00:00:00.000","Madison Cove Apartments","29.6094767","-82.40145213","Archer RD","SW 56th TER","Nearside","West","Active","POINT (-82.40145213 29.6094767)"
"946","2019-12-04T00:00:00.000","Victoria Station Apartments","29.62084845","-82.36842368","SW 35th PL","SW 32nd TER","Farside","East","Active","POINT (-82.36842368 29.62084845)"
"759","2019-11-27T00:00:00.000","Pine Grove Apartments","29.67009777","-82.32138135","NE 2nd ST","NE 21st LN","Farside","South","Active","POINT (-82.32138135 29.67009777)"
"1568","2021-07-02T00:00:00.000","Wildflower Apartments","29.64046141","-82.33912376","SW 13th St","SW 11th Ave","Farside","North","Suspended","POINT (-82.33912376 29.64046141)"
"980","2020-10-07T00:00:00.000","NW 14th Place @ NW 43rd Street","29.66538784","-82.38892077","NW 43rd ST","NW 14th PL","Nearside","North","Active","POINT (-82.38892077 29.66538784)"
"636","2019-11-20T00:00:00.000","Greenwich Green Apartments","29.61756878","-82.37463434","SW 37th BLVD","SW 34th ST","Nearside","East","Active","POINT (-82.37463434 29.61756878)"
"1140","2020-01-09T00:00:00.000","Southbound SW 27th Street @ SW 35th Place","29.61930232","-82.36289011","SW 27th ST","SW 35th PL","Farside","South","Active","POINT (-82.36289011 29.61930232)"
"451","2020-06-09T00:00:00.000","Lexington Crossing Apartments","29.61621425","-82.36244382","SW 27th ST","SW 38th PL","Farside","North","Active","POINT (-82.36244382 29.61621425)"
"1343","2021-05-10T00:00:00.000","Northside Park and Senior Recreation Center","29.70792312","-82.35445424","NW 34th ST","NW 58th AVE","Farside","South","Active","POINT (-82.35445424 29.70792312)"
"1427","2020-02-18T00:00:00.000","Holy Faith Catholic Church","29.65840807","-82.38917748","NW 43rd ST","NW 8th AVE","Nearside","North","Active","POINT (-82.38917748 29.65840807)"
"407","2020-09-16T00:00:00.000","Hampton Court Apartments","29.71433592","-82.36013868","NW 23rd TER","NW 65th PL","Nearside","North","Active","POINT (-82.36013868 29.71433592)"
"332","2019-11-12T00:00:00.000","Southbound SE 35th Street @ SE 16th Avenue","29.63663644","-82.2808427","SE 35th ST","SE 16th AVE","Nearside","South","Active","POINT (-82.2808427 29.63663644)"
"1536","2020-09-16T00:00:00.000","Southbound NW 34th St @ NW 30th Pl","29.68070534","-82.37244534","NW 34th St","NW 30th Pl","Farside","South","Active","POINT (-82.37244534 29.68070534)"
"723","2019-11-27T00:00:00.000","Highland Court","29.68850162","-82.31090454","NE 39th AVE","NE 11th TER","Nearside","West","Active","POINT (-82.31090454 29.68850162)"
"1014","2019-12-04T00:00:00.000","Allstate Insurance","29.68773143","-82.38907083","NW 43rd ST","NW 37th PL","Nearside","South","Active","POINT (-82.38907083 29.68773143)"
"798","2019-11-27T00:00:00.000","Sigma Alpha Epsilon","29.64497411","-82.35529526","Museum RD","Woodlawn DR","Nearside","West","Active","POINT (-82.35529526 29.64497411)"
"963","2019-12-04T00:00:00.000","Keys Residential Complex","29.64820944","-82.35300968","Stadium RD","Woodlawn DR","Nearside","East","Active","POINT (-82.35300968 29.64820944)"
"1519","2020-09-02T00:00:00.000","Northbound NW 34th St @ NW 21st Pl","29.67202866","-82.37227906","NW 34th St","NW 24th Ave","Nearside","North","Active","POINT (-82.37227906 29.67202866)"
"1187","2020-01-14T00:00:00.000","Microbiology/Cell Science Building","29.64035567","-82.36422788","Museum RD","Radio RD","Nearside","South","Active","POINT (-82.36422788 29.64035567)"
"443","2021-05-10T00:00:00.000","Southbound SW 13th Street @ Museum Road","29.64506844","-82.33942752","SW 13th ST","Museum RD","Nearside","South","Active","POINT (-82.33942752 29.64506844)"
"893","2017-08-08T00:00:00.000","Bertie Heating & Air","29.67372756","-82.30323922","NE 23rd AVE","NE 17th TER","Nearside","East","Active","POINT (-82.30323922 29.67372756)"
"1308","2020-02-05T00:00:00.000","US Post Office @ SW 34th Street","29.61099539","-82.3718525","SW 34th ST","SW 47th AVE","Nearside","South","Active","POINT (-82.3718525 29.61099539)"
"1440","2020-02-18T00:00:00.000","Mt. Olive Primitive Baptist Church","29.65586079","-82.30591261","NE 15th ST","NE 5th PL","Farside","South","Active","POINT (-82.30591261 29.65586079)"
"221","2019-11-06T00:00:00.000","Sixth Street Plaza","29.66852422","-82.33075901","NW 6th ST","NW 19th AVE","Nearside","North","Active","POINT (-82.33075901 29.66852422)"
"845","2021-06-04T00:00:00.000","Lakeside Residential Complex","29.64219911","-82.36609918","Radio RD","Museum RD","Nearside","East","Active","POINT (-82.36609918 29.64219911)"
"1554","2020-09-01T00:00:00.000","Pod @ Plaza Blvd Westbound","29.62790999","-82.38335998","Plaza BLVD","SW 62nd BLVD","Nearside","West","Active","POINT (-82.38335998 29.62790999)"
"1493","2020-09-02T00:00:00.000","Butler Plaza RTS Transfer Station","29.62515397","-82.38788979","SW 30th Pl","SW 42nd St","Farrside","West","Active","POINT (-82.38788979 29.62515397)"
"1543","2020-09-16T00:00:00.000","NW 2nd St @ NW 16th Ave Northbound","29.66631497","-82.32652704","NW 2nd St","NW 16th Ave","Nearside","North","Active","POINT (-82.32652704 29.66631497)"
"997","2020-10-07T00:00:00.000","Robin Lane Neighborhood","29.68889443","-82.42212199","NW 39th AVE","NW 75th ST","Nearside","West","Active","POINT (-82.42212199 29.68889443)"
"1358","2020-02-05T00:00:00.000","SW 16TH Avenue Building A","29.63505027","-82.34507235","SW 16th AVE","SW  16th ST","Nearside","East","Active","POINT (-82.34507235 29.63505027)"
"546","2019-11-20T00:00:00.000","Georgetown Apartments","29.6665696","-82.34039535","NW 16th AVE","NW 13th ST","Nearside","East","Active","POINT (-82.34039535 29.6665696)"
"11","2021-07-02T00:00:00.000","Norman Parking Garage","29.64512003","-82.33711925","SW 12th ST","SW 8th AVE","Nearside","South","Suspended","POINT (-82.33711925 29.64512003)"
"1526","2020-09-02T00:00:00.000","Southbound NW 34th St @ NW 37th Ave","29.68724539","-82.37241065","NW 34th St","NW 37th Ave","Nearside","South","Active","POINT (-82.37241065 29.68724539)"
"281","2019-11-07T00:00:00.000","Jon Uman Attorney","29.65988472","-82.33100268","NW 6th ST","NW 8th PL","Nearside","South","Active","POINT (-82.33100268 29.65988472)"
"1409","2020-02-11T00:00:00.000","Northbound NW 17th ST @ NW 7th AVE","29.65749348","-82.34455613","NW 17th ST","NW 7th AVE","Nearside","North","Active","POINT (-82.34455613 29.65749348)"
"526","2019-11-20T00:00:00.000","Eastbound NW 23rd Avenue @ NW 63rd Terrace","29.67412208","-82.41045292","NW 23rd AVE","NW 63rd TER","Nearside","East","Active","POINT (-82.41045292 29.67412208)"
"76","2018-10-11T00:00:00.000","Prairie View Elementary School","29.62029204","-82.30579938","SE 15th ST","SE 35th AVE","Nearside","North","Active","POINT (-82.30579938 29.62029204)"
"486","2019-11-19T00:00:00.000","Gator Place Condominiums","29.61905311","-82.35574301","SW 23rd TER","SW 35th PL","Farside","South","Active","POINT (-82.35574301 29.61905311)"
"248","2018-10-24T00:00:00.000","Gainesville High School","29.66795343","-82.33925302","NW 13th ST","NW 18th AVE","Farside","South","Active","POINT (-82.33925302 29.66795343)"
"817","2019-11-27T00:00:00.000","Cabana Beach Apartments","29.63787361","-82.39761233","SW 52 BLVD","SW 20th AVE","Nearside","East","Active","POINT (-82.39761233 29.63787361)"
"200","2019-11-06T00:00:00.000","Anderson Hall","29.65200044","-82.34201018","W University AVE","NW 15th ST","Nearside","East","Active","POINT (-82.34201018 29.65200044)"
"1181","2020-01-14T00:00:00.000","UF Orthopaedics Institute","29.637769","-82.37404","Hull RD","SW 34th ST","Farside","West","Active","POINT (-82.37404 29.637769)"
"839","2017-08-08T00:00:00.000","Florida Department Of Agriculture","29.63544611","-82.37237567","SW 34th ST","SW 20th AVE","Farside","North","Active","POINT (-82.37237567 29.63544611)"
"1064","2021-07-02T00:00:00.000","Treebecka Park Apartments","29.63935994","-82.41054966","SW 20th AVE","SW 61st ST","Farside","West","Suspended","POINT (-82.41054966 29.63935994)"
"575","2019-11-20T00:00:00.000","Eastbound NE 12th Avenue @ NE 24th Terrace","29.66369243","-82.2924432","NE 12th AVE","NE 24th TER","Farside","East","Active","POINT (-82.2924432 29.66369243)"
"1551","2020-09-01T00:00:00.000","Social Security Administration","29.6967986","-82.33916185","NW 13th ST","NW 45th AVE","Nearside","South","Active","POINT (-82.33916185 29.6967986)"
"697","2020-10-28T00:00:00.000","Masonic Temple","29.6536971","-82.32489588","N Main ST","NE 2nd AVE","Farside","North","Active","POINT (-82.32489588 29.6536971)"
"1372","2020-02-06T00:00:00.000","Newberry Rd @ NW 75th","29.65981827","-82.42127949","Newberry RD","Tower RD","Nearside","West","Active","POINT (-82.42127949 29.65981827)"
"1164","2020-01-14T00:00:00.000","Merita Bread Box","29.68146736","-82.29147611","Waldo RD","NE 31st AVE","Nearside","North","Active","POINT (-82.29147611 29.68146736)"
"161","2019-10-31T00:00:00.000","Plaza Royale","29.65270535","-82.38150522","Newberry RD","NW 36th DR","Farside","West","Active","POINT (-82.38150522 29.65270535)"
"455","2019-11-14T00:00:00.000","Casablanca East Apartments","29.61977114","-82.36151438","SW 35th PL","SW 27th TER","Farside","East","Active","POINT (-82.36151438 29.61977114)"
"664","2021-07-02T00:00:00.000","UF Health Shands North Tower","29.63983377","-82.34194935","Newell DR","SW Archer RD","Nearside","South","Suspended","POINT (-82.34194935 29.63983377)"
"373","2020-08-17T00:00:00.000","Furniture Kingdom","29.67408627","-82.34077435","NW 23rd AVE","NW 13th ST","Farside","West","Active","POINT (-82.34077435 29.67408627)"
"1201","2020-01-15T00:00:00.000","Greyhound Station","29.67395732","-82.3234416","NW 23rd AVE","N Main ST","Nearside","West","Active","POINT (-82.3234416 29.67395732)"
"1453","2021-05-10T00:00:00.000","St. Patrick Catholic Church","29.66662447","-82.31937533","NE 16th AVE","NE 2nd ST","Nearside","West","Active","POINT (-82.31937533 29.66662447)"
"1512","2020-09-02T00:00:00.000","Southbound NW 34th St @ NW 7th Ave","29.65811015","-82.37247892","NW 34th St","NW 7th Ave","Nearside","South","Active","POINT (-82.37247892 29.65811015)"
"684","2021-05-10T00:00:00.000","Residence Inn","29.61571461","-82.34047902","SW 13th ST","Williston RD","Farside","North","Active","POINT (-82.34047902 29.61571461)"
"181","2021-06-08T00:00:00.000","Millpond Neighborhood","29.6577331","-82.39592367","Newberry RD","NW 50th BLVD","Farside","East","Active","POINT (-82.39592367 29.6577331)"
"333","2019-11-12T00:00:00.000","Southbound Se 35th Street @ SE 18th Avenue","29.63479211","-82.2808637","SE 35th ST","SE 18th AVE","Farside","South","Active","POINT (-82.2808637 29.63479211)"
"467","2019-11-14T00:00:00.000","Cancer and Genetics Research","29.63876911","-82.35141085","Mowry RD","Gale Lemerand DR","Nearside","East","Active","POINT (-82.35141085 29.63876911)"
"1288","2020-02-04T00:00:00.000","Eastbound Newberry Road @ Fort Clarke Boulevard","29.66023527","-82.43220382","Newberry RD","Fort Clarke BLVD","Farside","East","Active","POINT (-82.43220382 29.66023527)"
"116","2021-07-02T00:00:00.000","Waldo Rd @ SE 7th Avenue","29.64584161","-82.31100618","SE 7th AVE","SE 11th ST","Farside","West","Active","POINT (-82.31100618 29.64584161)"
"762","2019-11-27T00:00:00.000","Midas @ N Main Street","29.66551477","-82.32459102","N Main ST","NE 16th AVE","Farside","South","Active","POINT (-82.32459102 29.66551477)"
"1026","2021-06-15T00:00:00.000","NW 43rd St @ NW 8th Ave","29.65838144","-82.38943867","NW 43rd ST","NW 8th AVE","Farside","South","Active","POINT (-82.38943867 29.65838144)"
"292","2021-03-10T00:00:00.000","The Cotton Club","29.64575381","-82.31521511","SE 7th AVE","SE 9th ST","Nearside","East","Active","POINT (-82.31521511 29.64575381)"
"743","2019-11-27T00:00:00.000","Pine Forest Homes","29.68831662","-82.32263953","NE 39th AVE","NE 2nd ST","Nearside","East","Active","POINT (-82.32263953 29.68831662)"
"927","2019-12-04T00:00:00.000","Ben Hill Griffin Stadium North End Zone","29.6510556","-82.34974301","Gale Lemerand DR","W University AVE","Farside","South","Active","POINT (-82.34974301 29.6510556)"
"1238","2020-01-15T00:00:00.000","Sorority Row @ SW 11th Street","29.64407144","-82.33568885","SW 11th ST","E Panhellenic DR","Nearside","North","Active","POINT (-82.33568885 29.64407144)"
"951","2019-12-04T00:00:00.000","Southbound SW 26th Drive @ SW 40th Place","29.61413182","-82.36121169","SW 26th DR","SW 40th PL","Nearside","South","Active","POINT (-82.36121169 29.61413182)"
"1504","2020-09-02T00:00:00.000","PPG Paints Store","29.65294813","-82.33086519","SW 6th ST","W University Ave","Nearside","South","Active","POINT (-82.33086519 29.65294813)"
"670","2021-05-10T00:00:00.000","Dollar General","29.63212594","-82.33952402","SW 13th ST","SW18th PL","Farside","South","Active","POINT (-82.33952402 29.63212594)"
"881","2017-08-08T00:00:00.000","NE 49th AVE - Brittany Estates Neighborhood","29.69949109","-82.27834355","NE 49th AVE","Waldo RD","Farside","East","Active","POINT (-82.27834355 29.69949109)"
"730","2019-11-27T00:00:00.000","Southbound NW 6th Street @ NW 32nd Place","29.6826802","-82.3308331","NW 6th ST","NW 32nd PL","Nearside","South","Active","POINT (-82.3308331 29.6826802)"
"872","2017-08-08T00:00:00.000","University of Florida Eastside Campus @ Waldo Road","29.671875","-82.29799935","Waldo RD","NE 23rd AVE","Nearside","North","Active","POINT (-82.29799935 29.671875)"
"685","2021-05-10T00:00:00.000","The Landings Apartments","29.61867278","-82.34007793","SW 13th ST","SW 36th PL","Farside","North","Active","POINT (-82.34007793 29.61867278)"
"1439","2020-02-18T00:00:00.000","Cohens Temple","29.65597636","-82.30578885","NE 15th ST","NE 5th PL","Nearside","North","Active","POINT (-82.30578885 29.65597636)"
"814","2020-06-09T00:00:00.000","Pinetree Gardens","29.63450495","-82.38520181","SW 20th AVE","SW 40th TER","Farside","West","Active","POINT (-82.38520181 29.63450495)"
"942","2019-12-04T00:00:00.000","34th Street Plaza","29.63269014","-82.37269976","SW 34th ST","SW 20th AVE","Farside","South","Active","POINT (-82.37269976 29.63269014)"
"1465","2020-03-19T00:00:00.000","NE 18th St","29.65595465","-82.30173862","NE 18 ST","NE 5th Ave","Farside","South","Active","POINT (-82.30173862 29.65595465)"
"1337","2020-02-05T00:00:00.000","Enclave 5","29.62183194","-82.36547951","Gainesville Place Apartments","Gainesville Place Apartments","Nearside","South","Active","POINT (-82.36547951 29.62183194)"
"755","2019-11-27T00:00:00.000","Highland Court Manor Neighborhood @ NE 23rd Avenue","29.67391697","-82.31115488","NE 23rd AVE","NE 11th TER","Nearside","West","Active","POINT (-82.31115488 29.67391697)"
"317","2019-11-12T00:00:00.000","Northbound SE 35th Street @ SE 20th Avenue","29.6347148","-82.280703","SE 35th ST","SE 18th AVE","Nearside","North","Active","POINT (-82.280703 29.6347148)"
"974","2020-10-07T00:00:00.000","Dollar General","29.61481845","-82.37192334","SW 34th ST","SW 42 PL","Farside","North","Active","POINT (-82.37192334 29.61481845)"
"145","2021-06-11T00:00:00.000","W University Ave @ NW 10th St","29.65214813","-82.33489666","W University AVE","NW 10th ST","Nearside","West","Active","POINT (-82.33489666 29.65214813)"
"852","2017-08-08T00:00:00.000","Triangle Club","29.64818319","-82.31267957","SE 4th AVE","11th ST","Nearside","East","Active","POINT (-82.31267957 29.64818319)"
"1135","2020-01-09T00:00:00.000","Shands Visitor Parking","29.63963673","-82.3472878","Mowry RD","Center DR","Farside","West","Active","POINT (-82.3472878 29.63963673)"
"533","2020-06-09T00:00:00.000","Millhopper Shopping Center @ NW 16th Boulevard","29.67294743","-82.38672967","NW 16th BLVD","NW 43rd ST","Nearside","East","Active","POINT (-82.38672967 29.67294743)"
"1547","2020-09-16T00:00:00.000","Sam's Club Westbound","29.6231366","-82.3835144","SW 33rd PL","SW 37th Blvd","Farside","West","Active","POINT (-82.3835144 29.6231366)"
"888","2017-08-08T00:00:00.000","Invivo Imaging","29.70306659","-82.2791107","NE 53rd AVE","Waldo RD","Farside","West","Active","POINT (-82.2791107 29.70306659)"
"1391","2020-02-11T00:00:00.000","Metrocorp Center","29.68854075","-82.38688465","NW 39th AVE","NW 40th TER","Nearside","East","Active","POINT (-82.38688465 29.68854075)"
"1529","2020-09-16T00:00:00.000","Pinewood Terrace Community","29.693571","-82.38881393","NW 43rd St","NW 44th Ave","Nearside","North","Active","POINT (-82.38881393 29.693571)"
"1364","2020-02-05T00:00:00.000","Southbound SE 19th TER @ SE 12th AVE","29.640307","-82.29988","SE 19th TER","SE 12th AVE","Nearside","South","Active","POINT (-82.29988 29.640307)"
"968","2019-12-04T00:00:00.000","Campus Lodge Apartments","29.60890011","-82.36401368","Williston RD","SW 29Th Dr","Nearside","West","Active","POINT (-82.36401368 29.60890011)"
"719","2019-02-07T00:00:00.000","Village Green Apartments","29.68344393","-82.30573036","NE 15th ST","NE 31st AVE","Farside","North","Active","POINT (-82.30573036 29.68344393)"
"1010","2019-12-04T00:00:00.000","Huntington Lakes Apartments","29.68859443","-82.40046483","NW 39th AVE","NW 53rd ST","Nearside","East","Active","POINT (-82.40046483 29.68859443)"
"1580","2020-09-16T00:00:00.000","Celebration Pointe at Regal Cinema 10","29.623121","-82.395109","SW 32nd Rd","SW 45th St","Farside","West","Active","POINT (-82.395109 29.623121)"
"898","2017-08-08T00:00:00.000","Rose Food Store","29.66655025","-82.30327515","NE 16th AVE","NE 16th WAY","Nearside","West","Active","POINT (-82.30327515 29.66655025)"
"1488","2020-09-02T00:00:00.000","New RTS Maintenance Facility South","29.63841484","-82.32576166","SE 1st St","SE 13th AVE","Nearside","South","Active","POINT (-82.32576166 29.63841484)"
"1476","2020-03-19T00:00:00.000","McDonalds","29.68904787","-82.44159272","NW 39th Ave","NW 92nd Ct","Nearside","West","Active","POINT (-82.44159272 29.68904787)"
"637","2020-06-09T00:00:00.000","Aspen Ridge Apartments","29.61839299","-82.37233827","SW 34th ST","SW 37th BLVD","Farside","North","Active","POINT (-82.37233827 29.61839299)"
"1363","2020-08-14T00:00:00.000","UF Health Parking Garage 2","29.639286","-82.34700812","Mowry DR","Center DR",,"East","Active","POINT (-82.34700812 29.639286)"
"254","2019-11-07T00:00:00.000","Big Lot on NW 13th Street","29.6751386","-82.33899035","NW 13th ST","NW 23rd AVE","Farside","North","Active","POINT (-82.33899035 29.6751386)"
"1259","2020-09-23T00:00:00.000","Exxon Gas Station @ E University Avenue","29.65196094","-82.27293445","E University AVE","SE 43rd ST","Farside","West","Active","POINT (-82.27293445 29.65196094)"
"993","2019-12-04T00:00:00.000","Huntington Lakes Apartments","29.6888296","-82.3998465","NW 39th AVE","NW 53rd ST","Farside","West","Active","POINT (-82.3998465 29.6888296)"
"16","2021-06-17T00:00:00.000","Shands Hospital @ Center Drive","29.64020161","-82.34628818","Center DR","Mowry RD","Nearside","South","Active","POINT (-82.34628818 29.64020161)"
"187","2021-06-08T00:00:00.000","SouthState Bank","29.65333277","-82.383899","Newberry RD","NW 39th RD","Nearside","East","Active","POINT (-82.383899 29.65333277)"
"1398","2020-08-14T00:00:00.000","Westbound SW 24th AVE @ SW 75th ST","29.63061711","-82.42378699","SW 24th AVE","SW 75th ST","Farside","West","Inactive","POINT (-82.42378699 29.63061711)"
"787","2019-03-05T00:00:00.000","Treehouse Village Apartments","29.63288127","-82.32594652","SE 16th AVE","S Main ST","Nearside","West","Active","POINT (-82.32594652 29.63288127)"
"55","2021-03-10T00:00:00.000","Second Avenue Center Apartments","29.650171","-82.329834","SW 2nd AVE","SW 6th ST","Farside","East","Active","POINT (-82.329834 29.650171)"
"1059","2021-06-08T00:00:00.000","Southwest Advocacy Group","29.64472461","-82.41154916","SW 64th TER","SW 8th AVE","Farside","South","Active","POINT (-82.41154916 29.64472461)"
"507","2018-11-20T00:00:00.000","Capital City Bank @ NW 16th Boulevard","29.67289052","-82.38612217","NW 16th BLVD","NW 41st ST","Nearside","West","Active","POINT (-82.38612217 29.67289052)"
"703","2019-02-07T00:00:00.000","US Post Office @ Main St","29.66387345","-82.32445589","N Main ST","NE 14th AVE","Nearside","North","Active","POINT (-82.32445589 29.66387345)"
"832","2020-07-06T00:00:00.000","Liv Apartments","29.63543861","-82.38808767","SW 20th AVE","SW 43rd ST","Farside","East","Active","POINT (-82.38808767 29.63543861)"
"192","2021-06-11T00:00:00.000","Mark Bostick Golf Course","29.65034294","-82.36742051","SW 2nd AVE","SW 30th ST","Farside","East","Active","POINT (-82.36742051 29.65034294)"
"110","2018-10-15T00:00:00.000","Veteran's Honor Center","29.64924863","-82.30417485","SE 3rd AVE","SE 17th ST","Farside","West","Active","POINT (-82.30417485 29.64924863)"
"186","2021-06-08T00:00:00.000","LifeSouth Community Blood Center @ Newberry Road","29.65429694","-82.3865545","Newberry RD","NW 39th ST","Farside","East","Active","POINT (-82.3865545 29.65429694)"
"472","2021-07-02T00:00:00.000","Rawlings Hall","29.64630777","-82.34338935","Newell DR","McCarty DR","Nearside","North","Suspended","POINT (-82.34338935 29.64630777)"
"347","2020-09-23T00:00:00.000","SE 18th St @ E University Avenue","29.652024","-82.301384","E University AVE","SE 18th ST","Nearside","West","Active","POINT (-82.301384 29.652024)"
"156","2021-06-11T00:00:00.000","W University Ave @ NW 28th St","29.6520951","-82.36439568","W University AVE","NW 28th ST","Nearside","West","Active","POINT (-82.36439568 29.6520951)"
"361","2021-05-10T00:00:00.000","Norman Hall","29.6471576","-82.33920252","SW 13th ST","SW 5th AVE","Nearside","North","Active","POINT (-82.33920252 29.6471576)"
"1077","2020-01-07T00:00:00.000","Eastbound SW 6th Place @ SW 67th Terrace","29.64660627","-82.41457849","SW 6th PL","SW 67th TER","Nearside","East","Active","POINT (-82.41457849 29.64660627)"
"3","2021-06-17T00:00:00.000","SW 2nd Avenue @ SW 2nd Street","29.650368","-82.326465","SW 2nd AVE","SW 2nd ST","Nearside","West","Active","POINT (-82.326465 29.650368)"
"1516","2020-09-02T00:00:00.000","Southbound Westwood Middle School","29.66570261","-82.37244764","NW 34th St","NW 15th Pl","Farside","South","Active","POINT (-82.37244764 29.66570261)"
"1296","2020-02-05T00:00:00.000","Ivy House Apartment","29.64503178","-82.33504168","SW 10th ST","SW 8th AVE","Nearside","South","Active","POINT (-82.33504168 29.64503178)"
"385","2019-11-13T00:00:00.000","Equilease Square","29.68861078","-82.35433399","NW 39th AVE","NW 22nd DR","Nearside","West","Active","POINT (-82.35433399 29.68861078)"
"868","2017-08-08T00:00:00.000","Michelle Garden Apartments","29.66645026","-82.30593865","NE 16th AVE","NE 15th ST","Nearside","East","Active","POINT (-82.30593865 29.66645026)"
"494","2019-11-19T00:00:00.000","Westbound NW 16th Avenue @ NW 18th Street","29.66681503","-82.34682321","NW 16th AVE","NW 18th ST","Farside","West","Active","POINT (-82.34682321 29.66681503)"
"1096","2020-10-07T00:00:00.000","Oaks Square Complex","29.65946677","-82.41602916","Newberry RD","NW 69th TER","Farside","East","Active","POINT (-82.41602916 29.65946677)"
"309","2019-11-12T00:00:00.000","Alachua County Sheriff's Office","29.64283044","-82.28944903","Hawthorne RD","SE 27th ST","Nearside","East","Active","POINT (-82.28944903 29.64283044)"
"710","2019-02-07T00:00:00.000","Pointe 23 Apartments","29.67378524","-82.31758574","NE 23rd AVE","NE 7th ST","Nearside","East","Active","POINT (-82.31758574 29.67378524)"
"437","2021-05-10T00:00:00.000","All Star Automotive","29.65777446","-82.33929047","NW 13th ST","NW 7th AVE","Nearside","South","Active","POINT (-82.33929047 29.65777446)"
"1274","2021-03-10T00:00:00.000","Krystal @ Newberry Road","29.65983612","-82.42470931","Newberry RD","NW 76th ST","Farside","West","Active","POINT (-82.42470931 29.65983612)"
"748","2020-07-06T00:00:00.000","Fearnside Family Services Center","29.68657478","-82.30584958","NE 15th ST","NE 39th AVE","Farside","South","Active","POINT (-82.30584958 29.68657478)"
"902","2017-08-08T00:00:00.000","Department of Children and Families","29.66660264","-82.3137588","NE 16th AVE","NE 9th ST","Nearside","West","Active","POINT (-82.3137588 29.66660264)"
"1043","2020-01-07T00:00:00.000","Asbury Park Apartments","29.60368778","-82.42257483","SW 75th ST","SW 53rd PL","Nearside","North","Active","POINT (-82.42257483 29.60368778)"
"1481","2020-09-02T00:00:00.000","Cancer/Genetics Research Complex","29.6381875","-82.3534949","Mowry Rd","SW 23 Dr","Farside","East","Active","POINT (-82.3534949 29.6381875)"
"539","2021-03-10T00:00:00.000","Brywood Neighborhood","29.66666427","-82.36335668","NW 16th AVE","NW 27th TER","Farside","East","Active","POINT (-82.36335668 29.66666427)"
"1460","2020-02-19T00:00:00.000","Enclave 3","29.6235224","-82.36576324","SW 32nd Terrace","Enclave Aparments","Nearside","South","Active","POINT (-82.36576324 29.6235224)"
"768","2020-07-06T00:00:00.000","Friends of the Library Alachua County","29.65604777","-82.32508802","N Main ST","NE 6th AVE","Farside","South","Active","POINT (-82.32508802 29.65604777)"
"1500","2020-03-24T00:00:00.000","NE 15th St @ NE 7th Ave","29.6578134","-82.3054478","NE 15th St","NE 7th Ave","Nearside","South","Active","POINT (-82.3054478 29.6578134)"
"935","2019-12-04T00:00:00.000","Westbound SW 2nd Avenue @ SW 30th Street","29.65048094","-82.36726918","SW 2nd AVE","SW 30th ST","Nearside","West","Active","POINT (-82.36726918 29.65048094)"
"1451","2021-05-10T00:00:00.000","Northside Shopping Center East","29.67551071","-82.32075066","Main ST","NW 23rd AVE","Nearside","South","Active","POINT (-82.32075066 29.67551071)"
"736","2019-11-27T00:00:00.000","Wesley United Methodist Church","29.67402143","-82.33483968","NW 23rd AVE","NW 10th ST","Nearside","West","Active","POINT (-82.33483968 29.67402143)"
"1315","2020-02-05T00:00:00.000","Super Wal-Mart @ Waldo Road","29.66403627","-82.30333386","Waldo RD","NE 12th AVE","Farside","North","Active","POINT (-82.30333386 29.66403627)"
"1053","2020-01-07T00:00:00.000","Infinite Energy","29.63090094","-82.41804366","SW 24th AVE","SW 70th TER","Farside","East","Active","POINT (-82.41804366 29.63090094)"
"1079","2021-06-08T00:00:00.000","Holly Heights","29.6454","-82.41691","SW 8th AVE","SW 70th TER","Nearside","West","Active","POINT (-82.41691 29.6454)"
"808","2019-11-27T00:00:00.000","Hilton University of Florida Conference Center","29.63589333","-82.37267961","SW 34th ST","SW 19th AVE","Nearside","South","Active","POINT (-82.37267961 29.63589333)"
"912","2019-12-04T00:00:00.000","Kangaroo @ Waldo Road","29.65272095","-82.3110917","Waldo RD","E University AVE","Nearside","South","Active","POINT (-82.3110917 29.65272095)"
"989","2019-12-04T00:00:00.000","Pinewood Apartments","29.68878554","-82.39034704","NW 39th AVE","NW 43rd ST","Farside","West","Active","POINT (-82.39034704 29.68878554)"
"1213","2020-06-09T00:00:00.000","Lexington Crossing Apartments","29.61353495","-82.36227118","SW 27th ST","SW 40th PL","Farside","South","Active","POINT (-82.36227118 29.61353495)"
"1279","2020-01-29T00:00:00.000","Hidden Oak Elementary School","29.67088794","-82.43899993","Fort Clarke BLVD","NW 89th DR","Farside","North","Active","POINT (-82.43899993 29.67088794)"
"1249","2021-06-02T00:00:00.000","SW Archer Rd @ SW 40th Blvd Westbound","29.6194501","-82.38241633","Archer RD","SW 40th BLVD","Nearside","West","Active","POINT (-82.38241633 29.6194501)"
"423","2019-11-13T00:00:00.000","Palmetto Woods Neighborhood","29.68838309","-82.35398801","NW 39th AVE","NW 22nd DR","Farside","East","Active","POINT (-82.35398801 29.68838309)"
"1592","2021-04-01T00:00:00.000","Pizza Hut @ Archer Road","29.6241359","-82.375356","SW Archer Rd","SW 35th Blvd","Farside","East","Active","POINT (-82.375356 29.6241359)"
"562","2019-11-20T00:00:00.000","Sunny Food Mart","29.65927105","-82.31029077","NE 8th AVE","NE 12th ST","Nearside","East","Active","POINT (-82.31029077 29.65927105)"
"1327","2020-02-05T00:00:00.000","Eastbound SW 7th AVE @ SW 12th ST","29.64570394","-82.33655681","SW 7th AVE","SW 12th ST","Farside","East","Active","POINT (-82.33655681 29.64570394)"
"1023","2020-01-07T00:00:00.000","Suburban Heights Neighborhood","29.66487982","-82.38914371","NW 43rd ST","NW 13th AVE","Nearside","South","Active","POINT (-82.38914371 29.66487982)"
"848","2017-08-08T00:00:00.000","Lake Alice Field","29.64487467","-82.35671767","Museum RD","Fraternity DR","Farside","East","Active","POINT (-82.35671767 29.64487467)"
"585","2021-06-08T00:00:00.000","East University Ave @ SE 25th Ter","29.6517862","-82.2912556","E University AVE","SE 25th TER","Farside","East","Active","POINT (-82.2912556 29.6517862)"
"716","2019-02-07T00:00:00.000","NE 28th Avenue @ NE 15th Street","29.67695043","-82.30573086","NE 15th ST","NE 28th AVE","Nearside","North","Active","POINT (-82.30573086 29.67695043)"
"590","2021-06-08T00:00:00.000","Sunrise Food Mart @ SE 43rd St","29.65091847","-82.27249329","SE 43rd ST","E University AVE","Farside","South","Active","POINT (-82.27249329 29.65091847)"
"1533","2020-09-02T00:00:00.000","Northbound NW 43rd St @ NW 48th Pl","29.69909258","-82.38878842","NW 43rd St","NW 48th Pl","Nearside","North","Active","POINT (-82.38878842 29.69909258)"
"1116","2020-01-08T00:00:00.000","Valwood Neighborhood","29.60431939","-82.42274691","SW 75th ST","SW 53rd PL","Nearside","South","Active","POINT (-82.42274691 29.60431939)"
"243","2019-11-07T00:00:00.000","Verizon Shop","29.67747443","-82.33925252","NW 13th ST","NW 26th PL","Nearside","South","Active","POINT (-82.33925252 29.67747443)"
"42","2021-07-02T00:00:00.000","Shands Hospital @ Center Drive","29.64084372","-82.34606499","Center DR","Mowry RD","Farside","North","Suspended","POINT (-82.34606499 29.64084372)"
"46","2021-07-02T00:00:00.000","Beaty Towers","29.64470561","-82.34079068","Museum RD","SW 13th ST","Nearside","East","Suspended","POINT (-82.34079068 29.64470561)"
"208","2019-11-06T00:00:00.000","Bo Diddley Community Plaza","29.65185","-82.322859","E University AVE","E 3st ST","Nearside","East","Active","POINT (-82.322859 29.65185)"
"382","2018-11-01T00:00:00.000","Ridgeview Baptist Church","29.68566226","-82.34743718","NW 36th AVE","NW 19th ST","Nearside","East","Active","POINT (-82.34743718 29.68566226)"
"61","2021-07-02T00:00:00.000","Dignity Project","29.63900398","-82.31861654","SE 4th ST","SE 10th AVE","Farside","South","Suspended","POINT (-82.31861654 29.63900398)"
"1163","2020-01-14T00:00:00.000","Sonny's Barbecue @ Waldo Road","29.67595465","-82.29522281","Waldo RD","NE 27th AVE","Nearside","North","Active","POINT (-82.29522281 29.67595465)"
"238","2019-11-06T00:00:00.000","CVS @ NW 13th Street","29.690166","-82.33919386","NW 13th ST","NW 41st AVE","Farside","South","Active","POINT (-82.33919386 29.690166)"
"1017","2020-10-07T00:00:00.000","Sunstate Insurance","29.67644934","-82.38909345","NW 43rd ST","NW 27th AVE","Nearside","South","Active","POINT (-82.38909345 29.67644934)"
"399","2019-11-13T00:00:00.000","The Home Depot @ NW 53rd Avenue","29.70316719","-82.34649429","NW 53rd AVE","NW 13th ST","Nearside","East","Active","POINT (-82.34649429 29.70316719)"
"98","2021-02-03T00:00:00.000","SE Hawthorne Rd @ SE 18th St Eastbound","29.6487849","-82.3013771","Hawthorne RD","SE 18th St","Farside","East","Active","POINT (-82.3013771 29.6487849)"
"791","2019-03-05T00:00:00.000","Oakbrook Walk Condominiums @ SW 16th Avenue","29.63656394","-82.33828968","SW 16th AVE","SW 13th ST","Nearside","West","Active","POINT (-82.33828968 29.63656394)"
"262","2021-06-02T00:00:00.000","Westgate Home Center","29.69542593","-82.33887051","NW 13th ST","NW 45th AVE","Nearside","North","Active","POINT (-82.33887051 29.69542593)"
"954","2019-12-04T00:00:00.000","Enclave Apartments","29.625581","-82.36635733","SW 28th PL","SW 28th PL","Farside","West","Active","POINT (-82.36635733 29.625581)"
"421","2019-11-13T00:00:00.000","Walnut Creek Neighborhood","29.68844093","-82.36021701","NW 39th AVE","NW 25th TER","Nearside","East","Active","POINT (-82.36021701 29.68844093)"
"23","2021-03-10T00:00:00.000","UF Surge Area Drive","29.63054044","-82.36576268","Archer RD","Surge Area DR","Nearside","West","Active","POINT (-82.36576268 29.63054044)"
"614","2019-11-20T00:00:00.000","Southbound NE 24th Street @ NE 8th Avenue","29.66245577","-82.29369686","NE 24th ST","NE 8th AVE","Nearside","South","Active","POINT (-82.29369686 29.66245577)"
"209","2019-11-06T00:00:00.000","Alachua County Courthouse","29.64953707","-82.32490139","S Main ST","SW 2nd AVE","Nearside","North","Active","POINT (-82.32490139 29.64953707)"
"511","2019-11-19T00:00:00.000","First Church of the Nazarene","29.67421543","-82.3969155","NW 23rd AVE","NW 51st ST","Nearside","West","Active","POINT (-82.3969155 29.67421543)"
"1005","2019-12-04T00:00:00.000","Springhill Professional Center","29.688391","-82.430213","NW 83rd ST","NW 39th AVE","Nearside","North","Active","POINT (-82.430213 29.688391)"
"827","2019-11-27T00:00:00.000","Lakewood Villas Apartments","29.64632639","-82.40065519","SW 62nd BLVD","SW 52ND St","Nearside","South","Active","POINT (-82.40065519 29.64632639)"
"806","2019-11-27T00:00:00.000","Southwest Recreation Center","29.6381128","-82.36936377","Bledsoe DR","Hull RD","Nearside","South","Active","POINT (-82.36936377 29.6381128)"
"1111","2020-01-08T00:00:00.000","Kenwood Neighborhood","29.62092178","-82.42260949","SW 75th ST","SW 36th AVE","Farside","South","Active","POINT (-82.42260949 29.62092178)"
"775","2020-07-06T00:00:00.000","Sweetwater on 16th Apartments","29.6309677","-82.325332","SE 16th AVE","Williston RD","Nearside","East","Active","POINT (-82.325332 29.6309677)"
"1241","2020-07-06T00:00:00.000","Newell Drive across Hub","29.648691","-82.34578","Stadium RD","Buckman DR","Farside","West","Active","POINT (-82.34578 29.648691)"
"1349","2020-08-17T00:00:00.000","Hilton Garden Inn","29.62301617","-82.38571894","SW 33rd PL","SW 42nd ST","Farside","East","Active","POINT (-82.38571894 29.62301617)"
"258","2019-11-07T00:00:00.000","Johnson & Fletcher Insurance","29.6829092","-82.3391862","NW 13th ST","NW 33rd AVE","Nearside","North","Active","POINT (-82.3391862 29.6829092)"
"579","2019-11-20T00:00:00.000","Southbound NE 25th Street @ NE 6th Avenue","29.6567046","-82.29242336","NE 25th ST","NE 6th AVE","Farside","South","Active","POINT (-82.29242336 29.6567046)"
"1412","2021-03-10T00:00:00.000","College Park @ NW 5th AVE","29.65580888","-82.34164819","NW 5th AVE","NW 15th ST","Nearside","West","Active","POINT (-82.34164819 29.65580888)"
"959","2021-06-04T00:00:00.000","Maguire Village @ SW 34th Street","29.64207044","-82.37232667","SW 34th ST","Radio RD","Nearside","North","Active","POINT (-82.37232667 29.64207044)"
"288","2019-11-07T00:00:00.000","Alachua County Courthouse","29.64943027","-82.32510752","S Main ST","SE 2nd PL","Farside","South","Active","POINT (-82.32510752 29.64943027)"
"545","2021-06-08T00:00:00.000","NW 16th Ave @ NW 18th St","29.66659613","-82.34682135","NW 16th AVE","NW 18th ST","Nearside","East","Active","POINT (-82.34682135 29.66659613)"
"1004","2020-10-07T00:00:00.000","Windsor Assisted Living","29.68579267","-82.43022521","NW 83rd ST","NW 36th AVE",,"North","Active","POINT (-82.43022521 29.68579267)"
"28","2018-10-10T00:00:00.000","Bonefish Grill Seafood Restaurant @ Butler Plaza","29.62480428","-82.37761251","SW 35th BLVD","Archer RD","Farside","West","Active","POINT (-82.37761251 29.62480428)"
"60","2021-07-02T00:00:00.000","SE 4th St @ SE 10th Ave","29.64166565","-82.31995866","SE 4th ST","SE 10th AVE","Nearside","East","Suspended","POINT (-82.31995866 29.64166565)"
"1141","2020-01-09T00:00:00.000","Wilmot Gardens","29.63938779","-82.34971485","Mowry RD","Gale Lemerand DR","Farside","East","Active","POINT (-82.34971485 29.63938779)"
"1559","2020-09-01T00:00:00.000","Clark Butler BLVD @ Plaza southbound","29.626896","-82.384952","Clark Butler BLVD","Plaza BLVD","Nearside","South","Active","POINT (-82.384952 29.626896)"
