"waterbody_name","county","year","bloom_type","date_first_report","date_last_report","number_of_reports","latitude","longitude","georeference"
"Golden Pond","Queens","2020","C","2020-08-03T00:00:00.000","2020-08-03T00:00:00.000","1","40.771099","-73.7649","POINT (-73.7649 40.771099)"
"Chodikee Lake","Ulster","2020","C","2020-06-28T00:00:00.000","2020-09-25T00:00:00.000","2","41.772701","-73.983803","POINT (-73.983803 41.772701)"
"Cazenovia Lake","Madison","2020","C","2020-09-15T00:00:00.000","2020-09-15T00:00:00.000","2","42.9482","-75.872002","POINT (-75.872002 42.9482)"
"Wilber Lake","Otsego","2020","C","2020-11-09T00:00:00.000","2020-11-09T00:00:00.000","1","42.516701","-75.051002","POINT (-75.051002 42.516701)"
"Willowbrook Pond","Richmond","2020","C","2020-06-15T00:00:00.000","2020-08-14T00:00:00.000","2","40.605598","-74.157898","POINT (-74.157898 40.60559800000001)"
"Sleepy Hollow Lake","Greene","2020","C","2020-11-09T00:00:00.000","2020-11-09T00:00:00.000","1","42.294399","-73.8069","POINT (-73.8069 42.294399)"
"Butterfield Lake","Jefferson","2020","C","2020-08-31T00:00:00.000","2020-08-31T00:00:00.000","1","44.316502","-75.7752","POINT (-75.7752 44.316502)"
"Half Moon Lake","Yates","2020","C","2020-07-31T00:00:00.000","2020-07-31T00:00:00.000","1","42.69977407","-77.24507633","POINT (-77.24507633 42.69977407)"
"Prospect Park Lake","Kings","2020","C","2020-05-27T00:00:00.000","2020-10-28T00:00:00.000","23","40.6549","-73.969902","POINT (-73.969902 40.6549)"
"Honeoye Lake","Ontario","2020","C","2020-06-18T00:00:00.000","2020-09-15T00:00:00.000","24","42.7542","-77.511597","POINT (-77.511597 42.7542)"
"Kentwood Lake","Putnam","2020","C","2020-07-20T00:00:00.000","2020-09-22T00:00:00.000","4","41.483799","-73.696602","POINT (-73.696602 41.483799)"
"Dead Lake","Washington","2020","C","2020-04-05T00:00:00.000","2020-11-20T00:00:00.000","6","43.098099","-73.378899","POINT (-73.378899 43.098099)"
"Lake Neatahwanta","Oswego","2020","C","2020-05-26T00:00:00.000","2020-10-28T00:00:00.000","20","43.308102","-76.437202","POINT (-76.437202 43.308102)"
"Lake Champlain","Essex, Clinton","2020","C","2020-07-28T00:00:00.000","2020-09-08T00:00:00.000","4","44.577944","-73.385441","POINT (-73.385441 44.577944)"
"Lake Waccabuc","Westchester","2020","C","2020-07-06T00:00:00.000","2020-07-19T00:00:00.000","3","41.297699","-73.584099","POINT (-73.584099 41.297699)"
"Mill Pond (Watermill)","Suffolk","2020","C","2020-06-18T00:00:00.000","2020-09-08T00:00:00.000","12","40.914501","-72.358299","POINT (-72.358299 40.914501)"
"Bedford Lake","Westchester","2020","C","2020-07-12T00:00:00.000","2020-08-23T00:00:00.000","5","41.194801","-73.703697","POINT (-73.703697 41.194801)"
"Little Fresh Pond","Suffolk","2020","C","2020-05-27T00:00:00.000","2020-11-09T00:00:00.000","15","40.918201","-72.408501","POINT (-72.408501 40.918201)"
"Roaring Brook Lake","Putnam","2020","C","2020-05-22T00:00:00.000","2020-10-23T00:00:00.000","16","41.438801","-73.807503","POINT (-73.807503 41.438801)"
"Morningside Pond","New York","2020","C","2020-05-29T00:00:00.000","2020-07-17T00:00:00.000","4","40.803761","-73.958943","POINT (-73.958943 40.80376100000001)"
"Buckingham Lake","Albany","2020","C","2020-08-15T00:00:00.000","2020-08-30T00:00:00.000","2","42.663502","-73.807098","POINT (-73.807098 42.663502)"
"Iroquois Lake","Schenectady","2020","C","2020-08-01T00:00:00.000","2020-10-22T00:00:00.000","5","42.799999","-73.9123","POINT (-73.9123 42.799999)"
"Friends Lake","Warren","2020","C","2020-08-10T00:00:00.000","2020-08-10T00:00:00.000","1","43.6259","-73.844002","POINT (-73.844002 43.62590000000001)"
"Lloyd Harbor Park Pond","Suffolk","2020","C","2020-07-29T00:00:00.000","2020-07-29T00:00:00.000","1","40.90186945","-73.47806953","POINT (-73.47806953000001 40.90186945)"
"Lake Lincolndale","Westchester","2020","C","2020-08-23T00:00:00.000","2020-09-07T00:00:00.000","3","41.341999","-73.725403","POINT (-73.725403 41.341999)"
"Allen Lake","Allegany","2020","C","2020-07-24T00:00:00.000","2020-07-24T00:00:00.000","1","42.3852","-78.066704","POINT (-78.066704 42.3852)"
"Cranberry Pond","Monroe","2020","C","2020-08-04T00:00:00.000","2020-08-04T00:00:00.000","1","43.300499","-77.697304","POINT (-77.697304 43.300499)"
"White Pond","Putnam","2020","C","2020-07-12T00:00:00.000","2020-07-12T00:00:00.000","1","41.500999","-73.723396","POINT (-73.723396 41.500999)"
"Miller Pond","Chemung","2020","C","2020-09-17T00:00:00.000","2020-09-17T00:00:00.000","1","42.0714","-76.792198","POINT (-76.792198 42.0714)"
"Wainscott Pond","Suffolk","2020","C","2020-06-10T00:00:00.000","2020-11-11T00:00:00.000","24","40.929298","-72.242599","POINT (-72.242599 40.929298)"
"Hyde Lake","Jefferson","2020","C","2020-08-19T00:00:00.000","2020-08-19T00:00:00.000","1","44.243599","-75.833198","POINT (-75.833198 44.243599)"
"Champlain Canal","Washington","2020","C","2020-08-20T00:00:00.000","2020-08-20T00:00:00.000","1","43.2822","-73.559","POINT (-73.559 43.2822)"
"Casterline Pond","Cortland","2020","C","2020-07-04T00:00:00.000","2020-07-04T00:00:00.000","1","42.650799","-76.173798","POINT (-76.17379800000002 42.650799)"
"Green Lake","Erie","2020","C","2020-09-30T00:00:00.000","2020-09-30T00:00:00.000","1","42.757301","-78.751404","POINT (-78.751404 42.757301)"
"Unnamed Pond Big Flats","Chemung","2020","C","2020-08-12T00:00:00.000","2020-08-12T00:00:00.000","1","42.143903","-76.917257","POINT (-76.917257 42.143903)"
"Cossayuna Lake","Washington","2020","C","2020-08-14T00:00:00.000","2020-09-22T00:00:00.000","5","43.2006","-73.423401","POINT (-73.423401 43.2006)"
"Orange Lake","Orange","2020","C","2020-08-09T00:00:00.000","2020-09-11T00:00:00.000","8","41.548801","-74.103699","POINT (-74.103699 41.548801)"
"Unnamed Pond Hamilton","Madison","2020","C","2020-08-01T00:00:00.000","2020-08-01T00:00:00.000","1","42.83608714","-75.44036611","POINT (-75.44036611 42.83608714)"
"The Lindsay-Parsons Biodiversity Preserve Lakes(s)","Tompkins","2020","C","2020-10-17T00:00:00.000","2020-10-17T00:00:00.000","1","42.309101","-76.517799","POINT (-76.517799 42.309101)"
"Skaneateles Lake","Onondaga, Cortland, Cayuga","2020","C","2020-08-10T00:00:00.000","2020-10-09T00:00:00.000","23","42.8451","-76.350304","POINT (-76.350304 42.8451)"
"Upper Little York Lake","Cortland","2020","C","2020-06-22T00:00:00.000","2020-06-29T00:00:00.000","2","42.7033","-76.1558","POINT (-76.1558 42.7033)"
"Clove Lake","Richmond","2020","C","2020-06-28T00:00:00.000","2020-09-08T00:00:00.000","2","40.616798","-74.107597","POINT (-74.107597 40.616798)"
"Allegheny Reservoir","Cattaraugus","2020","C","2020-09-01T00:00:00.000","2020-10-16T00:00:00.000","5","42.030537","-78.946871","POINT (-78.946871 42.030537)"
"Goose Pond","Queens","2020","C","2020-07-13T00:00:00.000","2020-10-06T00:00:00.000","5","40.711899","-73.798698","POINT (-73.798698 40.711899)"
"Winding Hills Park Lake","Orange","2020","C","2020-10-20T00:00:00.000","2020-10-20T00:00:00.000","1","41.538799","-74.275299","POINT (-74.275299 41.538799)"
"Hemlock Lake","Livingston, Ontario","2020","C","2020-06-26T00:00:00.000","2020-09-08T00:00:00.000","4","42.705799","-77.605904","POINT (-77.605904 42.705799)"
"Tanglewood Lake","Steuben","2020","C","2020-06-21T00:00:00.000","2020-08-23T00:00:00.000","4","42.193635","-77.251116","POINT (-77.251116 42.193635)"
"Clear Lake","Erie","2020","C","2020-09-29T00:00:00.000","2020-09-29T00:00:00.000","1","42.553501","-78.852997","POINT (-78.852997 42.553501000000004)"
"Kellis Pond","Suffolk","2020","C","2020-06-29T00:00:00.000","2020-06-29T00:00:00.000","1","40.9272","-72.317497","POINT (-72.317497 40.9272)"
"Lake Welch","Rockland","2020","C","2020-07-25T00:00:00.000","2020-09-25T00:00:00.000","2","41.230701","-74.074699","POINT (-74.074699 41.230701)"
"Lake Ontario","Jefferson, Niagara, Monroe, Oswego, Cayuga, NA","2020","C","2020-08-22T00:00:00.000","2020-09-06T00:00:00.000","5","43.66","76.18","POINT (76.18 43.660000000000004)"
"Unnamed Pond Krumville","Putnam","2020","C","2020-07-19T00:00:00.000","2020-07-19T00:00:00.000","1","41.870872","-74.264565","POINT (-74.264565 41.870872)"
"Willow Pond","Suffolk","2020","C","2020-05-01T00:00:00.000","2020-05-01T00:00:00.000","1","40.903099","-73.415901","POINT (-73.415901 40.903099)"
"Madison Lake","Madison","2020","C","2020-08-08T00:00:00.000","2020-08-08T00:00:00.000","1","42.9016","-75.524101","POINT (-75.524101 42.9016)"
"Little Wolf Pond","Franklin","2020","C","2020-11-06T00:00:00.000","2020-11-06T00:00:00.000","1","44.253399","-74.479202","POINT (-74.479202 44.253399)"
"Fresh Pond","Suffolk","2020","C","2020-07-05T00:00:00.000","2020-07-05T00:00:00.000","1","41.056999","-72.336304","POINT (-72.336304 41.056999)"
"Cayuta Lake","Schuyler","2020","C","2020-07-22T00:00:00.000","2020-10-04T00:00:00.000","5","42.367001","-76.735298","POINT (-76.735298 42.367001)"
"Unnamed Wallkill Pond","Ulster","2020","C","2020-08-23T00:00:00.000","2020-09-07T00:00:00.000","2","41.650299","-74.220398","POINT (-74.22039800000002 41.650299)"
"Alcove Reservoir","Albany, Cortland","2020","C","2020-09-25T00:00:00.000","2020-09-25T00:00:00.000","1","42.476898","-73.937599","POINT (-73.937599 42.476898)"
"Otter Lake","Oneida","2020","C","2020-09-28T00:00:00.000","2020-09-28T00:00:00.000","1","43.592098","-75.114601","POINT (-75.114601 43.592098)"
"Bowne Pond","Queens","2020","C","2020-06-29T00:00:00.000","2020-06-29T00:00:00.000","1","40.770707","-73.808255","POINT (-73.80825500000002 40.770707)"
"Lake Carmel","Putnam","2020","C","2020-07-04T00:00:00.000","2020-07-20T00:00:00.000","6","41.4585","-73.665001","POINT (-73.665001 41.4585)"
"Rollins Pond","Franklin","2020","C","2020-08-28T00:00:00.000","2020-08-28T00:00:00.000","1","44.3106","-74.413803","POINT (-74.413803 44.3106)"
"Lake Lacoma","Monroe","2020","C","2020-10-06T00:00:00.000","2020-10-06T00:00:00.000","1","43.0509","-77.479401","POINT (-77.479401 43.0509)"
"Snyders Lake","Rensselaer","2020","C","2020-09-22T00:00:00.000","2020-11-10T00:00:00.000","3","42.663101","-73.634697","POINT (-73.63469700000002 42.663101)"
"Canandaigua Lake","Ontario, Yates, NA","2020","C","2020-07-20T00:00:00.000","2020-10-09T00:00:00.000","76","42.778","-77.305099","POINT (-77.305099 42.778)"
"Twin Lakes (north)","Columbia","2020","C","2020-09-26T00:00:00.000","2020-09-26T00:00:00.000","1","42.061901","-73.794701","POINT (-73.794701 42.061901)"
"Dryden Lake","Tompkins","2020","C","2020-08-01T00:00:00.000","2020-08-03T00:00:00.000","2","42.462002","-76.272598","POINT (-76.272598 42.462002)"
"Black Lake","St Lawrence","2020","C","2020-07-01T00:00:00.000","2020-08-22T00:00:00.000","4","44.537998","-75.568802","POINT (-75.568802 44.537998)"
"Harlem Meer","New York","2020","C","2020-05-29T00:00:00.000","2020-09-09T00:00:00.000","11","40.796101","-73.951202","POINT (-73.951202 40.796101)"
"Canadarago Lake","Otsego","2020","C","2020-07-24T00:00:00.000","2020-07-24T00:00:00.000","1","42.8153","-75.006103","POINT (-75.006103 42.8153)"
"Silver Mine Lake","Orange","2020","C","2020-10-24T00:00:00.000","2020-10-24T00:00:00.000","1","41.290402","-74.054901","POINT (-74.054901 41.290402)"
"Tomhannock Reservoir","Rensselaer","2020","C","2020-08-18T00:00:00.000","2020-08-19T00:00:00.000","2","42.857399","-73.568199","POINT (-73.568199 42.857399)"
"Laurel Lake","Broome","2020","C","2020-08-09T00:00:00.000","2020-08-19T00:00:00.000","2","42.010399","-75.480301","POINT (-75.480301 42.010399)"
"De Ruyter Reservoir","Madison","2020","C","2020-09-25T00:00:00.000","2020-09-25T00:00:00.000","1","42.810699","-75.888603","POINT (-75.888603 42.810699)"
"Java Lake","Wyoming","2020","C","2020-07-13T00:00:00.000","2020-09-20T00:00:00.000","5","42.631302","-78.343903","POINT (-78.343903 42.631302)"
"Martlings Lake","Richmond","2020","C","2020-06-28T00:00:00.000","2020-06-28T00:00:00.000","1","40.6222","-74.116798","POINT (-74.116798 40.6222)"
"Mirror Lake","Essex","2020","C","2020-11-09T00:00:00.000","2020-11-09T00:00:00.000","1","44.289001","-73.982101","POINT (-73.982101 44.289001)"
"Fort Pond","Suffolk","2020","C","2020-08-19T00:00:00.000","2020-09-22T00:00:00.000","9","41.041698","-71.953201","POINT (-71.953201 41.041698)"
"Big Reed Pond","Suffolk","2020","C","2020-06-24T00:00:00.000","2020-08-26T00:00:00.000","9","41.078098","-71.910103","POINT (-71.910103 41.078098)"
"Oneida Lake","Oswego, Oneida, Madison, Onondaga","2020","C","2020-08-06T00:00:00.000","2020-08-23T00:00:00.000","4","43.2033","-75.910004","POINT (-75.910004 43.2033)"
"Lake Peekskill","Putnam","2020","C","2020-07-21T00:00:00.000","2020-08-20T00:00:00.000","3","41.3395","-73.882797","POINT (-73.882797 41.3395)"
"Indian Lake","Hamilton","2020","C","2020-10-25T00:00:00.000","2020-10-25T00:00:00.000","1","43.685699","-74.329903","POINT (-74.329903 43.685699)"
"Swinging Bridge Reservoir","Sullivan","2020","C","2020-08-05T00:00:00.000","2020-08-08T00:00:00.000","2","41.5895","-74.778603","POINT (-74.778603 41.5895)"
"Hudson River","Dutchess","2020","C","2020-07-13T00:00:00.000","2020-07-13T00:00:00.000","1","-73.759598","40.758598","POINT (40.758598 -73.759598)"
"Agawam Lake","Suffolk","2020","C","2020-05-22T00:00:00.000","2020-11-17T00:00:00.000","28","40.874401","-72.392197","POINT (-72.392197 40.874401)"
"Summit Lake","Washington","2020","C","2020-11-20T00:00:00.000","2020-11-20T00:00:00.000","1","43.210201","-73.463203","POINT (-73.463203 43.210201)"
"Little Choconut Creek (Flood reservoir)","Broome","2020","C","2020-08-09T00:00:00.000","2020-08-09T00:00:00.000","1","42.13708","-75.94203","POINT (-75.94203 42.13708)"
"Sagg Pond","Suffolk","2020","C","2020-07-20T00:00:00.000","2020-09-18T00:00:00.000","5","40.910599","-72.284302","POINT (-72.284302 40.910599)"
"Monroe Pond","Orange","2020","C","2020-06-22T00:00:00.000","2020-06-22T00:00:00.000","1","41.327599","-74.1893","POINT (-74.1893 41.327599)"
"Highland Lake","Sullivan","2020","C","2020-07-23T00:00:00.000","2020-08-12T00:00:00.000","4","41.5294","-74.848999","POINT (-74.848999 41.5294)"
"Duane Lake","Schenectady","2020","C","2020-07-14T00:00:00.000","2020-09-15T00:00:00.000","4","42.7491","-74.112602","POINT (-74.112602 42.7491)"
"Big Fresh Pond","Suffolk","2020","C","2020-08-14T00:00:00.000","2020-08-14T00:00:00.000","1","40.922199","-72.4188","POINT (-72.4188 40.922199)"
"Wilcox Park Pond North","Dutchess","2020","C","2020-07-20T00:00:00.000","2020-07-20T00:00:00.000","1","41.952761","-73.725794","POINT (-73.725794 41.952761)"
"Turtle Pond","New York","2020","C","2020-07-17T00:00:00.000","2020-09-25T00:00:00.000","8","40.779301","-73.9674","POINT (-73.9674 40.779301)"
"Putnam Lake","Putnam","2020","C","2020-07-09T00:00:00.000","2020-09-26T00:00:00.000","6","41.4664","-73.539597","POINT (-73.539597 41.4664)"
"Hedges Lake","Washington","2020","C","2020-10-19T00:00:00.000","2020-10-19T00:00:00.000","1","43.107399","-73.382896","POINT (-73.382896 43.107399)"
"Lake Mac Gregor","Saratoga","2020","C","2020-09-24T00:00:00.000","2020-09-24T00:00:00.000","1","41.382702","-73.769716","POINT (-73.769716 41.38270200000001)"
"Wallkill River","Ulster","2020","C","2020-09-22T00:00:00.000","2020-09-22T00:00:00.000","3","-74.0473613","41.82719093","POINT (41.82719093 -74.0473613)"
"Chautauqua Lake","Chautauqua","2020","C","2020-06-16T00:00:00.000","2020-09-20T00:00:00.000","49","42.202801","-79.4385","POINT (-79.4385 42.202801)"
"Lake George","Warren, Washington, Essex","2020","C","2020-10-23T00:00:00.000","2020-11-15T00:00:00.000","4","43.6539","-73.498802","POINT (-73.498802 43.6539)"
"Barnum Pond","Franklin","2020","C","2020-09-21T00:00:00.000","2020-09-21T00:00:00.000","1","44.459999","-74.259499","POINT (-74.259499 44.459999)"
"Silver Lake","Wyoming","2020","C","2020-07-30T00:00:00.000","2020-08-12T00:00:00.000","2","42.687199","-78.034798","POINT (-78.034798 42.687199)"
"Cannonsville Reservoir","Delaware","2020","C","2020-07-31T00:00:00.000","2020-10-14T00:00:00.000","3","42.1063","-75.280998","POINT (-75.280998 42.1063)"
"Quaker Lake","Cattaraugus","2020","C","2020-08-06T00:00:00.000","2020-10-23T00:00:00.000","3","42.043301","-78.867798","POINT (-78.867798 42.043301)"
"Kissena Lake","Queens","2020","C","2020-08-06T00:00:00.000","2020-08-06T00:00:00.000","1","40.7481","-73.805496","POINT (-73.805496 40.7481)"
"Lake Tiorati","Orange","2020","C","2020-07-24T00:00:00.000","2020-08-24T00:00:00.000","3","41.2617","-74.087898","POINT (-74.087898 41.2617)"
"Basic Creek Reservoir","Albany","2020","C","2020-07-13T00:00:00.000","2020-09-16T00:00:00.000","3","42.481201","-74.013901","POINT (-74.013901 42.481201)"
"Chenango Lake","Chenango","2020","C","2020-10-22T00:00:00.000","2020-10-22T00:00:00.000","1","42.5826","-75.4412","POINT (-75.4412 42.5826)"
"Jamesville reservoir","Onondaga","2020","C","2020-08-06T00:00:00.000","2020-08-09T00:00:00.000","2","42.973999","-76.069099","POINT (-76.069099 42.973999)"
"Whitney Point Reservoir","Broome","2020","C","2020-07-18T00:00:00.000","2020-09-25T00:00:00.000","4","42.3661","-75.977203","POINT (-75.977203 42.3661)"
"Mountain Lake","Sullivan","2020","C","2020-10-04T00:00:00.000","2020-10-04T00:00:00.000","1","41.657101","-74.814796","POINT (-74.814796 41.657101)"
"Glen Lake","Warren","2020","C","2020-11-09T00:00:00.000","2020-11-09T00:00:00.000","1","43.363602","-73.673202","POINT (-73.673202 43.363602)"
"Washington Park Pond","Albany","2020","C","2020-09-15T00:00:00.000","2020-09-15T00:00:00.000","1","42.657101","-73.7733","POINT (-73.7733 42.657101)"
"Mariaville Lake","Schenectady","2020","C","2020-08-13T00:00:00.000","2020-09-03T00:00:00.000","2","42.833698","-74.1119","POINT (-74.1119 42.833698)"
"Otisco Lake","Onondaga","2020","C","2020-07-11T00:00:00.000","2020-11-08T00:00:00.000","3","42.8591","-76.279404","POINT (-76.279404 42.8591)"
"Brooks Lake","Richmond","2020","C","2020-08-18T00:00:00.000","2020-08-18T00:00:00.000","1","40.624401","-74.1203","POINT (-74.1203 40.624401000000006)"
"Red House Lake","Cattaraugus","2020","C","2020-08-04T00:00:00.000","2020-08-04T00:00:00.000","1","42.102798","-78.744598","POINT (-78.744598 42.102798)"
"Muskellunge Lake","Jefferson","2020","C","2020-09-22T00:00:00.000","2020-09-22T00:00:00.000","1","44.300499","-75.689003","POINT (-75.689003 44.300499)"
"Rockland Lake","Rockland","2020","C","2020-04-09T00:00:00.000","2020-05-04T00:00:00.000","2","41.138599","-73.922798","POINT (-73.922798 41.138599)"
"Schroon Lake","Warren, Essex","2020","C","2020-09-21T00:00:00.000","2020-09-21T00:00:00.000","1","43.774799","-73.778","POINT (-73.778 43.774799)"
"Lake Como","Cayuga","2020","C","2020-09-23T00:00:00.000","2020-09-28T00:00:00.000","2","42.6772","-76.302498","POINT (-76.302498 42.6772)"
"Tully Lake","Cortland","2020","C","2020-08-05T00:00:00.000","2020-09-20T00:00:00.000","2","42.776401","-76.1352","POINT (-76.1352 42.77640100000001)"
"Cross Lake","Cayuga, Onondaga","2020","C","2020-07-24T00:00:00.000","2020-07-27T00:00:00.000","2","43.111","-76.4692","POINT (-76.4692 43.111)"
"Croton Falls Reservoir","Putnam","2020","C","2020-08-18T00:00:00.000","2020-08-18T00:00:00.000","1","41.378101","-73.654701","POINT (-73.654701 41.378101)"
"Little Pond","Dutchess","2020","C","2020-09-26T00:00:00.000","2020-09-26T00:00:00.000","1","41.561901","-73.651497","POINT (-73.651497 41.561901)"
"Old Town Pond","Suffolk","2020","C","2020-07-01T00:00:00.000","2020-08-26T00:00:00.000","10","40.8778","-72.3722","POINT (-72.3722 40.8778)"
"Turtle Pond","Oneida","2020","C","2020-08-06T00:00:00.000","2020-08-06T00:00:00.000","1","43.28994","-75.417986","POINT (-75.417986 43.28994)"
"Waneta Lake","Schuyler","2020","C","2020-08-07T00:00:00.000","2020-08-07T00:00:00.000","1","42.4445","-77.101799","POINT (-77.101799 42.4445)"
"Kirk Lake","Putnam","2020","C","2020-11-20T00:00:00.000","2020-11-20T00:00:00.000","1","41.385601","-73.749802","POINT (-73.749802 41.385601)"
"Pleasure Lake","Sullivan","2020","C","2020-06-09T00:00:00.000","2020-07-26T00:00:00.000","2","41.696098","-74.627998","POINT (-74.627998 41.696098)"
"Catherine Creek Wildlife Management Area","Schuyler","2020","C","2020-09-27T00:00:00.000","2020-10-01T00:00:00.000","2","42.3581432","-76.84194358","POINT (-76.84194358 42.3581432)"
"Indian Pond","Bronx","2020","C","2020-06-08T00:00:00.000","2020-10-06T00:00:00.000","4","40.838299","-73.894096","POINT (-73.894096 40.838299)"
"Lebanon Reservoir","Madison","2020","C","2020-09-03T00:00:00.000","2020-09-03T00:00:00.000","1","42.802898","-75.606903","POINT (-75.60690300000002 42.802898)"
"Maratooka Lake","Suffolk","2020","C","2020-06-29T00:00:00.000","2020-08-24T00:00:00.000","7","40.993099","-72.524002","POINT (-72.52400200000001 40.993099)"
"Unnamed Water","Oswego","2020","C","2020-08-20T00:00:00.000","2020-08-20T00:00:00.000","1","43.3293","-76.054199","POINT (-76.054199 43.3293)"
"The Lake in Central Park","New York","2020","C","2020-07-06T00:00:00.000","2020-10-14T00:00:00.000","14","40.776501","-73.972603","POINT (-73.972603 40.776501)"
"Seewackamano Lake","Ulster","2020","C","2020-08-10T00:00:00.000","2020-08-10T00:00:00.000","1","41.996201","-74.231003","POINT (-74.231003 41.996201)"
"Conewango River","Chautauqua","2020","C","2020-09-21T00:00:00.000","2020-09-21T00:00:00.000","1","42.05263","-79.17541","POINT (-79.17541 42.05263)"
"Hyde Park Lake","Niagara","2020","C","2020-07-23T00:00:00.000","2020-09-22T00:00:00.000","3","43.100662","-79.022324","POINT (-79.022324 43.100662)"
"Lake Mohegan","Westchester","2020","C","2020-07-06T00:00:00.000","2020-09-28T00:00:00.000","2","41.313999","-73.848801","POINT (-73.848801 41.313999)"
"Loon Lake","Steuben","2020","C","2020-06-22T00:00:00.000","2020-09-08T00:00:00.000","3","42.492599","-77.566902","POINT (-77.566902 42.492599)"
"Thunder Lake","Chenango","2020","C","2020-07-18T00:00:00.000","2020-09-08T00:00:00.000","8","42.269001","-75.727997","POINT (-75.727997 42.269001)"
"Bear Gulch Pond","Schoharie","2020","C","2020-10-06T00:00:00.000","2020-10-06T00:00:00.000","1","42.5919","-74.594803","POINT (-74.594803 42.5919)"
"Truesdale Lake","Westchester","2020","C","2020-09-24T00:00:00.000","2020-10-09T00:00:00.000","2","41.2817","-73.553398","POINT (-73.553398 41.2817)"
"Fresh Pond Salonga","Suffolk","2020","C","2020-06-07T00:00:00.000","2020-07-02T00:00:00.000","2","40.921398","-73.296303","POINT (-73.296303 40.921398)"
"North Sandy Pond","Oswego","2020","C","2020-08-29T00:00:00.000","2020-08-29T00:00:00.000","1","43.6535","-76.176002","POINT (-76.176002 43.65350000000001)"
"Herrlich Pond","Putnam","2020","C","2020-08-17T00:00:00.000","2020-08-17T00:00:00.000","1","41.473701","-73.632797","POINT (-73.63279700000001 41.473701)"
"Cayuga Lake","Cayuga, Tompkins, Seneca","2020","C","2020-07-04T00:00:00.000","2020-10-09T00:00:00.000","94","42.688301","-76.702103","POINT (-76.702103 42.688301)"
"Lake Clear","Franklin","2020","C","2020-08-15T00:00:00.000","2020-08-15T00:00:00.000","2","44.369202","-74.252296","POINT (-74.252296 44.369202)"
"Unnamed Water","Saratoga","2020","C","2020-09-06T00:00:00.000","2020-09-06T00:00:00.000","1","42.948502","-73.648804","POINT (-73.648804 42.948502)"
"Roth Pond","Suffolk","2020","C","2020-07-02T00:00:00.000","2020-07-02T00:00:00.000","1","40.911804","-73.123789","POINT (-73.123789 40.911804)"
"The Pond in Central Park","New York","2020","C","2020-08-28T00:00:00.000","2020-08-28T00:00:00.000","1","40.765999","-73.974098","POINT (-73.974098 40.765999)"
"Little Pond","Delaware","2020","C","2020-09-25T00:00:00.000","2020-09-25T00:00:00.000","1","42.039799","-74.7472","POINT (-74.7472 42.039799)"
"Conesus Lake","Livingston","2020","C","2020-06-29T00:00:00.000","2020-06-29T00:00:00.000","3","42.752201","-77.718697","POINT (-77.71869700000002 42.752201)"
"Montgomery Lake","Sullivan","2020","C","2020-07-26T00:00:00.000","2020-08-23T00:00:00.000","3","41.525299","-74.917297","POINT (-74.917297 41.525299)"
"Launt Pond","Delaware","2020","C","2020-07-19T00:00:00.000","2020-07-25T00:00:00.000","2","42.119999","-75.071503","POINT (-75.071503 42.119999)"
"Port Bay","Wayne","2020","C","2020-07-31T00:00:00.000","2020-08-11T00:00:00.000","20","43.2976","-76.8321","POINT (-76.8321 43.2976)"
"Greenwood Lake","Orange","2020","C","2020-05-30T00:00:00.000","2020-05-30T00:00:00.000","1","41.1898","-74.319603","POINT (-74.319603 41.1898)"
"Whey Pond","Franklin","2020","C","2020-08-28T00:00:00.000","2020-08-28T00:00:00.000","1","44.3078","-74.392403","POINT (-74.392403 44.3078)"
"Millpond","Wayne","2020","C","2020-08-19T00:00:00.000","2020-08-19T00:00:00.000","1","43.169701","-76.7658","POINT (-76.7658 43.169701)"
"Laurel Lake","Suffolk","2020","C","2020-07-17T00:00:00.000","2020-07-25T00:00:00.000","2","40.978901","-72.557503","POINT (-72.557503 40.978901)"
"Guymard Lake","Orange","2020","C","2020-07-23T00:00:00.000","2020-07-23T00:00:00.000","1","41.428398","-74.6008","POINT (-74.6008 41.428398)"
"Mecox Bay","Suffolk","2020","C","2020-09-02T00:00:00.000","2020-09-02T00:00:00.000","3","40.901298","-72.333397","POINT (-72.333397 40.901298)"
"Vosburg Pond","Rensselaer","2020","C","2020-07-13T00:00:00.000","2020-10-22T00:00:00.000","3","42.656898","-73.5606","POINT (-73.5606 42.656898)"
"Silver Lake Reservoir","Richmond","2020","C","2020-07-16T00:00:00.000","2020-07-16T00:00:00.000","1","40.626202","-74.096497","POINT (-74.096497 40.626202)"
"Unnamed Pond Georgetown","Madison","2020","C","2020-08-01T00:00:00.000","2020-08-01T00:00:00.000","1","42.80026","-75.696597","POINT (-75.696597 42.80026)"
"Owasco Lake","Cayuga","2020","C","2020-07-24T00:00:00.000","2020-10-05T00:00:00.000","70","42.873798","-76.528198","POINT (-76.528198 42.873798)"
"Findley Lake","Chautauqua","2020","C","2020-08-31T00:00:00.000","2020-08-31T00:00:00.000","1","42.101898","-79.726196","POINT (-79.726196 42.101898)"
"Smith Pond","Steuben","2020","C","2020-08-23T00:00:00.000","2020-08-23T00:00:00.000","1","42.388802","-77.474403","POINT (-77.474403 42.388802)"
"Bradley Brook Reservoir","Madison","2020","C","2020-09-10T00:00:00.000","2020-09-10T00:00:00.000","1","42.834","-75.662201","POINT (-75.662201 42.834)"
"Barger Pond","Putnam","2020","C","2020-07-25T00:00:00.000","2020-10-15T00:00:00.000","3","41.359501","-73.812698","POINT (-73.812698 41.359501)"
"Lake Ronkonkoma","Suffolk","2020","C","2020-08-31T00:00:00.000","2020-10-20T00:00:00.000","2","40.827599","-73.122498","POINT (-73.122498 40.827599)"
"Little Tupper Lake","Hamilton","2020","C","2020-09-20T00:00:00.000","2020-09-20T00:00:00.000","1","44.0406","-74.606499","POINT (-74.606499 44.0406)"
"Morningside Lake","Sullivan","2020","C","2020-09-14T00:00:00.000","2020-10-22T00:00:00.000","2","41.75116","-74.651001","POINT (-74.651001 41.75116)"
"Whaley Lake","Dutchess","2020","C","2020-09-28T00:00:00.000","2020-09-28T00:00:00.000","1","41.5537","-73.664902","POINT (-73.664902 41.5537)"
"Seneca River","Onondaga, Seneca","2020","C","2020-07-22T00:00:00.000","2020-08-19T00:00:00.000","4","43.16131633","-76.35584306","POINT (-76.35584306 43.16131633)"
"Lake Salubria","Steuben","2020","C","2020-06-23T00:00:00.000","2020-06-23T00:00:00.000","1","42.3293","-77.2929","POINT (-77.2929 42.3293)"
"Seneca Lake","Seneca, Schuyler, Yates, Ontario","2020","C","2020-08-22T00:00:00.000","2020-10-09T00:00:00.000","16","42.669266","-76.896473","POINT (-76.896473 42.669266)"
"Song Lake","Cortland","2020","C","2020-05-26T00:00:00.000","2020-10-28T00:00:00.000","3","42.772301","-76.146864","POINT (-76.146864 42.772301)"
"Page Pond","Broome","2020","C","2020-07-28T00:00:00.000","2020-07-28T00:00:00.000","1","42.142601","-75.482201","POINT (-75.482201 42.142601)"
"Keuka Lake","Steuben, Yates","2020","C","2020-07-21T00:00:00.000","2020-09-19T00:00:00.000","14","42.493401","-77.139504","POINT (-77.139504 42.493401)"
"Meacham Lake","Franklin","2019","S","2019-07-04T00:00:00.000","2019-09-21T00:00:00.000","3","44.5621","-74.286301","POINT (-74.28630100000001 44.5621)"
"Duane Lake","Schenectady","2019","C","2019-06-15T00:00:00.000","2019-06-15T00:00:00.000","1","42.7491","-74.112602","POINT (-74.112602 42.7491)"
"Lake Tiorati","Orange","2019","S","2019-07-17T00:00:00.000","2019-07-17T00:00:00.000","1","41.2617","-74.087898","POINT (-74.087898 41.2617)"
"Hyde Park Lake","Niagara","2019","S","2019-10-21T00:00:00.000","2019-10-21T00:00:00.000","1","43.100662","-79.022324","POINT (-79.022324 43.100662)"
"Barnes Lake","Orange","2019","S","2019-08-05T00:00:00.000","2019-08-27T00:00:00.000","2","41.325901","-74.080902","POINT (-74.08090200000001 41.325901)"
"Poxabogue Pond","Suffolk","2019","C","2019-08-20T00:00:00.000","2019-08-20T00:00:00.000","1","40.944698","-72.2854","POINT (-72.2854 40.944698)"
"Long Pond","Putnam","2019","S","2019-08-14T00:00:00.000","2019-08-14T00:00:00.000","1","41.4095","-73.7332","POINT (-73.7332 41.4095)"
"Cuba Lake","Allegany","2019","C","2019-09-03T00:00:00.000","2019-09-17T00:00:00.000","2","42.253399","-78.292801","POINT (-78.292801 42.253399)"
"Shadow Lake","Westchester","2019","S","2019-08-06T00:00:00.000","2019-08-06T00:00:00.000","1","41.208198","-73.819199","POINT (-73.819199 41.208198)"
"Lake Ontario","Jefferson, Niagara, Monroe, Oswego, Cayuga","2019","S","2019-07-05T00:00:00.000","2019-07-15T00:00:00.000","3","43.897698","-76.128101","POINT (-76.128101 43.897698)"
"Pleasant Lake","Oswego","2019","HT","2019-07-23T00:00:00.000","2019-07-23T00:00:00.000","1","43.235401","-76.222702","POINT (-76.222702 43.235401)"
"Mountain Lake","Sullivan","2019","C","2019-08-30T00:00:00.000","2019-09-18T00:00:00.000","2","41.657101","-74.814796","POINT (-74.814796 41.657101)"
"Lake Lucille","Rockland","2019","C","2019-09-15T00:00:00.000","2019-09-15T00:00:00.000","1","41.183701","-73.997803","POINT (-73.997803 41.183701)"
"Southards Pond","Suffolk","2019","S","2019-08-22T00:00:00.000","2019-08-22T00:00:00.000","1","40.710998","-73.328499","POINT (-73.328499 40.710998)"
"Strack Pond","Queens","2019","C","2019-10-01T00:00:00.000","2019-11-06T00:00:00.000","2","40.6994","-73.8554","POINT (-73.8554 40.6994)"
"Bosket Lake","Broome","2019","S","2019-08-28T00:00:00.000","2019-08-28T00:00:00.000","1","42.107101","-76.074501","POINT (-76.074501 42.107101)"
"Loon Lake","Steuben","2019","HT","2019-06-26T00:00:00.000","2019-09-21T00:00:00.000","3","42.492599","-77.566902","POINT (-77.566902 42.492599)"
"Plymouth Reservoir","Chenango","2019","C","2019-07-24T00:00:00.000","2019-07-24T00:00:00.000","1","42.5881","-75.651001","POINT (-75.651001 42.5881)"
"Lamoka Lake","Schuyler","2019","S","2019-08-31T00:00:00.000","2019-08-31T00:00:00.000","1","42.4058","-77.077797","POINT (-77.077797 42.4058)"
"De Ruyter Reservoir","Madison","2019","C","2019-08-26T00:00:00.000","2019-08-26T00:00:00.000","1","42.810699","-75.888603","POINT (-75.888603 42.810699)"
"Sodus Bay","Wayne","2019","C","2019-06-05T00:00:00.000","2019-07-03T00:00:00.000","4","43.248299","-76.958504","POINT (-76.958504 43.248299)"
"Sheldrake Lake","Westchester, Dutchess","2019","HT","2019-06-11T00:00:00.000","2019-09-10T00:00:00.000","5","40.9524","-73.774498","POINT (-73.774498 40.9524)"
"Lake Casse","Putnam","2019","S","2019-06-20T00:00:00.000","2019-07-29T00:00:00.000","4","41.386299","-73.709999","POINT (-73.70999900000001 41.38629900000001)"
"Deer Lake","Dutchess","2019","S","2019-06-29T00:00:00.000","2019-06-29T00:00:00.000","1","41.506401","-73.863296","POINT (-73.863296 41.506401)"
"Lake Sebago","Rockland","2019","S","2019-09-21T00:00:00.000","2019-09-22T00:00:00.000","2","41.198002","-74.134697","POINT (-74.134697 41.198002)"
"Honeoye Lake","Ontario","2019","HT","2019-07-01T00:00:00.000","2019-10-08T00:00:00.000","35","42.7542","-77.511597","POINT (-77.511597 42.7542)"
"Cross Lake","Cayuga, Onondaga","2019","S","2019-06-17T00:00:00.000","2019-06-17T00:00:00.000","2","43.111","-76.4692","POINT (-76.4692 43.111)"
"Long Pond","Rensselaer","2019","S","2019-07-16T00:00:00.000","2019-08-14T00:00:00.000","2","42.792099","-73.438698","POINT (-73.438698 42.792099)"
"Greenwood Lake","Orange","2019","C","2019-07-18T00:00:00.000","2019-07-25T00:00:00.000","3","41.1898","-74.319603","POINT (-74.319603 41.1898)"
"Tuscarora Lake","Madison","2019","C","2019-06-18T00:00:00.000","2019-06-18T00:00:00.000","1","42.866501","-75.758598","POINT (-75.758598 42.866501)"
"Saratoga Lake","Saratoga","2019","C","2019-09-06T00:00:00.000","2019-09-06T00:00:00.000","1","43.016701","-73.741501","POINT (-73.741501 43.016701)"
"Tanglewood Lake","Steuben","2019","C","2019-06-17T00:00:00.000","2019-09-15T00:00:00.000","7","42.193635","-77.251116","POINT (-77.251116 42.193635)"
"Kellis Pond","Suffolk","2019","HT","2019-10-23T00:00:00.000","2019-10-23T00:00:00.000","1","40.9272","-72.317497","POINT (-72.317497 40.9272)"
"Wainscott Pond","Suffolk","2019","C","2019-06-05T00:00:00.000","2019-10-28T00:00:00.000","16","40.929298","-72.242599","POINT (-72.242599 40.929298)"
"Washington Park Pond","Albany","2019","HT","2019-07-15T00:00:00.000","2019-10-19T00:00:00.000","7","42.657101","-73.7733","POINT (-73.7733 42.657101)"
"Lake Purdys","Westchester","2019","S","2019-06-20T00:00:00.000","2019-06-20T00:00:00.000","2","41.323299","-73.669998","POINT (-73.669998 41.323299)"
"Indian Lake","Hamilton","2019","S","2019-09-21T00:00:00.000","2019-09-21T00:00:00.000","1","43.685699","-74.329903","POINT (-74.329903 43.685699)"
"Pleasure Lake","Sullivan","2019","C","2019-08-12T00:00:00.000","2019-08-27T00:00:00.000","2","41.696098","-74.627998","POINT (-74.627998 41.696098)"
"Keuka Lake","Yates, Steuben","2019","S","2019-07-03T00:00:00.000","2019-10-30T00:00:00.000","24","42.493401","-77.139504","POINT (-77.139504 42.493401)"
"Seewackamano Lake","Ulster","2019","S","2019-08-14T00:00:00.000","2019-08-14T00:00:00.000","1","41.996201","-74.231003","POINT (-74.231003 41.996201)"
"Brooks Lake","Orange","2019","S","2019-08-21T00:00:00.000","2019-08-21T00:00:00.000","1","41.330299","-73.994698","POINT (-73.994698 41.330299)"
"Wilcox Park Pond North","Dutchess","2019","S","2019-07-19T00:00:00.000","2019-08-04T00:00:00.000","2","41.952761","-73.725794","POINT (-73.725794 41.952761)"
"New Croton Reservoir","Westchester","2019","S","2019-08-07T00:00:00.000","2019-08-07T00:00:00.000","1","41.2388","-73.821999","POINT (-73.821999 41.2388)"
"Unnamed Water","Erie","2019","S","2019-10-21T00:00:00.000","2019-10-21T00:00:00.000","1","42.8522","-78.858398","POINT (-78.858398 42.8522)"
"Butterfield Lake","Jefferson","2019","C","2019-09-08T00:00:00.000","2019-09-08T00:00:00.000","1","44.316502","-75.7752","POINT (-75.7752 44.316502)"
"Quaker Lake","Cattaraugus","2019","S","2019-07-03T00:00:00.000","2019-09-11T00:00:00.000","2","42.043301","-78.867798","POINT (-78.867798 42.043301)"
"Dryden Lake","Tompkins","2019","S","2019-07-24T00:00:00.000","2019-07-24T00:00:00.000","1","42.462002","-76.272598","POINT (-76.272598 42.462002)"
"Palmer Lake","Putnam","2019","C","2019-07-07T00:00:00.000","2019-07-07T00:00:00.000","1","41.438702","-73.673401","POINT (-73.673401 41.438702)"
"Mountain Lake","Fulton","2019","HT","2019-09-18T00:00:00.000","2019-09-18T00:00:00.000","1","43.106499","-74.370003","POINT (-74.37000300000001 43.106499)"
"Unnamed Water","Putnam","2019","S","2019-08-06T00:00:00.000","2019-08-06T00:00:00.000","1","41.4132","-73.863098","POINT (-73.863098 41.4132)"
"Waneta Lake","Schuyler","2019","S","2019-08-25T00:00:00.000","2019-08-25T00:00:00.000","1","42.4445","-77.101799","POINT (-77.101799 42.4445)"
"Song Lake","Cortland","2019","HT","2019-05-27T00:00:00.000","2019-10-08T00:00:00.000","9","42.772301","-76.146864","POINT (-76.146864 42.772301)"
"Agawam Lake","Suffolk","2019","HT","2019-06-18T00:00:00.000","2019-11-12T00:00:00.000","41","40.874401","-72.392197","POINT (-72.392197 40.874401)"
"Spitfire Lake","Franklin","2019","S","2019-08-26T00:00:00.000","2019-08-26T00:00:00.000","1","44.416401","-74.272797","POINT (-74.272797 44.416401)"
"Avon Marsh Dam Pond","Livingston","2019","S","2019-09-09T00:00:00.000","2019-09-17T00:00:00.000","2","42.9011","-77.668602","POINT (-77.668602 42.9011)"
"Unnamed Water","Columbia","2019","S","2019-07-17T00:00:00.000","2019-07-17T00:00:00.000","1","42.4701","-73.495201","POINT (-73.49520100000001 42.4701)"
"Laurel Lake","Suffolk","2019","C","2019-06-04T00:00:00.000","2019-08-19T00:00:00.000","11","40.978901","-72.557503","POINT (-72.557503 40.978901)"
"Casterline Pond","Cortland","2019","S","2019-07-26T00:00:00.000","2019-08-15T00:00:00.000","2","42.650799","-76.173798","POINT (-76.17379800000002 42.650799)"
"Harlem Meer","New York","2019","HT","2019-06-24T00:00:00.000","2019-09-16T00:00:00.000","7","40.796101","-73.951202","POINT (-73.951202 40.796101)"
"Beaver Lake","Lewis","2019","S","2019-06-20T00:00:00.000","2019-06-26T00:00:00.000","2","43.873199","-75.158096","POINT (-75.158096 43.873199)"
"Lake Peekskill","Putnam","2019","S","2019-07-15T00:00:00.000","2019-08-12T00:00:00.000","4","41.3395","-73.882797","POINT (-73.882797 41.3395)"
"Rockland Lake","Rockland","2019","C","2019-05-04T00:00:00.000","2019-10-31T00:00:00.000","5","41.138599","-73.922798","POINT (-73.922798 41.138599)"
"Findley Lake","Chautauqua","2019","HT","2019-07-18T00:00:00.000","2019-09-15T00:00:00.000","5","42.101898","-79.726196","POINT (-79.726196 42.101898)"
"Jamesville reservoir","Onondaga","2019","C","2019-07-08T00:00:00.000","2019-08-14T00:00:00.000","4","42.973999","-76.069099","POINT (-76.069099 42.973999)"
"Mill Pond (Watermill)","Suffolk","2019","C","2019-06-05T00:00:00.000","2019-07-24T00:00:00.000","7","40.914501","-72.358299","POINT (-72.358299 40.914501)"
"Montgomery Lake","Sullivan","2019","C","2019-07-14T00:00:00.000","2019-09-15T00:00:00.000","5","41.525299","-74.917297","POINT (-74.917297 41.525299)"
"Lake Carmel","Putnam","2019","S","2019-06-24T00:00:00.000","2019-08-12T00:00:00.000","4","41.4585","-73.665001","POINT (-73.665001 41.4585)"
"Unnamed Water","Dutchess","2019","S","2019-06-20T00:00:00.000","2019-07-03T00:00:00.000","3","41.504902","-73.873299","POINT (-73.873299 41.504902)"
"Moreau Lake","Saratoga","2019","S","2019-08-16T00:00:00.000","2019-10-30T00:00:00.000","3","43.2313","-73.711899","POINT (-73.711899 43.2313)"
"Orange Lake","Orange","2019","HT","2019-06-17T00:00:00.000","2019-09-15T00:00:00.000","13","41.548801","-74.103699","POINT (-74.103699 41.548801)"
"Lake Ronkonkoma","Suffolk","2019","HT","2019-06-17T00:00:00.000","2019-06-28T00:00:00.000","3","40.827599","-73.122498","POINT (-73.122498 40.827599)"
"Port Bay","Wayne","2019","S","2019-08-19T00:00:00.000","2019-09-16T00:00:00.000","3","43.2976","-76.8321","POINT (-76.8321 43.2976)"
"Winding Hills Park Lake","Orange","2019","S","2019-08-24T00:00:00.000","2019-08-24T00:00:00.000","1","41.538799","-74.275299","POINT (-74.275299 41.538799)"
"Whitney Point Reservoir","Broome","2019","S","2019-08-15T00:00:00.000","2019-09-25T00:00:00.000","3","42.3661","-75.977203","POINT (-75.977203 42.3661)"
"Basic Creek Reservoir","Albany","2019","S","2019-06-28T00:00:00.000","2019-09-27T00:00:00.000","4","42.481201","-74.013901","POINT (-74.013901 42.481201)"
"Black Lake","St Lawrence","2019","C","2019-08-13T00:00:00.000","2019-08-22T00:00:00.000","4","44.537998","-75.568802","POINT (-75.568802 44.537998)"
"Unnamed Wallkill Pond","Ulster","2019","C","2019-07-21T00:00:00.000","2019-08-19T00:00:00.000","3","41.650299","-74.220398","POINT (-74.22039800000002 41.650299)"
"Vosburg Pond","Rensselaer","2019","C","2019-08-16T00:00:00.000","2019-08-16T00:00:00.000","1","42.656898","-73.5606","POINT (-73.5606 42.656898)"
"Java Lake","Wyoming","2019","HT","2019-07-14T00:00:00.000","2019-09-15T00:00:00.000","8","42.631302","-78.343903","POINT (-78.343903 42.631302)"
"Little Fresh Pond","Suffolk","2019","C","2019-09-09T00:00:00.000","2019-09-11T00:00:00.000","6","40.918201","-72.408501","POINT (-72.408501 40.918201)"
"Bradley Brook Reservoir","Madison","2019","HT","2019-06-28T00:00:00.000","2019-06-28T00:00:00.000","1","42.834","-75.662201","POINT (-75.662201 42.834)"
"Craine Lake","Madison","2019","HT","2019-06-12T00:00:00.000","2019-09-16T00:00:00.000","8","42.760601","-75.5578","POINT (-75.5578 42.760601)"
"Yankee Lake","Sullivan","2019","C","2019-07-03T00:00:00.000","2019-07-03T00:00:00.000","2","41.584999","-74.553101","POINT (-74.553101 41.584999)"
"Pine Valley Campground Lake","Broome","2019","S","2019-08-01T00:00:00.000","2019-08-01T00:00:00.000","1","42.145698","-76.087799","POINT (-76.087799 42.145698)"
"Fort Pond","Suffolk","2019","C","2019-07-24T00:00:00.000","2019-08-14T00:00:00.000","7","41.041698","-71.953201","POINT (-71.953201 41.041698)"
"Skaneateles Lake","Onondaga, Cortland, Cayuga","2019","HT","2019-09-03T00:00:00.000","2019-10-11T00:00:00.000","24","42.8451","-76.350304","POINT (-76.350304 42.8451)"
"Clove Lake","Richmond","2019","C","2019-08-26T00:00:00.000","2019-09-23T00:00:00.000","2","40.616798","-74.107597","POINT (-74.107597 40.616798)"
"Canadice Lake","Ontario","2019","C","2019-09-20T00:00:00.000","2019-09-20T00:00:00.000","1","42.718399","-77.568802","POINT (-77.568802 42.718399)"
"Launt Pond","Delaware","2019","S","2019-09-04T00:00:00.000","2019-09-04T00:00:00.000","1","42.119999","-75.071503","POINT (-75.071503 42.119999)"
"Sagg Pond","Suffolk","2019","C","2019-08-19T00:00:00.000","2019-08-19T00:00:00.000","1","40.910599","-72.284302","POINT (-72.284302 40.910599)"
"Rushford Lake","Allegany","2019","C","2019-07-10T00:00:00.000","2019-10-19T00:00:00.000","2","42.3806","-78.192703","POINT (-78.192703 42.3806)"
"Lakeside Campground Lake","Broome","2019","S","2019-08-29T00:00:00.000","2019-08-29T00:00:00.000","1","42.018101","-75.683098","POINT (-75.683098 42.018101)"
"Cayuga Lake","Cayuga, Tompkins, Seneca","2019","HT","2019-07-07T00:00:00.000","2019-09-24T00:00:00.000","101","42.688301","-76.702103","POINT (-76.702103 42.688301)"
"Peach Lake","Putnam","2019","C","2019-07-20T00:00:00.000","2019-10-01T00:00:00.000","5","41.362999","-73.580002","POINT (-73.580002 41.362999)"
"Smith Pond","Steuben","2019","C","2019-06-17T00:00:00.000","2019-08-19T00:00:00.000","7","42.388802","-77.474403","POINT (-77.474403 42.388802)"
"Raquette Lake","Hamilton","2019","C","2019-10-21T00:00:00.000","2019-10-21T00:00:00.000","1","43.8396","-74.637604","POINT (-74.637604 43.8396)"
"Little Sodus Bay","Cayuga","2019","S","2019-07-07T00:00:00.000","2019-07-07T00:00:00.000","1","43.330502","-76.709198","POINT (-76.709198 43.330502)"
"Oneida Lake","Oswego, Oneida, Madison, Onondaga","2019","S","2019-07-05T00:00:00.000","2019-10-03T00:00:00.000","10","43.2033","-75.910004","POINT (-75.910004 43.2033)"
"Guymard Lake","Orange","2019","C","2019-06-30T00:00:00.000","2019-09-16T00:00:00.000","9","41.428398","-74.6008","POINT (-74.6008 41.428398)"
"Onondaga Lake","Onondaga","2019","S","2019-07-12T00:00:00.000","2019-07-12T00:00:00.000","2","43.0891","-76.210403","POINT (-76.210403 43.0891)"
"Indian Pond","Bronx","2019","HT","2019-05-22T00:00:00.000","2019-10-08T00:00:00.000","6","40.838299","-73.894096","POINT (-73.894096 40.838299)"
"Iroquois Lake","Schenectady","2019","S","2019-08-31T00:00:00.000","2019-09-15T00:00:00.000","2","42.799999","-73.9123","POINT (-73.9123 42.799999)"
"Unnamed Water","Orange","2019","S","2019-06-27T00:00:00.000","2019-08-17T00:00:00.000","2","41.219898","-74.2976","POINT (-74.2976 41.219898)"
"Bowne Pond","Queens","2019","C","2019-07-01T00:00:00.000","2019-07-01T00:00:00.000","1","40.770707","-73.808255","POINT (-73.80825500000002 40.770707)"
"Big Reed Pond","Suffolk","2019","C","2019-07-16T00:00:00.000","2019-07-16T00:00:00.000","1","41.078098","-71.910103","POINT (-71.910103 41.078098)"
"Kirk Lake","Putnam","2019","C","2019-07-04T00:00:00.000","2019-08-20T00:00:00.000","2","41.385601","-73.749802","POINT (-73.749802 41.385601)"
"Cossayuna Lake","Washington","2019","HT","2019-09-09T00:00:00.000","2019-09-09T00:00:00.000","1","43.2006","-73.423401","POINT (-73.423401 43.2006)"
"First Pond","Franklin","2019","S","2019-08-01T00:00:00.000","2019-08-01T00:00:00.000","1","44.2911","-74.190498","POINT (-74.190498 44.2911)"
"Bear Lake","Chautauqua","2019","S","2019-07-25T00:00:00.000","2019-08-02T00:00:00.000","2","42.346802","-79.383904","POINT (-79.383904 42.346802)"
"Thunder Lake","Chenango","2019","C","2019-08-07T00:00:00.000","2019-08-26T00:00:00.000","2","42.269001","-75.727997","POINT (-75.727997 42.269001)"
"Roaring Brook Lake","Putnam","2019","HT","2019-05-30T00:00:00.000","2019-10-30T00:00:00.000","10","41.438801","-73.807503","POINT (-73.807503 41.438801)"
"Unnamed Water","Albany","2019","S","2019-08-16T00:00:00.000","2019-08-16T00:00:00.000","1","42.607498","-73.8909","POINT (-73.8909 42.607498)"
"Lochada Lake","Sullivan","2019","S","2019-08-12T00:00:00.000","2019-08-19T00:00:00.000","2","41.494","-74.856598","POINT (-74.856598 41.494)"
"Cortlandt Lake","Putnam","2019","S","2019-08-27T00:00:00.000","2019-08-27T00:00:00.000","1","41.3293","-73.912399","POINT (-73.912399 41.3293)"
"Otter Lake","Oneida","2019","C","2019-07-29T00:00:00.000","2019-07-29T00:00:00.000","1","43.592098","-75.114601","POINT (-75.114601 43.592098)"
"Monroe Pond","Orange","2019","S","2019-09-04T00:00:00.000","2019-09-04T00:00:00.000","1","41.327599","-74.1893","POINT (-74.1893 41.327599)"
"Barrett Pond","Putnam","2019","C","2019-06-17T00:00:00.000","2019-06-17T00:00:00.000","1","41.434399","-73.740601","POINT (-73.740601 41.434399)"
"Wallkill River","Ulster, Orange","2019","S","2019-10-12T00:00:00.000","2019-10-12T00:00:00.000","1","41.825899","-74.046893","POINT (-74.046893 41.825899)"
"Nassau Lake","Rensselaer","2019","C","2019-07-17T00:00:00.000","2019-09-25T00:00:00.000","4","42.538101","-73.603798","POINT (-73.603798 42.538101)"
"Unnamed Water","Erie","2019","S","2019-06-19T00:00:00.000","2019-06-19T00:00:00.000","1","42.713299","-78.7379","POINT (-78.7379 42.713299)"
"Tomhannock Reservoir","Rensselaer","2019","S","2019-10-30T00:00:00.000","2019-10-30T00:00:00.000","1","42.857399","-73.568199","POINT (-73.568199 42.857399)"
"Marion Lake","Suffolk","2019","C","2019-08-19T00:00:00.000","2019-08-19T00:00:00.000","1","41.1255","-72.333397","POINT (-72.333397 41.1255)"
"Hatch Lake","Madison","2019","C","2019-10-08T00:00:00.000","2019-10-28T00:00:00.000","2","42.834598","-75.677803","POINT (-75.677803 42.834598)"
"Fresh Pond","Suffolk","2019","HT","2019-07-28T00:00:00.000","2019-09-22T00:00:00.000","5","41.056999","-72.336304","POINT (-72.336304 41.056999)"
"Bedford Lake","Westchester","2019","C","2019-07-21T00:00:00.000","2019-09-15T00:00:00.000","2","41.194801","-73.703697","POINT (-73.703697 41.194801)"
"Beaver Dam Lake","Orange","2019","S","2019-07-03T00:00:00.000","2019-07-03T00:00:00.000","1","41.442001","-74.115898","POINT (-74.115898 41.442001)"
"Morningside Lake","Sullivan","2019","S","2019-07-03T00:00:00.000","2019-08-27T00:00:00.000","2","41.75116","-74.651001","POINT (-74.651001 41.75116)"
"Hiawatha Lake","Onondaga","2019","S","2019-06-17T00:00:00.000","2019-06-17T00:00:00.000","1","43.025799","-76.168701","POINT (-76.168701 43.025799)"
"Owasco Lake","Cayuga","2019","HT","2019-07-31T00:00:00.000","2019-10-11T00:00:00.000","51","42.873798","-76.528198","POINT (-76.528198 42.873798)"
"Conesus Lake","Livingston","2019","C","2019-06-27T00:00:00.000","2019-10-21T00:00:00.000","10","42.752201","-77.718697","POINT (-77.71869700000002 42.752201)"
"Cannonsville Reservoir","Delaware","2019","S","2019-08-13T00:00:00.000","2019-08-13T00:00:00.000","1","42.1063","-75.280998","POINT (-75.280998 42.1063)"
"Morningside Pond","New York","2019","HT","2019-06-25T00:00:00.000","2019-09-10T00:00:00.000","6","40.803761","-73.958943","POINT (-73.958943 40.80376100000001)"
"Otisco Lake","Onondaga","2019","C","2019-06-27T00:00:00.000","2019-08-13T00:00:00.000","5","42.8591","-76.279404","POINT (-76.279404 42.8591)"
"Lake St Lawrence","St Lawrence","2019","S","2019-10-21T00:00:00.000","2019-10-21T00:00:00.000","1","44.880199","-75.179199","POINT (-75.179199 44.880199)"
"Old Town Pond","Suffolk","2019","C","2019-09-16T00:00:00.000","2019-09-16T00:00:00.000","1","40.8778","-72.3722","POINT (-72.3722 40.8778)"
"Kissena Lake","Queens","2019","C","2019-07-01T00:00:00.000","2019-09-10T00:00:00.000","3","40.7481","-73.805496","POINT (-73.805496 40.7481)"
"North Sandy Pond","Oswego","2019","S","2019-08-15T00:00:00.000","2019-08-20T00:00:00.000","2","43.6535","-76.176002","POINT (-76.176002 43.65350000000001)"
"Sturgeon Pool","Ulster","2019","C","2019-06-09T00:00:00.000","2019-09-03T00:00:00.000","2","41.843601","-74.042602","POINT (-74.042602 41.843601)"
"East Sidney Lake","Delaware","2019","C","2019-09-05T00:00:00.000","2019-09-05T00:00:00.000","1","42.327599","-75.2145","POINT (-75.2145 42.327599)"
"Mirror Lake","Rockland","2019","S","2019-08-19T00:00:00.000","2019-08-19T00:00:00.000","1","41.161999","-74.181503","POINT (-74.181503 41.161999)"
"Irondequoit Bay","Monroe","2019","S","2019-08-13T00:00:00.000","2019-10-15T00:00:00.000","2","43.191799","-77.522003","POINT (-77.522003 43.191799)"
"Chaumont Pond","St Lawrence","2019","S","2019-07-04T00:00:00.000","2019-07-04T00:00:00.000","1","44.2048","-74.943398","POINT (-74.943398 44.204800000000006)"
"Goose Pond","Queens","2019","HT","2019-06-18T00:00:00.000","2019-10-21T00:00:00.000","12","40.711899","-73.798698","POINT (-73.798698 40.711899)"
"Swinging Bridge Reservoir","Sullivan","2019","S","2019-08-08T00:00:00.000","2019-08-08T00:00:00.000","1","41.5895","-74.778603","POINT (-74.778603 41.5895)"
"Cayuta Lake","Schuyler","2019","S","2019-08-19T00:00:00.000","2019-08-19T00:00:00.000","1","42.367001","-76.735298","POINT (-76.735298 42.367001)"
"Sleepy Hollow Lake","Greene","2019","C","2019-09-17T00:00:00.000","2019-09-17T00:00:00.000","1","42.294399","-73.8069","POINT (-73.8069 42.294399)"
"Barger Pond","Putnam","2019","C","2019-06-01T00:00:00.000","2019-10-14T00:00:00.000","17","41.359501","-73.812698","POINT (-73.812698 41.359501)"
"Turtle Pond","New York","2019","HT","2019-07-22T00:00:00.000","2019-10-21T00:00:00.000","11","40.779301","-73.9674","POINT (-73.9674 40.779301)"
"Tully Lake","Cortland","2019","HT","2019-07-15T00:00:00.000","2019-10-08T00:00:00.000","2","42.776401","-76.1352","POINT (-76.1352 42.77640100000001)"
"Lake Salubria","Steuben","2019","C","2019-06-18T00:00:00.000","2019-06-18T00:00:00.000","1","42.3293","-77.2929","POINT (-77.2929 42.3293)"
"Little We Wah Lake","Orange","2019","C","2019-07-24T00:00:00.000","2019-07-24T00:00:00.000","1","41.210602","-74.2005","POINT (-74.2005 41.210602)"
"Stony Brook Duck Pond","Suffolk","2019","C","2019-08-19T00:00:00.000","2019-10-18T00:00:00.000","2","40.9142","-73.147003","POINT (-73.147003 40.9142)"
"Oneida River","Onondaga","2019","S","2019-08-02T00:00:00.000","2019-08-02T00:00:00.000","1","43.210484","-76.266313","POINT (-76.266313 43.210484)"
"Lake Lincolndale","Westchester","2019","C","2019-06-16T00:00:00.000","2019-09-22T00:00:00.000","11","41.341999","-73.725403","POINT (-73.725403 41.341999)"
"Prospect Park Lake","Kings","2019","HT","2019-05-20T00:00:00.000","2019-10-21T00:00:00.000","22","40.6549","-73.969902","POINT (-73.969902 40.6549)"
"Highland Lake","Sullivan","2019","S","2019-08-05T00:00:00.000","2019-08-05T00:00:00.000","1","41.5294","-74.848999","POINT (-74.848999 41.5294)"
"Silver Lake","Wyoming","2019","C","2019-05-27T00:00:00.000","2019-07-31T00:00:00.000","6","42.687199","-78.034798","POINT (-78.034798 42.687199)"
"Chautauqua Lake","Chautauqua","2019","HT","2019-07-01T00:00:00.000","2019-10-28T00:00:00.000","92","42.202801","-79.4385","POINT (-79.4385 42.202801)"
"Lake Champlain","Essex, Clinton","2019","S","2019-07-08T00:00:00.000","2019-10-21T00:00:00.000","15","44.577944","-73.385441","POINT (-73.385441 44.577944)"
"Putnam Lake","Putnam","2019","S","2019-07-03T00:00:00.000","2019-07-30T00:00:00.000","3","41.4664","-73.539597","POINT (-73.539597 41.4664)"
"Canandaigua Lake","Ontario, Yates","2019","HT","2019-08-13T00:00:00.000","2019-10-28T00:00:00.000","67","42.778","-77.305099","POINT (-77.305099 42.778)"
"Summit Lake","Washington","2019","S","2019-10-08T00:00:00.000","2019-10-25T00:00:00.000","2","43.210201","-73.463203","POINT (-73.463203 43.210201)"
"Deer Lake","Broome","2019","C","2019-08-29T00:00:00.000","2019-09-15T00:00:00.000","3","42.059601","-75.553398","POINT (-75.55339800000002 42.05960100000001)"
"Lower Little York Lake","Cortland","2019","C","2019-09-05T00:00:00.000","2019-09-05T00:00:00.000","1","42.692402","-76.163902","POINT (-76.163902 42.692402)"
"Maratooka Lake","Suffolk","2019","HT","2019-06-03T00:00:00.000","2019-09-10T00:00:00.000","15","40.993099","-72.524002","POINT (-72.52400200000001 40.993099)"
"Neversink Reservoir","Sullivan","2019","S","2019-07-05T00:00:00.000","2019-07-05T00:00:00.000","1","41.829201","-74.655998","POINT (-74.655998 41.829201)"
"Beaver Lake","Broome","2019","C","2019-07-15T00:00:00.000","2019-08-25T00:00:00.000","4","42.045502","-75.665703","POINT (-75.665703 42.045502)"
"Cazenovia Lake","Madison","2019","HT","2019-07-03T00:00:00.000","2019-09-09T00:00:00.000","7","42.9482","-75.872002","POINT (-75.872002 42.9482)"
"Roth Pond","Suffolk","2019","HT","2019-04-16T00:00:00.000","2019-10-28T00:00:00.000","24","40.911804","-73.123789","POINT (-73.123789 40.911804)"
"Hemlock Lake","Livingston, Ontario","2019","HT","2019-07-18T00:00:00.000","2019-08-21T00:00:00.000","4","42.705799","-77.605904","POINT (-77.605904 42.705799)"
"Lake Welch","Rockland","2019","S","2019-07-19T00:00:00.000","2019-08-18T00:00:00.000","2","41.230701","-74.074699","POINT (-74.074699 41.230701)"
"Allegheny Reservoir","Cattaraugus","2019","S","2019-08-26T00:00:00.000","2019-10-10T00:00:00.000","5","41.8088","-78.919899","POINT (-78.919899 41.808800000000005)"
"Long Pond","Dutchess","2019","S","2019-07-16T00:00:00.000","2019-07-16T00:00:00.000","1","41.8825","-73.818398","POINT (-73.818398 41.8825)"
"Unnamed Water","Rensselaer","2019","S","2019-10-10T00:00:00.000","2019-10-10T00:00:00.000","1","42.5667","-73.593597","POINT (-73.593597 42.5667)"
"Dead Lake","Washington","2019","S","2019-08-02T00:00:00.000","2019-10-28T00:00:00.000","5","43.098099","-73.378899","POINT (-73.378899 43.098099)"
"Lake Mohegan","Westchester","2019","C","2019-06-09T00:00:00.000","2019-08-05T00:00:00.000","7","41.313999","-73.848801","POINT (-73.848801 41.313999)"
"Ashokan Reservoir","Ulster","2019","S","2019-06-26T00:00:00.000","2019-06-26T00:00:00.000","1","41.947201","-74.2286","POINT (-74.2286 41.947201)"
"Lake Neatahwanta","Oswego","2019","C","2019-02-05T00:00:00.000","2019-11-05T00:00:00.000","30","43.308102","-76.437202","POINT (-76.437202 43.308102)"
"Lakeview Pond","Jefferson","2019","S","2019-08-03T00:00:00.000","2019-08-03T00:00:00.000","1","43.748901","-76.206596","POINT (-76.206596 43.748901000000004)"
"Big Fresh Pond","Suffolk","2019","C","2019-07-03T00:00:00.000","2019-07-03T00:00:00.000","1","40.922199","-72.4188","POINT (-72.4188 40.922199)"
"Eagle Pond","Franklin","2019","C","2019-05-27T00:00:00.000","2019-07-20T00:00:00.000","2","44.668999","-74.273804","POINT (-74.273804 44.668999)"
"Seneca Lake","Seneca, Schuyler, Yates, Ontario","2019","HT","2019-08-21T00:00:00.000","2019-10-19T00:00:00.000","89","42.669266","-76.896473","POINT (-76.896473 42.669266)"
"Town of Babylon Pond","Suffolk","2019","C","2019-08-20T00:00:00.000","2019-08-20T00:00:00.000","1","40.705601","-73.373802","POINT (-73.373802 40.705601)"
"Buckingham Lake","Albany","2019","C","2019-08-24T00:00:00.000","2019-08-24T00:00:00.000","1","42.663502","-73.807098","POINT (-73.807098 42.663502)"
"Croton Falls Reservoir","Putnam","2019","S","2019-08-01T00:00:00.000","2019-10-21T00:00:00.000","4","41.378101","-73.654701","POINT (-73.654701 41.378101)"
"West Branch Reservoir","Putnam","2019","S","2019-09-24T00:00:00.000","2019-09-24T00:00:00.000","1","41.415798","-73.701599","POINT (-73.701599 41.415798)"
"Friends Lake","Warren","2019","C","2019-08-12T00:00:00.000","2019-08-12T00:00:00.000","2","43.6259","-73.844002","POINT (-73.844002 43.62590000000001)"
"The Lake in Central Park","New York","2019","HT","2019-05-20T00:00:00.000","2019-10-21T00:00:00.000","21","40.776501","-73.972603","POINT (-73.972603 40.776501)"
"Silver Lake","St Lawrence","2021","C","2021-10-05T00:00:00.000","2021-10-05T00:00:00.000","1","44.226898","-74.826599","POINT (-74.826599 44.226898)"
"Chrysler Pond","Columbia","2021","C","2021-07-18T00:00:00.000","2021-07-18T00:00:00.000","1","42.101101","-73.605598","POINT (-73.605598 42.101101)"
"Lake Mohegan","Westchester","2021","C","2021-07-21T00:00:00.000","2021-09-21T00:00:00.000","6","41.313999","-73.848801","POINT (-73.848801 41.313999)"
"Eighteenmile Creek","Erie","2021","C","2021-08-29T00:00:00.000","2021-08-29T00:00:00.000","1","42.71565556","-78.97070236","POINT (-78.97070236 42.71565556)"
"Paradox Lake","Essex","2021","C","2021-09-13T00:00:00.000","2021-11-17T00:00:00.000","2","43.882999","-73.711098","POINT (-73.711098 43.882999)"
"Long Pond","Suffolk","2021","C","2021-10-14T00:00:00.000","2021-10-14T00:00:00.000","1","40.9352","-72.3228","POINT (-72.3228 40.9352)"
"Washington Park Pond","Albany","2021","C","2021-07-01T00:00:00.000","2021-08-04T00:00:00.000","2","42.657101","-73.7733","POINT (-73.7733 42.657101)"
"Quaker Lake","Cattaraugus","2021","C","2021-07-20T00:00:00.000","2021-09-03T00:00:00.000","4","42.043301","-78.867798","POINT (-78.867798 42.043301)"
"Kentwood Lake","Putnam","2021","C","2021-06-20T00:00:00.000","2021-07-21T00:00:00.000","2","41.483799","-73.696602","POINT (-73.696602 41.483799)"
"Irondequoit Bay","Monroe","2021","C","2021-10-05T00:00:00.000","2021-10-05T00:00:00.000","1","43.191799","-77.522003","POINT (-77.522003 43.191799)"
"Jamesville Reservoir","Onondaga","2021","C","2021-06-23T00:00:00.000","2021-08-04T00:00:00.000","2","42.973999","-76.069099","POINT (-76.069099 42.973999)"
"Montgomery Lake","Sullivan","2021","C","2021-07-26T00:00:00.000","2021-08-09T00:00:00.000","2","41.525299","-74.917297","POINT (-74.917297 41.525299)"
"Oquaga Lake","Broome","2021","C","2021-10-07T00:00:00.000","2021-10-07T00:00:00.000","1","42.0224","-75.459396","POINT (-75.459396 42.0224)"
"Pump Pond","Suffolk","2021","C","2021-10-19T00:00:00.000","2021-10-19T00:00:00.000","1","40.901045","-72.822837","POINT (-72.822837 40.901045)"
"Indian Pond","Bronx","2021","C","2021-06-08T00:00:00.000","2021-10-05T00:00:00.000","11","40.838299","-73.894096","POINT (-73.894096 40.838299)"
"Thunder Lake","Chenango","2021","C","2021-08-21T00:00:00.000","2021-09-12T00:00:00.000","6","42.269001","-75.727997","POINT (-75.727997 42.269001)"
"Waneta Lake","Schuyler, Steuben","2021","C","2021-07-11T00:00:00.000","2021-09-13T00:00:00.000","6","42.4445","-77.101799","POINT (-77.101799 42.4445)"
"Hatch Lake","Madison","2021","C","2021-10-08T00:00:00.000","2021-10-08T00:00:00.000","1","42.834598","-75.677803","POINT (-75.677803 42.834598)"
"Tanglewood Lake","Steuben","2021","C","2021-06-02T00:00:00.000","2021-08-09T00:00:00.000","3","42.193635","-77.251116","POINT (-77.251116 42.193635)"
"Unnamed Water (Baldwinsville)","Onondaga","2021","C","2021-07-01T00:00:00.000","2021-07-01T00:00:00.000","1","43.173603","-76.346497","POINT (-76.346497 43.173603)"
"Hyde Lake","Jefferson","2021","C","2021-07-10T00:00:00.000","2021-09-03T00:00:00.000","10","44.243599","-75.833198","POINT (-75.833198 44.243599)"
"Huguenot Lake","Westchester","2021","C","2021-07-24T00:00:00.000","2021-07-24T00:00:00.000","1","40.930901","-73.792396","POINT (-73.792396 40.930901)"
"The Lake In Central Park","New York","2021","C","2021-06-13T00:00:00.000","2021-10-25T00:00:00.000","16","40.776501","-73.972603","POINT (-73.972603 40.776501)"
"Lake Waccabuc","Westchester","2021","C","2021-06-01T00:00:00.000","2021-08-09T00:00:00.000","6","41.297699","-73.584099","POINT (-73.584099 41.297699)"
"Tuxedo Lake","Orange","2021","C","2021-06-13T00:00:00.000","2021-06-13T00:00:00.000","1","41.2015","-74.205803","POINT (-74.205803 41.2015)"
"Oakland Lake","Queens","2021","C","2021-06-11T00:00:00.000","2021-06-11T00:00:00.000","1","40.758598","-73.759598","POINT (-73.759598 40.758598)"
"Silver Lake","Wyoming","2021","C","2021-07-18T00:00:00.000","2021-07-18T00:00:00.000","1","42.687199","-78.034798","POINT (-78.034798 42.687199)"
"Cayuta Lake","Schuyler","2021","C","2021-07-20T00:00:00.000","2021-10-07T00:00:00.000","3","42.367001","-76.735298","POINT (-76.735298 42.367001)"
"Barger Pond","Putnam","2021","C","2021-06-13T00:00:00.000","2021-08-21T00:00:00.000","3","41.359501","-73.812698","POINT (-73.812698 41.359501)"
"Cannonsville Reservoir","Delaware","2021","C","2021-08-10T00:00:00.000","2021-10-13T00:00:00.000","5","42.1063","-75.280998","POINT (-75.280998 42.1063)"
"Oneida Lake","Madison, Oneida, Onondaga, Oswego","2021","C","2021-06-19T00:00:00.000","2021-10-11T00:00:00.000","4","43.2033","-75.910004","POINT (-75.910004 43.2033)"
"Lake Sunnyside","Warren","2021","C","2021-06-21T00:00:00.000","2021-06-21T00:00:00.000","1","43.375301","-73.639702","POINT (-73.639702 43.375301)"
"Guilford Lake","Chenango","2021","C","2021-08-24T00:00:00.000","2021-10-08T00:00:00.000","3","42.412899","-75.499397","POINT (-75.499397 42.412899)"
"Fort Pond","Suffolk","2021","C","2021-08-10T00:00:00.000","2021-08-24T00:00:00.000","4","41.041698","-71.953201","POINT (-71.953201 41.041698)"
"Unnamed Waterbody","Suffolk","2021","C","2021-05-03T00:00:00.000","2021-05-03T00:00:00.000","1","40.73050145","-73.13067106","POINT (-73.13067106 40.73050145)"
"Roaring Brook Lake","Putnam","2021","C","2021-08-16T00:00:00.000","2021-11-07T00:00:00.000","8","41.438801","-73.807503","POINT (-73.807503 41.438801)"
"Kirk Lake","Putnam","2021","C","2021-07-11T00:00:00.000","2021-10-08T00:00:00.000","5","41.385601","-73.749802","POINT (-73.749802 41.385601)"
"Dead Lake","Washington","2021","C","2021-10-11T00:00:00.000","2021-10-11T00:00:00.000","1","43.098099","-73.378899","POINT (-73.378899 43.098099)"
"Guymard Lake","Orange","2021","C","2021-07-11T00:00:00.000","2021-07-11T00:00:00.000","1","41.428398","-74.6008","POINT (-74.6008 41.428398)"
"Dryden Lake","Tompkins","2021","C","2021-08-31T00:00:00.000","2021-08-31T00:00:00.000","1","42.462002","-76.272598","POINT (-76.272598 42.462002)"
"Unnamed Waterbody (Olive)","Ulster","2021","C","2021-10-06T00:00:00.000","2021-10-06T00:00:00.000","1","41.99189275","-74.26721502","POINT (-74.26721502 41.99189275)"
"Galway Lake","Saratoga","2021","C","2021-10-06T00:00:00.000","2021-10-06T00:00:00.000","1","43.030701","-74.074501","POINT (-74.074501 43.030701)"
"Long Pond","Columbia","2021","C","2021-08-16T00:00:00.000","2021-08-16T00:00:00.000","1","42.069143","-73.591197","POINT (-73.591197 42.069143)"
"Lake Welch","Rockland","2021","C","2021-06-01T00:00:00.000","2021-06-01T00:00:00.000","1","41.230701","-74.074699","POINT (-74.074699 41.230701)"
"Hyde Park Lake","Niagara","2021","C","2021-08-18T00:00:00.000","2021-10-07T00:00:00.000","3","43.100662","-79.022324","POINT (-79.022324 43.100662)"
"Lake Champlain","Clinton, Essex, Washington","2021","C","2021-07-06T00:00:00.000","2021-08-25T00:00:00.000","24","44.577944","-73.385441","POINT (-73.385441 44.577944)"
"Red House Lake","Cattaraugus","2021","C","2021-07-27T00:00:00.000","2021-08-24T00:00:00.000","4","42.102798","-78.744598","POINT (-78.744598 42.102798)"
"Cayuga Lake","Cayuga, Seneca, Tompkins","2021","C","2021-06-29T00:00:00.000","2021-10-07T00:00:00.000","117","42.688301","-76.702103","POINT (-76.702103 42.688301)"
"Lake Carmel","Putnam","2021","C","2021-06-28T00:00:00.000","2021-07-27T00:00:00.000","6","41.4585","-73.665001","POINT (-73.665001 41.4585)"
"Tomhannock Reservoir","Rensselaer","2021","C","2021-10-09T00:00:00.000","2021-10-09T00:00:00.000","1","42.857399","-73.568199","POINT (-73.568199 42.857399)"
"Morningside Pond","New York","2021","C","2021-06-26T00:00:00.000","2021-10-30T00:00:00.000","11","40.803761","-73.958943","POINT (-73.958943 40.803761)"
"East Sidney Lake","Delaware","2021","C","2021-07-31T00:00:00.000","2021-07-31T00:00:00.000","1","42.327599","-75.2145","POINT (-75.2145 42.327599)"
"Lebanon Reservoir","Madison","2021","C","2021-08-29T00:00:00.000","2021-11-07T00:00:00.000","2","42.802898","-75.606903","POINT (-75.606903 42.802898)"
"Agawam Lake","Suffolk","2021","C","2021-05-03T00:00:00.000","2021-11-16T00:00:00.000","33","40.874401","-72.392197","POINT (-72.392197 40.874401)"
"Payne Lake","Jefferson","2021","C","2021-10-06T00:00:00.000","2021-10-06T00:00:00.000","1","44.283401","-75.645599","POINT (-75.645599 44.283401)"
"Unnamed Water","Wyoming","2021","C","2021-07-28T00:00:00.000","2021-07-28T00:00:00.000","1","42.5951","-78.047996","POINT (-78.047996 42.5951)"
"Myosotis Lake","Albany","2021","C","2021-09-11T00:00:00.000","2021-09-11T00:00:00.000","1","42.520199","-74.1502","POINT (-74.1502 42.520199)"
"Georgica Pond","Suffolk","2021","C","2021-08-04T00:00:00.000","2021-10-01T00:00:00.000","13","40.939098","-72.229103","POINT (-72.229103 40.939098)"
"Casterline Pond","Cortland","2021","C","2021-06-29T00:00:00.000","2021-06-29T00:00:00.000","1","42.650799","-76.173798","POINT (-76.173798 42.650799)"
"Bear Gulch Pond","Schoharie","2021","C","2021-10-14T00:00:00.000","2021-10-14T00:00:00.000","1","42.5919","-74.594803","POINT (-74.594803 42.5919)"
"Owasco Lake","Cayuga","2021","C","2021-08-05T00:00:00.000","2021-10-06T00:00:00.000","47","42.873798","-76.528198","POINT (-76.528198 42.873798)"
"Harlem Meer","New York","2021","C","2021-06-14T00:00:00.000","2021-09-13T00:00:00.000","4","40.796101","-73.951202","POINT (-73.951202 40.796101)"
"Swartwout Lake","Rockland","2021","C","2021-06-15T00:00:00.000","2021-07-20T00:00:00.000","2","41.1511","-73.930801","POINT (-73.930801 41.1511)"
"Lake Ontario","Cayuga, Jefferson, Monroe, Niagara, Oswego","2021","C","2021-07-23T00:00:00.000","2021-09-04T00:00:00.000","3","43.65615","-76.18207","POINT (-76.18207 43.65615)"
"New Mill Pond","Suffolk","2021","C","2021-06-22T00:00:00.000","2021-06-22T00:00:00.000","1","40.840198","-73.219704","POINT (-73.219704 40.840198)"
"Otisco Lake","Onondaga","2021","C","2021-06-29T00:00:00.000","2021-10-14T00:00:00.000","2","42.8591","-76.279404","POINT (-76.279404 42.8591)"
"Little Fresh Pond","Suffolk","2021","C","2021-08-15T00:00:00.000","2021-08-29T00:00:00.000","2","40.918201","-72.408501","POINT (-72.408501 40.918201)"
"Unnamed Water","Columbia","2021","C","2021-08-25T00:00:00.000","2021-08-25T00:00:00.000","1","42.145698","-73.618401","POINT (-73.618401 42.145698)"
"Snyders Lake","Rensselaer","2021","C","2021-10-08T00:00:00.000","2021-10-08T00:00:00.000","1","42.663101","-73.634697","POINT (-73.634697 42.663101)"
"Sagamore Lake","Putnam","2021","C","2021-10-13T00:00:00.000","2021-10-13T00:00:00.000","1","41.473202","-73.780899","POINT (-73.780899 41.473202)"
"Round Pond","Warren","2021","C","2021-11-19T00:00:00.000","2021-11-19T00:00:00.000","1","43.352501","-73.676498","POINT (-73.676498 43.352501)"
"Glass Lake","Rensselaer","2021","C","2021-08-20T00:00:00.000","2021-08-20T00:00:00.000","1","42.623001","-73.5308","POINT (-73.5308 42.623001)"
"Prospect Park Lake","Kings","2021","C","2021-05-25T00:00:00.000","2021-11-11T00:00:00.000","23","40.6549","-73.969902","POINT (-73.969902 40.6549)"
"Casey Park Pond","Wayne","2021","C","2021-11-17T00:00:00.000","2021-11-17T00:00:00.000","1","43.235298","-77.297401","POINT (-77.297401 43.235298)"
"Silver Lake","Sullivan","2021","C","2021-07-28T00:00:00.000","2021-07-28T00:00:00.000","1","41.701599","-74.554199","POINT (-74.554199 41.701599)"
"Song Lake","Cortland","2021","C","2021-06-04T00:00:00.000","2021-10-08T00:00:00.000","4","42.772301","-76.146864","POINT (-76.146864 42.772301)"
"Lake Taghkanic","Columbia","2021","C","2021-07-15T00:00:00.000","2021-07-15T00:00:00.000","1","42.091202","-73.709503","POINT (-73.709503 42.091202)"
"Champlain Canal","Washington","2021","C","2021-06-21T00:00:00.000","2021-06-21T00:00:00.000","1","43.33371142","-73.50934077","POINT (-73.50934077 43.33371142)"
"Rondout Reservoir","Ulster","2021","C","2021-07-06T00:00:00.000","2021-07-06T00:00:00.000","1","41.826","-74.471901","POINT (-74.471901 41.826)"
"Lake Peekskill","Putnam","2021","C","2021-06-30T00:00:00.000","2021-10-03T00:00:00.000","10","41.3395","-73.882797","POINT (-73.882797 41.3395)"
"Ellicott Creek","Erie","2021","C","2021-09-29T00:00:00.000","2021-10-11T00:00:00.000","2","43.02476","-78.822257","POINT (-78.822257 43.02476)"
"Hallocks Pond","Suffolk","2021","C","2021-08-26T00:00:00.000","2021-08-26T00:00:00.000","1","40.990101","-72.597702","POINT (-72.597702 40.990101)"
"Bradley Brook Reservoir","Madison","2021","C","2021-06-20T00:00:00.000","2021-10-05T00:00:00.000","3","42.834","-75.662201","POINT (-75.662201 42.834)"
"Cincinnatus Lake","Chenango","2021","C","2021-08-22T00:00:00.000","2021-08-22T00:00:00.000","1","42.430401","-75.865402","POINT (-75.865402 42.430401)"
"Lake Louise Marie","Sullivan","2021","C","2021-10-06T00:00:00.000","2021-10-07T00:00:00.000","2","41.605202","-74.580399","POINT (-74.580399 41.605202)"
"Brixius Creek Pond","Broome","2021","C","2021-08-16T00:00:00.000","2021-08-16T00:00:00.000","1","42.122236","-76.038893","POINT (-76.038893 42.122236)"
"Artist Lake","Suffolk","2021","C","2021-06-22T00:00:00.000","2021-09-13T00:00:00.000","2","40.883701","-72.931702","POINT (-72.931702 40.883701)"
"Seneca Lake","Ontario, Schuyler, Seneca, Yates","2021","C","2021-08-25T00:00:00.000","2021-10-19T00:00:00.000","72","42.669266","-76.896473","POINT (-76.896473 42.669266)"
"Wainscott Pond","Suffolk","2021","C","2021-05-24T00:00:00.000","2021-10-14T00:00:00.000","21","40.929298","-72.242599","POINT (-72.242599 40.929298)"
"Hemlock Lake","Livingston, Ontario","2021","C","2021-06-21T00:00:00.000","2021-10-15T00:00:00.000","5","42.705799","-77.605904","POINT (-77.605904 42.705799)"
"Morningside Lake","Sullivan","2021","C","2021-10-07T00:00:00.000","2021-10-07T00:00:00.000","1","41.75116","-74.651001","POINT (-74.651001 41.75116)"
"Sagg Pond","Suffolk","2021","C","2021-08-10T00:00:00.000","2021-08-31T00:00:00.000","4","40.910599","-72.284302","POINT (-72.284302 40.910599)"
"Blydenburg Lake","Suffolk","2021","C","2021-06-24T00:00:00.000","2021-06-24T00:00:00.000","1","40.826801","-73.219704","POINT (-73.219704 40.826801)"
"Lake Salubria","Steuben","2021","C","2021-10-04T00:00:00.000","2021-10-04T00:00:00.000","1","42.3293","-77.2929","POINT (-77.2929 42.3293)"
"Whitney Point Reservoir","Broome","2021","C","2021-07-19T00:00:00.000","2021-07-19T00:00:00.000","2","42.3661","-75.977203","POINT (-75.977203 42.3661)"
"Canandaigua Lake","Ontario, Yates","2021","C","2021-06-29T00:00:00.000","2021-10-14T00:00:00.000","84","42.778","-77.305099","POINT (-77.305099 42.778)"
"Lake Casse","Putnam","2021","C","2021-07-13T00:00:00.000","2021-08-06T00:00:00.000","3","41.386299","-73.709999","POINT (-73.709999 41.386299)"
"Canadarago Lake","Otsego","2021","C","2021-07-21T00:00:00.000","2021-07-21T00:00:00.000","1","42.8153","-75.006103","POINT (-75.006103 42.8153)"
"Black Lake","St Lawrence","2021","C","2021-06-17T00:00:00.000","2021-09-17T00:00:00.000","16","44.537998","-75.568802","POINT (-75.568802 44.537998)"
"Little Sodus Bay","Cayuga","2021","C","2021-06-29T00:00:00.000","2021-10-05T00:00:00.000","2","43.330502","-76.709198","POINT (-76.709198 43.330502)"
"Cazenovia Lake","Madison","2021","C","2021-06-12T00:00:00.000","2021-10-08T00:00:00.000","2","42.9482","-75.872002","POINT (-75.872002 42.9482)"
"Rio Reservoir","Orange, Sullivan","2021","C","2021-08-25T00:00:00.000","2021-10-12T00:00:00.000","4","41.481998","-74.758003","POINT (-74.758003 41.481998)"
"Owasco Outlet","Cayuga","2021","C","2021-08-13T00:00:00.000","2021-08-13T00:00:00.000","1","42.92038209","-76.54794026","POINT (-76.54794026 42.92038209)"
"Clove Lake","Richmond","2021","C","2021-08-09T00:00:00.000","2021-08-09T00:00:00.000","1","40.616798","-74.107597","POINT (-74.107597 40.616798)"
"Friends Lake","Warren","2021","C","2021-07-20T00:00:00.000","2021-09-11T00:00:00.000","7","43.6259","-73.844002","POINT (-73.844002 43.6259)"
"Wee Wah Lake","Orange","2021","C","2021-09-07T00:00:00.000","2021-09-07T00:00:00.000","1","41.215599","-74.194603","POINT (-74.194603 41.215599)"
"Kissena Lake","Queens","2021","C","2021-07-30T00:00:00.000","2021-10-29T00:00:00.000","4","40.7481","-73.805496","POINT (-73.805496 40.7481)"
"Mill Pond (Watermill)","Suffolk","2021","C","2021-06-16T00:00:00.000","2021-11-12T00:00:00.000","19","40.914501","-72.358299","POINT (-72.358299 40.914501)"
"Turtle Pond","New York","2021","C","2021-07-12T00:00:00.000","2021-10-05T00:00:00.000","9","40.779301","-73.9674","POINT (-73.9674 40.779301)"
"Ballston Lake","Saratoga","2021","C","2021-06-28T00:00:00.000","2021-06-28T00:00:00.000","1","42.938801","-73.857803","POINT (-73.857803 42.938801)"
"Glen Lake","Warren","2021","C","2021-09-10T00:00:00.000","2021-09-10T00:00:00.000","1","43.363602","-73.673202","POINT (-73.673202 43.363602)"
"Chautauqua Lake","Chautauqua","2021","C","2021-05-22T00:00:00.000","2021-10-15T00:00:00.000","47","42.202801","-79.4385","POINT (-79.4385 42.202801)"
"Lake Moraine","Madison","2021","C","2021-06-07T00:00:00.000","2021-11-07T00:00:00.000","4","42.850201","-75.522201","POINT (-75.522201 42.850201)"
"Lawson Lake","Albany","2021","C","2021-09-25T00:00:00.000","2021-09-25T00:00:00.000","1","42.539101","-73.9599","POINT (-73.9599 42.539101)"
"Orange Lake","Orange","2021","C","2021-07-13T00:00:00.000","2021-08-29T00:00:00.000","6","41.548801","-74.103699","POINT (-74.103699 41.548801)"
"Schor Pond","Columbia","2021","C","2021-08-02T00:00:00.000","2021-08-02T00:00:00.000","1","42.37444052","-73.49573187","POINT (-73.49573187 42.37444052)"
"Ilion Reservoir No 3","Herkimer","2021","C","2021-09-14T00:00:00.000","2021-09-14T00:00:00.000","1","42.986099","-75.028603","POINT (-75.028603 42.986099)"
"Skaneateles Lake","Cayuga, Cortland, Onondaga","2021","C","2021-08-11T00:00:00.000","2021-10-06T00:00:00.000","65","42.8451","-76.350304","POINT (-76.350304 42.8451)"
"Rockland Lake","Rockland","2021","C","2021-11-03T00:00:00.000","2021-11-03T00:00:00.000","1","41.138599","-73.922798","POINT (-73.922798 41.138599)"
"Sleepy Hollow Lake","Greene","2021","C","2021-08-04T00:00:00.000","2021-09-15T00:00:00.000","4","42.294399","-73.8069","POINT (-73.8069 42.294399)"
"Unnamed Wallkill Pond","Ulster","2021","C","2021-06-20T00:00:00.000","2021-09-06T00:00:00.000","6","41.650299","-74.220398","POINT (-74.220398 41.650299)"
"Twin Lakes (North)","Columbia","2021","C","2021-10-12T00:00:00.000","2021-10-12T00:00:00.000","1","42.061901","-73.794701","POINT (-73.794701 42.061901)"
"Java Lake","Wyoming","2021","C","2021-06-24T00:00:00.000","2021-08-29T00:00:00.000","5","42.631302","-78.343903","POINT (-78.343903 42.631302)"
"Lake George","Essex, Warren, Washington","2021","C","2021-07-20T00:00:00.000","2021-11-11T00:00:00.000","14","43.6539","-73.498802","POINT (-73.498802 43.6539)"
"Halsey Neck Pond","Suffolk","2021","C","2021-09-10T00:00:00.000","2021-09-10T00:00:00.000","1","40.865601","-72.407402","POINT (-72.407402 40.865601)"
"Craine Lake","Madison","2021","C","2021-06-29T00:00:00.000","2021-06-29T00:00:00.000","1","42.760601","-75.5578","POINT (-75.5578 42.760601)"
"Coopers Neck Pond","Suffolk","2021","C","2021-09-10T00:00:00.000","2021-09-10T00:00:00.000","1","40.867599","-72.402199","POINT (-72.402199 40.867599)"
"Tomkins Lake","Rockland","2021","C","2021-09-20T00:00:00.000","2021-10-05T00:00:00.000","2","41.271599","-73.990303","POINT (-73.990303 41.271599)"
"Putnam Lake","Putnam","2021","C","2021-07-12T00:00:00.000","2021-07-14T00:00:00.000","2","41.4664","-73.539597","POINT (-73.539597 41.4664)"
"Somerset Lake","Delaware","2021","C","2021-09-12T00:00:00.000","2021-09-12T00:00:00.000","1","41.910198","-75.228996","POINT (-75.228996 41.910198)"
"Anthonys Cut Erie Canal","Onondaga","2021","C","2021-10-10T00:00:00.000","2021-10-10T00:00:00.000","2","43.23820903","-76.19755635","POINT (-76.19755635 43.23820903)"
"Keuka Lake","Steuben, Yates","2021","C","2021-08-16T00:00:00.000","2021-11-09T00:00:00.000","12","42.493401","-77.139504","POINT (-77.139504 42.493401)"
"Honeoye Lake","Ontario","2021","C","2021-07-05T00:00:00.000","2021-10-14T00:00:00.000","55","42.7542","-77.511597","POINT (-77.511597 42.7542)"
"Pleasure Lake","Sullivan","2021","C","2021-06-06T00:00:00.000","2021-09-08T00:00:00.000","2","41.696098","-74.627998","POINT (-74.627998 41.696098)"
"Cortlandt Lake","Putnam, Westchester","2021","C","2021-08-24T00:00:00.000","2021-08-24T00:00:00.000","1","41.3293","-73.912399","POINT (-73.912399 41.3293)"
"Cross Lake","Cayuga, Onondaga","2021","C","2021-07-01T00:00:00.000","2021-09-14T00:00:00.000","2","43.111","-76.4692","POINT (-76.4692 43.111)"
"Otter Lake","Oneida","2021","C","2021-08-08T00:00:00.000","2021-08-22T00:00:00.000","2","43.592098","-75.114601","POINT (-75.114601 43.592098)"
"Old Town Pond","Suffolk","2021","C","2021-06-22T00:00:00.000","2021-06-22T00:00:00.000","1","40.8778","-72.3722","POINT (-72.3722 40.8778)"
"Glenwood Lake","Westchester","2021","C","2021-07-21T00:00:00.000","2021-07-21T00:00:00.000","1","40.918999","-73.801201","POINT (-73.801201 40.918999)"
"Conesus Lake","Livingston","2021","C","2021-07-07T00:00:00.000","2021-09-16T00:00:00.000","8","42.752201","-77.718697","POINT (-77.718697 42.752201)"
"Cold Spring","Dutchess","2021","C","2021-08-30T00:00:00.000","2021-08-30T00:00:00.000","1","41.915901","-73.7108","POINT (-73.7108 41.915901)"
"Balsam Pond","Chenango","2021","C","2021-07-21T00:00:00.000","2021-07-21T00:00:00.000","1","42.551899","-75.763","POINT (-75.763 42.551899)"
"Deforest Lake","Rockland","2021","C","2021-06-15T00:00:00.000","2021-09-07T00:00:00.000","2","41.131802","-73.962097","POINT (-73.962097 41.131802)"
"Lake Lacoma","Monroe","2021","C","2021-06-06T00:00:00.000","2021-09-07T00:00:00.000","3","43.0509","-77.479401","POINT (-77.479401 43.0509)"
"Red Lake","Jefferson","2021","C","2021-04-14T00:00:00.000","2021-04-14T00:00:00.000","1","44.268501","-75.736298","POINT (-75.736298 44.268501)"
"Goose Pond","Queens","2021","C","2021-09-23T00:00:00.000","2021-11-08T00:00:00.000","2","40.711899","-73.798698","POINT (-73.798698 40.711899)"
"Mountain Lake","Sullivan","2021","C","2021-06-27T00:00:00.000","2021-08-22T00:00:00.000","5","41.657101","-74.814796","POINT (-74.814796 41.657101)"
"Yogi And Boo Boo's Campground Pond","Broome","2021","C","2021-08-10T00:00:00.000","2021-08-10T00:00:00.000","1","42.397701","-76.064697","POINT (-76.064697 42.397701)"
"Long Pond","Rensselaer","2021","C","2021-10-06T00:00:00.000","2021-10-08T00:00:00.000","2","42.792099","-73.438698","POINT (-73.438698 42.792099)"
"Loon Lake","Warren","2021","C","2021-10-28T00:00:00.000","2021-10-29T00:00:00.000","2","43.680199","-73.860298","POINT (-73.860298 43.680199)"
"Oscawana Lake","Putnam","2021","C","2021-07-14T00:00:00.000","2021-12-01T00:00:00.000","4","41.396","-73.848801","POINT (-73.848801 41.396)"
"Plymouth Reservoir","Chenango","2021","C","2021-09-28T00:00:00.000","2021-09-28T00:00:00.000","1","42.5881","-75.651001","POINT (-75.651001 42.5881)"
"Beaver Lake","Broome","2021","C","2021-07-26T00:00:00.000","2021-08-22T00:00:00.000","2","42.045502","-75.665703","POINT (-75.665703 42.045502)"
"Little We Wah Lake","Orange","2021","C","2021-08-07T00:00:00.000","2021-09-06T00:00:00.000","3","41.210602","-74.2005","POINT (-74.2005 41.210602)"
"Kensico Reservoir","Westchester","2021","C","2021-06-02T00:00:00.000","2021-06-02T00:00:00.000","1","41.073101","-73.726097","POINT (-73.726097 41.073101)"
"De Ruyter Reservoir","Madison, Onondaga","2021","C","2021-08-04T00:00:00.000","2021-09-16T00:00:00.000","2","42.810699","-75.888603","POINT (-75.888603 42.810699)"
"Unnamed Waterbody (Colonie Crossings)","Albany","2021","C","2021-06-01T00:00:00.000","2021-06-01T00:00:00.000","1","42.719","-73.792","POINT (-73.792 42.719)"
"Maratooka Lake","Suffolk","2021","C","2021-06-28T00:00:00.000","2021-08-16T00:00:00.000","6","40.993099","-72.524002","POINT (-72.524002 40.993099)"
"Kinderhook Lake","Columbia","2021","C","2021-06-27T00:00:00.000","2021-07-24T00:00:00.000","3","42.452599","-73.660103","POINT (-73.660103 42.452599)"
"Smith Pond","Steuben","2021","C","2021-06-28T00:00:00.000","2021-06-28T00:00:00.000","2","42.388802","-77.474403","POINT (-77.474403 42.388802)"
"Findley Lake","Chautauqua","2021","C","2021-07-20T00:00:00.000","2021-07-20T00:00:00.000","1","42.101898","-79.726196","POINT (-79.726196 42.101898)"
"Lake Clear","Franklin","2021","C","2021-08-05T00:00:00.000","2021-08-08T00:00:00.000","2","44.369202","-74.252296","POINT (-74.252296 44.369202)"
"Croton Falls Reservoir","Putnam","2021","C","2021-06-09T00:00:00.000","2021-06-09T00:00:00.000","1","41.378101","-73.654701","POINT (-73.654701 41.378101)"
"Panther Lake","Oswego","2021","C","2021-10-14T00:00:00.000","2021-10-14T00:00:00.000","1","43.329201","-75.908699","POINT (-75.908699 43.329201)"
"Moreau Lake","Saratoga","2021","C","2021-08-24T00:00:00.000","2021-11-09T00:00:00.000","9","43.2313","-73.711899","POINT (-73.711899 43.2313)"
"Launt Pond","Delaware","2021","C","2021-08-15T00:00:00.000","2021-08-16T00:00:00.000","2","42.119999","-75.071503","POINT (-75.071503 42.119999)"
"Echo Lake","Chenango","2021","C","2021-06-01T00:00:00.000","2021-06-01T00:00:00.000","1","42.386299","-75.8507","POINT (-75.8507 42.386299)"
"Kellis Pond","Suffolk","2021","C","2021-06-24T00:00:00.000","2021-10-29T00:00:00.000","2","40.9272","-72.317497","POINT (-72.317497 40.9272)"
"Swinging Bridge Reservoir","Sullivan","2021","C","2021-08-22T00:00:00.000","2021-08-30T00:00:00.000","2","41.5895","-74.778603","POINT (-74.778603 41.5895)"
"Perch Pond","Broome","2021","C","2021-10-15T00:00:00.000","2021-10-15T00:00:00.000","1","42.176102","-75.559898","POINT (-75.559898 42.176102)"
"Lake Neatahwanta","Oswego","2021","C","2021-06-01T00:00:00.000","2021-11-02T00:00:00.000","21","43.308102","-76.437202","POINT (-76.437202 43.308102)"
"Roth Pond","Suffolk","2021","C","2021-09-08T00:00:00.000","2021-09-08T00:00:00.000","1","40.911804","-73.123789","POINT (-73.123789 40.911804)"
"Great Pond","Suffolk","2021","C","2021-08-31T00:00:00.000","2021-10-14T00:00:00.000","2","41.066799","-72.454399","POINT (-72.454399 41.066799)"
"Avon Marsh Dam Pond","Livingston","2021","C","2021-07-20T00:00:00.000","2021-08-17T00:00:00.000","2","42.9011","-77.668602","POINT (-77.668602 42.9011)"
"Sepasco Lake","Dutchess","2021","C","2021-09-07T00:00:00.000","2021-09-07T00:00:00.000","1","41.959801","-73.837601","POINT (-73.837601 41.959801)"
"Allegheny Reservoir","Cattaraugus","2021","C","2021-07-27T00:00:00.000","2021-09-28T00:00:00.000","6","42.030537","-78.946871","POINT (-78.946871 42.030537)"
"Beaver Dam Lake","Orange","2021","C","2021-06-05T00:00:00.000","2021-09-18T00:00:00.000","9","41.442001","-74.115898","POINT (-74.115898 41.442001)"
"Basic Creek Reservoir","Albany","2021","C","2021-08-06T00:00:00.000","2021-08-06T00:00:00.000","1","42.481201","-74.013901","POINT (-74.013901 42.481201)"
"Wilkie Reservoir","Warren","2021","C","2021-07-20T00:00:00.000","2021-07-20T00:00:00.000","1","43.355999","-73.758301","POINT (-73.758301 43.355999)"
"Lake Boyce","Rockland","2021","C","2021-08-03T00:00:00.000","2021-08-03T00:00:00.000","1","41.247501","-74.003403","POINT (-74.003403 41.247501)"
"Unnamed Waterbody (Minisink)","Orange","2021","C","2021-07-25T00:00:00.000","2021-07-25T00:00:00.000","1","41.34952414","-74.48967176","POINT (-74.48967176 41.34952414)"
"Greenwood Park Lake","Broome","2021","C","2021-06-09T00:00:00.000","2021-06-09T00:00:00.000","1","42.28687","-76.09166","POINT (-76.09166 42.28687)"
"North Sandy Pond","Jefferson, Oswego","2021","C","2021-08-06T00:00:00.000","2021-10-08T00:00:00.000","3","43.6535","-76.176002","POINT (-76.176002 43.6535)"
"Dog Ponds","Suffolk","2021","C","2021-10-19T00:00:00.000","2021-10-19T00:00:00.000","1","40.8932","-72.823303","POINT (-72.823303 40.8932)"
"Raquette Lake","Hamilton","2021","C","2021-10-12T00:00:00.000","2021-10-12T00:00:00.000","1","43.8396","-74.637604","POINT (-74.637604 43.8396)"
"Jennings Pond","Tompkins","2021","C","2021-08-09T00:00:00.000","2021-08-09T00:00:00.000","1","42.344799","-76.487602","POINT (-76.487602 42.344799)"
"South Merrits Pond","Suffolk","2021","C","2021-09-14T00:00:00.000","2021-09-14T00:00:00.000","1","40.926399","-72.664597","POINT (-72.664597 40.926399)"
"Iroquois Lake","Schenectady","2021","C","2021-07-27T00:00:00.000","2021-07-27T00:00:00.000","1","42.799999","-73.9123","POINT (-73.9123 42.799999)"
"Lake Tibet","Putnam","2021","C","2021-08-08T00:00:00.000","2021-08-29T00:00:00.000","2","41.451199","-73.778198","POINT (-73.778198 41.451199)"
"Peach Lake","Putnam, Westchester","2021","C","2021-06-23T00:00:00.000","2021-09-29T00:00:00.000","4","41.362999","-73.580002","POINT (-73.580002 41.362999)"
"Saratoga Lake","Saratoga","2021","C","2021-09-01T00:00:00.000","2021-10-06T00:00:00.000","8","43.016701","-73.741501","POINT (-73.741501 43.016701)"
"Melzingah Reservoir","Dutchess","2021","C","2021-07-19T00:00:00.000","2021-07-19T00:00:00.000","1","41.472099","-73.9673","POINT (-73.9673 41.472099)"
