"uniqueid","work_type","display_agency","number_key","comp_type","comp_type_desc","sub_type","sub_type_desc","entered_date","data_status","status_class","city_id","x_coord","y_coord","url","last_updated","yn_activity_report","latitude","longitude","neighborhood","full_address","city_county"
,"INSPECTION","Hamilton County Soil and Water","HSWI220210","HSWINSP","Earthwork Pmt Inspection","RNEW","Residential New Building","2022-07-15T00:00:00.000","ACTIVE","OPEN","COLE","1380746","446631","http://cagismaps.hamilton-co.org/PropertyActivity/CagisReport?APD=HSWI220210","2022-07-15T00:00:00.000","N","39.2077452227806","-84.5744350314285","COUNTY","2453  AMELIA CT","CNTY"
,"INSPECTION","Hamilton County Soil and Water","HSWI220208","HSWINSP","Earthwork Pmt Inspection","RNEW","Residential New Building","2022-07-15T00:00:00.000","ACTIVE","OPEN","COLE","1380682","446638","http://cagismaps.hamilton-co.org/PropertyActivity/CagisReport?APD=HSWI220208","2022-07-15T00:00:00.000","N","39.2077604003772","-84.5746614023827","COUNTY","2457  AMELIA CT","CNTY"
,"INSPECTION","Hamilton County Soil and Water","HSWC220016","HSWCODE","Earthwork Investigation","EROSIONP","Erosion/Sediment, problem","2022-07-15T00:00:00.000","INTAKE","OPEN","SYMM","1461120","439043","http://cagismaps.hamilton-co.org/PropertyActivity/CagisReport?APD=HSWC220016","2022-07-15T00:00:00.000","N","39.1916382250844","-84.2903101678028","COUNTY","7567  GLENDALE MILFORD RD","CNTY"
,"INSPECTION","Hamilton County Soil and Water","HSWI220211","HSWINSP","Earthwork Pmt Inspection","RNEW","Residential New Building","2022-07-15T00:00:00.000","ACTIVE","OPEN","COLE","1380612","446642","http://cagismaps.hamilton-co.org/PropertyActivity/CagisReport?APD=HSWI220211","2022-07-15T00:00:00.000","N","39.2077669642954","-84.574908700411","COUNTY","2461  AMELIA CT","CNTY"
,"INSPECTION","Cincinnati Buildings and Inspections","RIU2200049","CBHRRIU","Residential Rental Program - Unit Inspections","UNITINFO","UNIT CONDITIONS INFORMATION","2022-07-15T00:00:00.000","SUBSTANL","OPEN","CINC","1404720","423687","http://cagismaps.hamilton-co.org/PropertyActivity/CagisReport?APD=RIU2200049","2022-07-20T00:00:00.000","Y","39.1462457097708","-84.4880658782598","AVONDALE","836  LEXINGTON AV","CITY"
,"INSPECTION","Cincinnati Buildings and Inspections","RIU2200050","CBHRRIU","Residential Rental Program - Unit Inspections","UNITINFO","UNIT CONDITIONS INFORMATION","2022-07-15T00:00:00.000","NONCOMP","OPEN","CINC","1404720","423687","http://cagismaps.hamilton-co.org/PropertyActivity/CagisReport?APD=RIU2200050","2022-08-30T00:00:00.000","Y","39.1462457097708","-84.4880658782598","AVONDALE","836  LEXINGTON AV","CITY"
,"INSPECTION","Cincinnati Buildings and Inspections","B202204333","CBHDNS","Dept. of Community Dev.- Survey Inspection","CRATAXIN","CRA Tax Abatement Inspection","2022-07-15T00:00:00.000","INTAKE","OPEN","CINC","1397115","409219","http://cagismaps.hamilton-co.org/PropertyActivity/CagisReport?APD=B202204333","2022-07-20T00:00:00.000","N","39.1060686384219","-84.5137370849913","DOWNTOWN","11 E COURT ST","CITY"
,"INSPECTION","Cincinnati Buildings and Inspections","B202204331","CBHDNS","Dept. of Community Dev.- Survey Inspection","CRATAXIN","CRA Tax Abatement Inspection","2022-07-15T00:00:00.000","RPT NREC","CLOS","CINC","1395429","411567","http://cagismaps.hamilton-co.org/PropertyActivity/CagisReport?APD=B202204331","2022-08-10T00:00:00.000","N","39.1124104592116","-84.5198621634572","OVER-THE-RHINE","215  WADE ST","CITY"
,"INSPECTION","Cincinnati Fire Dept","FI22000456","CFDSPEC","CFD Annual Inspections and SRs","ANNUAL-C","ANNUAL COMMERCIAL-NO LICENSE","2022-07-15T00:00:00.000","NEW","OPEN","CINC","1434650","406229","http://cagismaps.hamilton-co.org/PropertyActivity/CagisReport?APD=FI22000456","2022-07-20T00:00:00.000","N","39.1000835606289","-84.381272275254","MT. WASHINGTON","2455  CARDINAL HILL CT","CITY"
,"INSPECTION","Cincinnati Buildings and Inspections","RIU2200048","CBHRRIU","Residential Rental Program - Unit Inspections","UNITINFO","UNIT CONDITIONS INFORMATION","2022-07-15T00:00:00.000","CODECOMP","OPEN","CINC","1404720","423687","http://cagismaps.hamilton-co.org/PropertyActivity/CagisReport?APD=RIU2200048","2022-07-20T00:00:00.000","Y","39.1462457097708","-84.4880658782598","AVONDALE","836  LEXINGTON AV","CITY"
,"INSPECTION","Cincinnati Buildings and Inspections","B202204329","CBHDNS","Dept. of Community Dev.- Survey Inspection","CRATAXIN","CRA Tax Abatement Inspection","2022-07-15T00:00:00.000","RPT NREC","CLOS","CINC","1425356","416410","http://cagismaps.hamilton-co.org/PropertyActivity/CagisReport?APD=B202204329","2022-09-01T00:00:00.000","N","39.1274946118583","-84.4147750118338","MT. LOOKOUT","3619  RUSSELL AV","CITY"
,"INSPECTION","Cincinnati Buildings and Inspections","B202204330","CBHDNS","Dept. of Community Dev.- Survey Inspection","CRATAXIN","CRA Tax Abatement Inspection","2022-07-15T00:00:00.000","INTAKE","OPEN","CINC","1393210","413658","http://cagismaps.hamilton-co.org/PropertyActivity/CagisReport?APD=B202204330","2022-07-20T00:00:00.000","N","39.1180136495068","-84.5278461720989","WEST END","819  DAYTON ST","CITY"
,"INSPECTION","Hamilton County Soil and Water","HSWI220209","HSWINSP","Earthwork Pmt Inspection","RNEW","Residential New Building","2022-07-15T00:00:00.000","ACTIVE","OPEN","COLE","1380803","446802","http://cagismaps.hamilton-co.org/PropertyActivity/CagisReport?APD=HSWI220209","2022-07-15T00:00:00.000","N","39.2082181970131","-84.5742477866339","COUNTY","2452  AMELIA CT","CNTY"
,"INSPECTION","Cincinnati Buildings and Inspections","B202204332","CBHDNS","Dept. of Community Dev.- Survey Inspection","CRATAXIN","CRA Tax Abatement Inspection","2022-07-15T00:00:00.000","INTAKE","OPEN","CINC","1397115","409219","http://cagismaps.hamilton-co.org/PropertyActivity/CagisReport?APD=B202204332","2022-07-20T00:00:00.000","N","39.1060686384219","-84.5137370849913","DOWNTOWN","11 E COURT ST","CITY"
,"INSPECTION","Cincinnati Fire Dept","FI22000455","CFDSPEC","CFD Annual Inspections and SRs","ANNUAL-C","ANNUAL COMMERCIAL-NO LICENSE","2022-07-14T00:00:00.000","NEW","OPEN","CINC","1396208","435120","http://cagismaps.hamilton-co.org/PropertyActivity/CagisReport?APD=FI22000455","2022-07-20T00:00:00.000","N","39.1771104620693","-84.518973232201","SPRING GROVE VILLAGE","4750  WINTON RD","CITY"
,"INSPECTION","Cincinnati Fire Dept","FI22000454","CFDSPEC","CFD Annual Inspections and SRs","ANNUAL-C","ANNUAL COMMERCIAL-NO LICENSE","2022-07-14T00:00:00.000","ORDERS1","OPEN","CINC","1421480","423307","http://cagismaps.hamilton-co.org/PropertyActivity/CagisReport?APD=FI22000454","2022-07-20T00:00:00.000","N","39.1462006148441","-84.4289544719957","OAKLEY","3806  PAXTON AV","CITY"
,"INSPECTION","Cincinnati Fire Dept","FI22000453","CFDSPEC","CFD Annual Inspections and SRs","ANNUAL-C","ANNUAL COMMERCIAL-NO LICENSE","2022-07-13T00:00:00.000","ABAT-OWN","CLOS","CINC","1378774","402429","http://cagismaps.hamilton-co.org/PropertyActivity/CagisReport?APD=FI22000453","2022-09-06T00:00:00.000","N","39.0862895517492","-84.5778034174591","RIVERSIDE","3280  RIVER RD","CITY"
,"INSPECTION","Cincinnati Fire Dept","FI22000452","CFDSPEC","CFD Annual Inspections and SRs","6MONTH","6 MONTH ON-GOING INSPECTION","2022-07-13T00:00:00.000","CLOSE-NO","OPEN","CINC","1388000","419732","http://cagismaps.hamilton-co.org/PropertyActivity/CagisReport?APD=FI22000452","2022-07-20T00:00:00.000","N","39.1343638129517","-84.5466899027364","NORTH FAIRMOUNT","1515  CARLL ST","CITY"
,"INSPECTION","Cincinnati Buildings and Inspections","RIU2200046","CBHRRIU","Residential Rental Program - Unit Inspections","UNITINFO","UNIT CONDITIONS INFORMATION","2022-07-13T00:00:00.000","SUBSTANL","OPEN","CINC","1380375","413335","http://cagismaps.hamilton-co.org/PropertyActivity/CagisReport?APD=RIU2200046","2022-07-20T00:00:00.000","Y","39.1163268715919","-84.5730465510591","EAST PRICE HILL","1267  ROSS AV","CITY"
,"INSPECTION","Cincinnati Buildings and Inspections","RIU2200047","CBHRRIU","Residential Rental Program - Unit Inspections","UNITINFO","UNIT CONDITIONS INFORMATION","2022-07-13T00:00:00.000","SUBSTANL","OPEN","CINC","1380375","413335","http://cagismaps.hamilton-co.org/PropertyActivity/CagisReport?APD=RIU2200047","2022-07-20T00:00:00.000","Y","39.1163268715919","-84.5730465510591","EAST PRICE HILL","1267  ROSS AV","CITY"
,"INSPECTION","Cincinnati Fire Dept","FI22000451","CFDSPEC","CFD Annual Inspections and SRs","ANNUAL-C","ANNUAL COMMERCIAL-NO LICENSE","2022-07-13T00:00:00.000","CLOSE-NO","OPEN","CINC","1391157","445851","http://cagismaps.hamilton-co.org/PropertyActivity/CagisReport?APD=FI22000451","2022-07-20T00:00:00.000","N","39.2062549885727","-84.5376406364224","COLLEGE HILL","6497  TEAKWOOD CT","CITY"
,"INSPECTION","Cincinnati Buildings and Inspections","BF22000020","CBHFACFE","Building Facade and Fire Escape Inspections","FAC_FE","FACADE and FIRE ESCAPE CERT","2022-07-13T00:00:00.000","INTAKE","OPEN","CINC","1394222","417260","http://cagismaps.hamilton-co.org/PropertyActivity/CagisReport?APD=BF22000020","2022-07-20T00:00:00.000","N","39.127963364181","-84.5245647834842","CUF","337 W MCMILLAN ST","CITY"
,"INSPECTION","Cincinnati Fire Dept","FI22000450","CFDSPEC","CFD Annual Inspections and SRs","ANNUAL-C","ANNUAL COMMERCIAL-NO LICENSE","2022-07-12T00:00:00.000","CLOSE-NO","OPEN","CINC","1406601","439980","http://cagismaps.hamilton-co.org/PropertyActivity/CagisReport?APD=FI22000450","2022-07-20T00:00:00.000","N","39.1910832426948","-84.4826963496322","CARTHAGE","14 E 67TH ST","CITY"
,"INSPECTION","Cincinnati Fire Dept","FI22000449","CFDSPEC","CFD Annual Inspections and SRs","ANNUAL-C","ANNUAL COMMERCIAL-NO LICENSE","2022-07-11T00:00:00.000","CLOSE-NO","OPEN","CINC","1395729","422298","http://cagismaps.hamilton-co.org/PropertyActivity/CagisReport?APD=FI22000449","2022-07-20T00:00:00.000","N","39.1418851564635","-84.5196509521345","CLIFTON","3317  CLIFTON AV","CITY"
,"INSPECTION","Cincinnati Fire Dept","FI22000448","CFDSPEC","CFD Annual Inspections and SRs","ANNUAL-C","ANNUAL COMMERCIAL-NO LICENSE","2022-07-09T00:00:00.000","CLOSE-NO","OPEN","CINC","1381582","440584","http://cagismaps.hamilton-co.org/PropertyActivity/CagisReport?APD=FI22000448","2022-07-20T00:00:00.000","N","39.1911994185566","-84.5709960594358","MT. AIRY","5501  COLERAIN AV","CITY"
,"INSPECTION","Cincinnati Fire Dept","FI22000447","CFDSPEC","CFD Annual Inspections and SRs","ANNUAL-C","ANNUAL COMMERCIAL-NO LICENSE","2022-07-08T00:00:00.000","CLOSE-NO","OPEN","CINC","1385786","409433","http://cagismaps.hamilton-co.org/PropertyActivity/CagisReport?APD=FI22000447","2022-07-20T00:00:00.000","N","39.1059555550834","-84.5536674944263","LOWER PRICE HILL","2312  GLENWAY AV","CITY"
,"INSPECTION","Hamilton County Soil and Water","HSWI220206","HSWINSP","Earthwork Pmt Inspection","RNEW","Residential New Building","2022-07-08T00:00:00.000","ACTIVE","OPEN","SYMM","1456430","467293","http://cagismaps.hamilton-co.org/PropertyActivity/CagisReport?APD=HSWI220206","2022-07-08T00:00:00.000","N","39.2689301333093","-84.3088511666381","COUNTY","11222  RIVERSEDGE CT","CNTY"
,"INSPECTION","Hamilton County Soil and Water","HSWI220205","HSWINSP","Earthwork Pmt Inspection","RNEW","Residential New Building","2022-07-08T00:00:00.000","ACTIVE","OPEN","COLE","1359074","455029","http://cagismaps.hamilton-co.org/PropertyActivity/CagisReport?APD=HSWI220205","2022-07-08T00:00:00.000","N","39.2294044294058","-84.6516024815422","COUNTY","8528  MERRIL CT","CNTY"
,"INSPECTION","Cincinnati Fire Dept","FI22000445","CFDSPEC","CFD Annual Inspections and SRs","ANNUAL-C","ANNUAL COMMERCIAL-NO LICENSE","2022-07-08T00:00:00.000","CLOSE-NO","OPEN","CINC","1403711","422523","http://cagismaps.hamilton-co.org/PropertyActivity/CagisReport?APD=FI22000445","2022-07-20T00:00:00.000","N","39.1429895038844","-84.4915322636956","AVONDALE","3458  READING RD","CITY"
,"INSPECTION","Cincinnati Fire Dept","FI22000446","CFDSPEC","CFD Annual Inspections and SRs","ANNUAL-C","ANNUAL COMMERCIAL-NO LICENSE","2022-07-08T00:00:00.000","CLOSE-NO","OPEN","CINC","1403771","419022","http://cagismaps.hamilton-co.org/PropertyActivity/CagisReport?APD=FI22000446","2022-07-20T00:00:00.000","N","39.1333829392737","-84.4910486018142","WALNUT HILLS","813  BEECHER ST","CITY"
,"INSPECTION","Hamilton County Soil and Water","HSWI220203","HSWINSP","Earthwork Pmt Inspection","RNEW","Residential New Building","2022-07-08T00:00:00.000","ACTIVE","OPEN","COLE","1358911","454817","http://cagismaps.hamilton-co.org/PropertyActivity/CagisReport?APD=HSWI220203","2022-07-08T00:00:00.000","N","39.2288118579727","-84.6521599058301","COUNTY","8509  MERRIL CT","CNTY"
,"INSPECTION","Cincinnati Fire Dept","FI22000444","CFDSPEC","CFD Annual Inspections and SRs","ANNUAL-C","ANNUAL COMMERCIAL-NO LICENSE","2022-07-08T00:00:00.000","CLOSE-NO","OPEN","CINC","1396180","408583","http://cagismaps.hamilton-co.org/PropertyActivity/CagisReport?APD=FI22000444","2022-07-20T00:00:00.000","N","39.104265539457","-84.5169811596993","DOWNTOWN","800  ELM ST","CITY"
,"INSPECTION","Hamilton County Soil and Water","HSWI220204","HSWINSP","Earthwork Pmt Inspection","RNEW","Residential New Building","2022-07-08T00:00:00.000","ACTIVE","OPEN","COLE","1359065","454957","http://cagismaps.hamilton-co.org/PropertyActivity/CagisReport?APD=HSWI220204","2022-07-08T00:00:00.000","N","39.2292062120862","-84.6516281883876","COUNTY","8518  MERRIL CT","CNTY"
,"INSPECTION","Cincinnati Buildings and Inspections","BF22000379","CBHFACFE","Building Facade and Fire Escape Inspections","FIRE_ESC","FIRE ESCAPE CERTIFICATION","2022-07-07T00:00:00.000","INTAKE","OPEN","CINC","1404161","421454","http://cagismaps.hamilton-co.org/PropertyActivity/CagisReport?APD=BF22000379","2022-07-20T00:00:00.000","N","39.1400823508474","-84.489862955816","AVONDALE","3309  DREXEL PL","CITY"
,"INSPECTION","Cincinnati Buildings and Inspections","BF22000380","CBHFACFE","Building Facade and Fire Escape Inspections","FIRE_ESC","FIRE ESCAPE CERTIFICATION","2022-07-07T00:00:00.000","REPORT","OPEN","CINC","1397865","408054","http://cagismaps.hamilton-co.org/PropertyActivity/CagisReport?APD=BF22000380","2022-07-20T00:00:00.000","N","39.1029166242744","-84.511003304089","DOWNTOWN","122 E 6TH ST","CITY"
,"INSPECTION","Cincinnati Buildings and Inspections","B202204024","CBHDNS","Dept. of Community Dev.- Survey Inspection","CRATAXIN","CRA Tax Abatement Inspection","2022-07-07T00:00:00.000","RPT RECM","CLOS","CINC","1400231","413689","http://cagismaps.hamilton-co.org/PropertyActivity/CagisReport?APD=B202204024","2022-08-10T00:00:00.000","N","39.1185289826161","-84.5031083623042","MT. AUBURN","2021  BURNET AV","CITY"
,"INSPECTION","Cincinnati Fire Dept","FI22000443","CFDSPEC","CFD Annual Inspections and SRs","ANNUAL-C","ANNUAL COMMERCIAL-NO LICENSE","2022-07-07T00:00:00.000","CLOSE-NO","OPEN","CINC","1407061","436950","http://cagismaps.hamilton-co.org/PropertyActivity/CagisReport?APD=FI22000443","2022-07-20T00:00:00.000","N","39.18279367326","-84.4808392312801","BOND HILL","1127  TOWNE ST","CITY"
,"INSPECTION","Hamilton County Soil and Water","HSWI220202","HSWINSP","Earthwork Pmt Inspection","RNEW","Residential New Building","2022-07-07T00:00:00.000","ACTIVE","OPEN","ANDE","1448303","390626","http://cagismaps.hamilton-co.org/PropertyActivity/CagisReport?APD=HSWI220202","2022-07-07T00:00:00.000","N","39.0580226801959","-84.3320574440961","COUNTY","8105  GUTHRIE LN","CNTY"
,"INSPECTION","Hamilton County Soil and Water","HSWI220201","HSWINSP","Earthwork Pmt Inspection","RNEW","Residential New Building","2022-07-07T00:00:00.000","ACTIVE","OPEN","ANDE","1444059","403455","http://cagismaps.hamilton-co.org/PropertyActivity/CagisReport?APD=HSWI220201","2022-07-07T00:00:00.000","N","39.0930021290686","-84.3479245417995","COUNTY","2117  CLOUGH CHASE DR","CNTY"
,"INSPECTION","Cincinnati Buildings and Inspections","B202204019","CBHDNS","Dept. of Community Dev.- Survey Inspection","CRATAXIN","CRA Tax Abatement Inspection","2022-07-06T00:00:00.000","INTAKE","OPEN","CINC","1396950","409143","http://cagismaps.hamilton-co.org/PropertyActivity/CagisReport?APD=B202204019","2022-07-20T00:00:00.000","N","39.1058499166708","-84.5143124290593","DOWNTOWN","915  VINE ST","CITY"
,"INSPECTION","Cincinnati Buildings and Inspections","RIU2200044","CBHRRIU","Residential Rental Program - Unit Inspections","UNITINFO","UNIT CONDITIONS INFORMATION","2022-07-06T00:00:00.000","SUBSTANL","OPEN","CINC","1395029","414427","http://cagismaps.hamilton-co.org/PropertyActivity/CagisReport?APD=RIU2200044","2022-07-20T00:00:00.000","Y","39.1202365055046","-84.5214971774105","CUF","221  RENNER ST","CITY"
,"INSPECTION","Cincinnati Buildings and Inspections","B202204018","CBHDNS","Dept. of Community Dev.- Survey Inspection","CRATAXIN","CRA Tax Abatement Inspection","2022-07-06T00:00:00.000","RPT NREC","CLOS","CINC","1420399","417363","http://cagismaps.hamilton-co.org/PropertyActivity/CagisReport?APD=B202204018","2022-08-12T00:00:00.000","N","39.1298207230713","-84.4323167661009","HYDE PARK","3117  KINMONT ST","CITY"
,"INSPECTION","Cincinnati Buildings and Inspections","B202204021","CBHDNS","Dept. of Community Dev.- Survey Inspection","CRATAXIN","CRA Tax Abatement Inspection","2022-07-06T00:00:00.000","RPT NREC","CLOS","CINC","1379096","413791","http://cagismaps.hamilton-co.org/PropertyActivity/CagisReport?APD=B202204021","2022-08-09T00:00:00.000","N","39.1174978595479","-84.5775902077353","EAST PRICE HILL","1314  MANSS AV","CITY"
,"INSPECTION","Cincinnati Fire Dept","FI22000442","CFDSPEC","CFD Annual Inspections and SRs","ANNUAL-C","ANNUAL COMMERCIAL-NO LICENSE","2022-07-06T00:00:00.000","CLOSE-NO","OPEN","CINC","1372579","415264","http://cagismaps.hamilton-co.org/PropertyActivity/CagisReport?APD=FI22000442","2022-07-20T00:00:00.000","N","39.1211271866489","-84.6006745083724","WEST PRICE HILL","4980  GLENWAY AV","CITY"
,"INSPECTION","Cincinnati Buildings and Inspections","RIU2200045","CBHRRIU","Residential Rental Program - Unit Inspections","UNITINFO","UNIT CONDITIONS INFORMATION","2022-07-06T00:00:00.000","SUBSTANL","OPEN","CINC","1395029","414427","http://cagismaps.hamilton-co.org/PropertyActivity/CagisReport?APD=RIU2200045","2022-07-20T00:00:00.000","Y","39.1202365055046","-84.5214971774105","CUF","221  RENNER ST","CITY"
,"INSPECTION","Cincinnati Buildings and Inspections","BF22000378","CBHFACFE","Building Facade and Fire Escape Inspections","FIRE_ESC","FIRE ESCAPE CERTIFICATION","2022-07-06T00:00:00.000","REMINDER","OPEN","CINC","1394597","411742","http://cagismaps.hamilton-co.org/PropertyActivity/CagisReport?APD=BF22000378","2022-07-20T00:00:00.000","N","39.1128396971717","-84.5228074888701","WEST END","1565  CENTRAL AV","CITY"
,"INSPECTION","Cincinnati Buildings and Inspections","B202204020","CBHDNS","Dept. of Community Dev.- Survey Inspection","CRATAXIN","CRA Tax Abatement Inspection","2022-07-06T00:00:00.000","RPT NREC","CLOS","CINC","1409423","420260","http://cagismaps.hamilton-co.org/PropertyActivity/CagisReport?APD=B202204020","2022-08-17T00:00:00.000","N","39.137121688689","-84.4712231402644","EVANSTON","1817  HEWITT AV","CITY"
,"INSPECTION","Cincinnati Buildings and Inspections","B202204017","CBHDNS","Dept. of Community Dev.- Survey Inspection","CRATAXIN","CRA Tax Abatement Inspection","2022-07-06T00:00:00.000","RPT NREC","CLOS","CINC","1396984","414207","http://cagismaps.hamilton-co.org/PropertyActivity/CagisReport?APD=B202204017","2022-07-20T00:00:00.000","N","39.1197525635638","-84.5145907532427","MT. AUBURN","2152  RICE ST","CITY"
,"INSPECTION","Cincinnati Buildings and Inspections","B202204023","CBHDNS","Dept. of Community Dev.- Survey Inspection","CRATAXIN","CRA Tax Abatement Inspection","2022-07-06T00:00:00.000","RPT NREC","CLOS","CINC","1407864","419462","http://cagismaps.hamilton-co.org/PropertyActivity/CagisReport?APD=B202204023","2022-08-17T00:00:00.000","N","39.1348376145994","-84.4766566100707","EVANSTON","1544  MERRIMAC ST","CITY"
,"INSPECTION","Cincinnati Fire Dept","FI22000440","CFDSPEC","CFD Annual Inspections and SRs","ANNUAL-C","ANNUAL COMMERCIAL-NO LICENSE","2022-07-06T00:00:00.000","CLOSE-NO","OPEN","CINC","1423170","437119","http://cagismaps.hamilton-co.org/PropertyActivity/CagisReport?APD=FI22000440","2022-07-20T00:00:00.000","N","39.1842138422955","-84.4240344718854","PLEASANT RIDGE","6233  MONTGOMERY RD","CITY"
,"INSPECTION","Cincinnati Fire Dept","FI22000439","CFDSPEC","CFD Annual Inspections and SRs","ANNUAL-C","ANNUAL COMMERCIAL-NO LICENSE","2022-07-06T00:00:00.000","CLOSE-NO","OPEN","CINC","1411246","447821","http://cagismaps.hamilton-co.org/PropertyActivity/CagisReport?APD=FI22000439","2022-07-20T00:00:00.000","N","39.212885514619","-84.4669139474685","HARTWELL","8320  WOODBINE AV","CITY"
,"INSPECTION","Cincinnati Buildings and Inspections","RIU2200043","CBHRRIU","Residential Rental Program - Unit Inspections","UNITINFO","UNIT CONDITIONS INFORMATION","2022-07-06T00:00:00.000","SUBSTANL","OPEN","CINC","1395029","414427","http://cagismaps.hamilton-co.org/PropertyActivity/CagisReport?APD=RIU2200043","2022-07-20T00:00:00.000","Y","39.1202365055046","-84.5214971774105","CUF","221  RENNER ST","CITY"
,"INSPECTION","Cincinnati Buildings and Inspections","RIU2200042","CBHRRIU","Residential Rental Program - Unit Inspections","UNITINFO","UNIT CONDITIONS INFORMATION","2022-07-06T00:00:00.000","SUBSTANL","OPEN","CINC","1395029","414427","http://cagismaps.hamilton-co.org/PropertyActivity/CagisReport?APD=RIU2200042","2022-07-20T00:00:00.000","Y","39.1202365055046","-84.5214971774105","CUF","221  RENNER ST","CITY"
,"INSPECTION","Cincinnati Buildings and Inspections","B202204022","CBHDNS","Dept. of Community Dev.- Survey Inspection","CRATAXIN","CRA Tax Abatement Inspection","2022-07-06T00:00:00.000","RPT NREC","CLOS","CINC","1396610","414194","http://cagismaps.hamilton-co.org/PropertyActivity/CagisReport?APD=B202204022","2022-07-20T00:00:00.000","N","39.1196939632587","-84.5159076401221","MT. AUBURN","2124  LOTH ST","CITY"
,"INSPECTION","Cincinnati Fire Dept","FI22000441","CFDSPEC","CFD Annual Inspections and SRs","ANNUAL-C","ANNUAL COMMERCIAL-NO LICENSE","2022-07-06T00:00:00.000","CLOSE-NO","OPEN","CINC","1411392","447861","http://cagismaps.hamilton-co.org/PropertyActivity/CagisReport?APD=FI22000441","2022-07-20T00:00:00.000","N","39.2130040444775","-84.4664018548702","HARTWELL","219  HUNSFORD ST","CITY"
,"INSPECTION","Cincinnati Fire Dept","FI22000437","CFDSPEC","CFD Annual Inspections and SRs","ANNUAL-C","ANNUAL COMMERCIAL-NO LICENSE","2022-07-05T00:00:00.000","NEW","OPEN","CINC","1380547","441801","http://cagismaps.hamilton-co.org/PropertyActivity/CagisReport?APD=FI22000437","2022-07-20T00:00:00.000","N","39.1944747514312","-84.5747455225172","MT. AIRY","5611  COLERAIN AV","CITY"
,"INSPECTION","Cincinnati Fire Dept","FI22000436","CFDSPEC","CFD Annual Inspections and SRs","ANNUAL-C","ANNUAL COMMERCIAL-NO LICENSE","2022-07-05T00:00:00.000","CLOSE-NO","OPEN","CINC","1393060","410410","http://cagismaps.hamilton-co.org/PropertyActivity/CagisReport?APD=FI22000436","2022-07-20T00:00:00.000","N","39.1090887445602","-84.5281176283548","WEST END","805  EZZARD CHARLES DR","CITY"
,"INSPECTION","Hamilton County Soil and Water","HSWI220200","HSWINSP","Earthwork Pmt Inspection","RNEW","Residential New Building","2022-07-05T00:00:00.000","ACTIVE","OPEN","MIAM","1339891","433846","http://cagismaps.hamilton-co.org/PropertyActivity/CagisReport?APD=HSWI220200","2022-07-05T00:00:00.000","N","39.1699865555613","-84.7174657839335","COUNTY","3951  MATTIES WY","CNTY"
,"INSPECTION","Cincinnati Fire Dept","FI22000438","CFDSPEC","CFD Annual Inspections and SRs","ANNUAL-C","ANNUAL COMMERCIAL-NO LICENSE","2022-07-05T00:00:00.000","NEW","OPEN","CINC","1405431","441669","http://cagismaps.hamilton-co.org/PropertyActivity/CagisReport?APD=FI22000438","2022-07-20T00:00:00.000","N","39.1956488992004","-84.4869545574837","CARTHAGE","415 W SEYMOUR AV","CITY"
,"INSPECTION","Cincinnati Fire Dept","FI22000435","CFDSPEC","CFD Annual Inspections and SRs","ANNUAL-C","ANNUAL COMMERCIAL-NO LICENSE","2022-07-03T00:00:00.000","CLOSE-NO","OPEN","CINC","1432860","404377","http://cagismaps.hamilton-co.org/PropertyActivity/CagisReport?APD=FI22000435","2022-07-20T00:00:00.000","N","39.0948971425305","-84.387441952993","MT. WASHINGTON","2231  BEECHMONT AV","CITY"
,"INSPECTION","Cincinnati Fire Dept","FI22000434","CFDSPEC","CFD Annual Inspections and SRs","ANNUAL-C","ANNUAL COMMERCIAL-NO LICENSE","2022-07-02T00:00:00.000","CLOSE-NO","OPEN","CINC","1360176","405091","http://cagismaps.hamilton-co.org/PropertyActivity/CagisReport?APD=FI22000434","2022-07-20T00:00:00.000","N","39.0924030353277","-84.6435288061321","RIVERSIDE","264  STILLE DR","CITY"
,"INSPECTION","Cincinnati Fire Dept","FI22000433","CFDSPEC","CFD Annual Inspections and SRs","ANNUAL-C","ANNUAL COMMERCIAL-NO LICENSE","2022-07-02T00:00:00.000","ORDERS2","OPEN","CINC","1382460","411097","http://cagismaps.hamilton-co.org/PropertyActivity/CagisReport?APD=FI22000433","2022-08-12T00:00:00.000","N","39.1103148734498","-84.5655194112373","EAST PRICE HILL","3406  WARSAW AV","CITY"
,"INSPECTION","Cincinnati Fire Dept","FI22000432","CFDSPEC","CFD Annual Inspections and SRs","SPECIAL","SPECIAL INSPECTION","2022-07-01T00:00:00.000","NEW","OPEN","CINC","1403090","427522","http://cagismaps.hamilton-co.org/PropertyActivity/CagisReport?APD=FI22000432","2022-07-20T00:00:00.000","N","39.1566740441721","-84.4941105045797","NORTH AVONDALE - PADDOCK HILLS","534  CLINTON SPRINGS AV","CITY"
,"INSPECTION","Hamilton County Soil and Water","HSWI220198","HSWINSP","Earthwork Pmt Inspection","RNEW","Residential New Building","2022-07-01T00:00:00.000","ACTIVE","OPEN","SYCM","1440660","444795","http://cagismaps.hamilton-co.org/PropertyActivity/CagisReport?APD=HSWI220198","2022-07-01T00:00:00.000","N","39.2062916120312","-84.362902659366","COUNTY","8258  ASBURY LN","CNTY"
,"INSPECTION","Hamilton County Soil and Water","HSWI220199","HSWINSP","Earthwork Pmt Inspection","RNEW","Residential New Building","2022-07-01T00:00:00.000","ACTIVE","OPEN","GREE","1360934","443715","http://cagismaps.hamilton-co.org/PropertyActivity/CagisReport?APD=HSWI220199","2022-07-01T00:00:00.000","N","39.198470605661","-84.6440898621211","COUNTY","6039  EDEN ROC PL","CNTY"
,"INSPECTION","Cincinnati Buildings and Inspections","BF22000376","CBHFACFE","Building Facade and Fire Escape Inspections","FACADE","FACADE CERTIFICATION","2022-06-30T00:00:00.000","REPORT","OPEN","CINC","1398100","409934","http://cagismaps.hamilton-co.org/PropertyActivity/CagisReport?APD=BF22000376","2022-07-20T00:00:00.000","N","39.1080915556131","-84.5103228803336","OVER-THE-RHINE","222 E CENTRAL PKWY","CITY"
,"INSPECTION","Cincinnati Buildings and Inspections","BF22000377","CBHFACFE","Building Facade and Fire Escape Inspections","FACADE","FACADE CERTIFICATION","2022-06-30T00:00:00.000","REPORT","OPEN","CINC","1397980","409597","http://cagismaps.hamilton-co.org/PropertyActivity/CagisReport?APD=BF22000377","2022-09-01T00:00:00.000","N","39.1071591615733","-84.510719226488","DOWNTOWN","1000  MAIN ST","CITY"
,"INSPECTION","Cincinnati Fire Dept","FI22000431","CFDSPEC","CFD Annual Inspections and SRs","ANNUAL-C","ANNUAL COMMERCIAL-NO LICENSE","2022-06-30T00:00:00.000","CLOSE-NO","OPEN","CINC","1425017","438239","http://cagismaps.hamilton-co.org/PropertyActivity/CagisReport?APD=FI22000431","2022-07-20T00:00:00.000","N","39.1873961304218","-84.4176037500833","KENNEDY HEIGHTS","6471  MONTGOMERY RD","CITY"
,"INSPECTION","Cincinnati Fire Dept","FI22000422","CFDSPEC","CFD Annual Inspections and SRs","ANNUAL-C","ANNUAL COMMERCIAL-NO LICENSE","2022-06-29T00:00:00.000","CLOSE-NO","OPEN","CINC","1389982","444684","http://cagismaps.hamilton-co.org/PropertyActivity/CagisReport?APD=FI22000422","2022-07-20T00:00:00.000","N","39.2029787846345","-84.5416930903174","COLLEGE HILL","1400 W NORTH BEND RD","CITY"
,"INSPECTION","Cincinnati Fire Dept","FI22000428","CFDSPEC","CFD Annual Inspections and SRs","ANNUAL-C","ANNUAL COMMERCIAL-NO LICENSE","2022-06-29T00:00:00.000","NEW","OPEN","CINC","1401793","419270","http://cagismaps.hamilton-co.org/PropertyActivity/CagisReport?APD=FI22000428","2022-07-20T00:00:00.000","N","39.1339437444585","-84.498039450808","AVONDALE","532  MAXWELL AV","CITY"
,"INSPECTION","Cincinnati Fire Dept","FI22000424","CFDSPEC","CFD Annual Inspections and SRs","ANNUAL-C","ANNUAL COMMERCIAL-NO LICENSE","2022-06-29T00:00:00.000","CLOSE-NO","OPEN","CINC","1417866","423057","http://cagismaps.hamilton-co.org/PropertyActivity/CagisReport?APD=FI22000424","2022-07-20T00:00:00.000","N","39.1453017046374","-84.4416756371767","OAKLEY","2727  MADISON RD","CITY"
,"INSPECTION","Cincinnati Fire Dept","FI22000426","CFDSPEC","CFD Annual Inspections and SRs","ANNUAL-C","ANNUAL COMMERCIAL-NO LICENSE","2022-06-29T00:00:00.000","CLOSE-NO","OPEN","CINC","1398692","418587","http://cagismaps.hamilton-co.org/PropertyActivity/CagisReport?APD=FI22000426","2022-07-20T00:00:00.000","N","39.1318800291396","-84.5089154875384","CORRYVILLE","2802  VINE ST","CITY"
,"INSPECTION","Cincinnati Fire Dept","FI22000421","CFDSPEC","CFD Annual Inspections and SRs","ANNUAL-C","ANNUAL COMMERCIAL-NO LICENSE","2022-06-29T00:00:00.000","ORDERS1","OPEN","CINC","1415450","421023","http://cagismaps.hamilton-co.org/PropertyActivity/CagisReport?APD=FI22000421","2022-07-20T00:00:00.000","N","39.1395754074885","-84.4500375560401","HYDE PARK","3447  BERRY AV","CITY"
,"INSPECTION","Cincinnati Fire Dept","FI22000427","CFDSPEC","CFD Annual Inspections and SRs","ANNUAL-C","ANNUAL COMMERCIAL-NO LICENSE","2022-06-29T00:00:00.000","CLOSE-NO","OPEN","CINC","1401650","419213","http://cagismaps.hamilton-co.org/PropertyActivity/CagisReport?APD=FI22000427","2022-07-20T00:00:00.000","N","39.1337785926143","-84.4985390132653","AVONDALE","522  MAXWELL AV","CITY"
,"INSPECTION","Cincinnati Fire Dept","FI22000420","CFDSPEC","CFD Annual Inspections and SRs","ANNUAL-C","ANNUAL COMMERCIAL-NO LICENSE","2022-06-29T00:00:00.000","CLOSE-NO","OPEN","CINC","1395820","425326","http://cagismaps.hamilton-co.org/PropertyActivity/CagisReport?APD=FI22000420","2022-07-20T00:00:00.000","N","39.150202498444","-84.5195689420342","CLIFTON","320  MCALPIN AV","CITY"
,"INSPECTION","Cincinnati Fire Dept","FI22000423","CFDSPEC","CFD Annual Inspections and SRs","ANNUAL-C","ANNUAL COMMERCIAL-NO LICENSE","2022-06-29T00:00:00.000","ORDERS1","OPEN","CINC","1404590","418892","http://cagismaps.hamilton-co.org/PropertyActivity/CagisReport?APD=FI22000423","2022-07-20T00:00:00.000","N","39.1330756336082","-84.4881519212326","WALNUT HILLS","2945  GILBERT AV","CITY"
,"INSPECTION","Cincinnati Fire Dept","FI22000429","CFDSPEC","CFD Annual Inspections and SRs","ANNUAL-C","ANNUAL COMMERCIAL-NO LICENSE","2022-06-29T00:00:00.000","CLOSE-NO","OPEN","CINC","1401710","419286","http://cagismaps.hamilton-co.org/PropertyActivity/CagisReport?APD=FI22000429","2022-07-20T00:00:00.000","N","39.1339826215951","-84.4983332360776","AVONDALE","528  MAXWELL AV","CITY"
,"INSPECTION","Hamilton County Soil and Water","HSWI220196","HSWINSP","Earthwork Pmt Inspection","RNEW","Residential New Building","2022-06-29T00:00:00.000","ACTIVE","OPEN","COLE","1359607","454828","http://cagismaps.hamilton-co.org/PropertyActivity/CagisReport?APD=HSWI220196","2022-06-29T00:00:00.000","N","39.228887566663","-84.6497045245758","COUNTY","6983  DAYBREAK DR","CNTY"
,"INSPECTION","Cincinnati Fire Dept","FI22000430","CFDSPEC","CFD Annual Inspections and SRs","ANNUAL-C","ANNUAL COMMERCIAL-NO LICENSE","2022-06-29T00:00:00.000","CLOSE-NO","OPEN","CINC","1401680","419178","http://cagismaps.hamilton-co.org/PropertyActivity/CagisReport?APD=FI22000430","2022-07-20T00:00:00.000","N","39.1336843412721","-84.4984305466629","AVONDALE","524  MAXWELL AV","CITY"
,"INSPECTION","Hamilton County Soil and Water","HSWI220197","HSWINSP","Earthwork Pmt Inspection","RNEW","Residential New Building","2022-06-29T00:00:00.000","ACTIVE","OPEN","COLE","1380545","446683","http://cagismaps.hamilton-co.org/PropertyActivity/CagisReport?APD=HSWI220197","2022-06-29T00:00:00.000","N","39.2078752783905","-84.5751484133364","COUNTY","2465  AMELIA CT","CNTY"
,"INSPECTION","Cincinnati Fire Dept","FI22000425","CFDSPEC","CFD Annual Inspections and SRs","ANNUAL-C","ANNUAL COMMERCIAL-NO LICENSE","2022-06-29T00:00:00.000","CLOSE-NO","OPEN","CINC","1390000","430413","http://cagismaps.hamilton-co.org/PropertyActivity/CagisReport?APD=FI22000425","2022-07-20T00:00:00.000","N","39.1638068682402","-84.5404916670656","NORTHSIDE","4219  HAMILTON AV","CITY"
,"INSPECTION","Cincinnati Fire Dept","FI22000413","CFDSPEC","CFD Annual Inspections and SRs","ANNUAL-C","ANNUAL COMMERCIAL-NO LICENSE","2022-06-28T00:00:00.000","ORDERS1","OPEN","CINC","1432925","403628","http://cagismaps.hamilton-co.org/PropertyActivity/CagisReport?APD=FI22000413","2022-07-20T00:00:00.000","N","39.0928448189166","-84.3871578282333","MT. WASHINGTON","2109  BEECHMONT AV","CITY"
,"INSPECTION","Cincinnati Fire Dept","FI22000419","CFDSPEC","CFD Annual Inspections and SRs","ANNUAL-C","ANNUAL COMMERCIAL-NO LICENSE","2022-06-28T00:00:00.000","ORDERS1","OPEN","CINC","1409442","431507","http://cagismaps.hamilton-co.org/PropertyActivity/CagisReport?APD=FI22000419","2022-07-20T00:00:00.000","N","39.1679957935352","-84.4720220669871","NORTH AVONDALE - PADDOCK HILLS","1375  TENNESSEE AV","CITY"
,"INSPECTION","Cincinnati Fire Dept","FI22000416","CFDSPEC","CFD Annual Inspections and SRs","COMPLNT","COMPLAINT INSPECTION","2022-06-28T00:00:00.000","NEW","OPEN","CINC","1398110","416875","http://cagismaps.hamilton-co.org/PropertyActivity/CagisReport?APD=FI22000416","2022-07-20T00:00:00.000","N","39.1271450651299","-84.5108323196599","MT. AUBURN","17 E MCMILLAN ST","CITY"
,"INSPECTION","Cincinnati Buildings and Inspections","BF22000375","CBHFACFE","Building Facade and Fire Escape Inspections","FIRE_ESC","FIRE ESCAPE CERTIFICATION","2022-06-28T00:00:00.000","REPORT","OPEN","CINC","1397520","410518","http://cagismaps.hamilton-co.org/PropertyActivity/CagisReport?APD=BF22000375","2022-07-20T00:00:00.000","N","39.1096591552319","-84.5124122250828","OVER-THE-RHINE","123 E 13TH ST","CITY"
,"INSPECTION","Cincinnati Fire Dept","FI22000412","CFDSPEC","CFD Annual Inspections and SRs","ANNUAL-C","ANNUAL COMMERCIAL-NO LICENSE","2022-06-28T00:00:00.000","CLOSE-NO","OPEN","CINC","1382923","410716","http://cagismaps.hamilton-co.org/PropertyActivity/CagisReport?APD=FI22000412","2022-07-20T00:00:00.000","N","39.1092981149953","-84.5638574333328","EAST PRICE HILL","970  PURCELL AV","CITY"
,"INSPECTION","Hamilton County Soil and Water","HSWI220193","HSWINSP","Earthwork Pmt Inspection","CNEW","Commercial New Building","2022-06-28T00:00:00.000","ACTIVE","OPEN","DELH","1370191","409581","http://cagismaps.hamilton-co.org/PropertyActivity/CagisReport?APD=HSWI220193","2022-06-28T00:00:00.000","N","39.1053750290447","-84.6086216414036","COUNTY","5010  GARDEN GROVE LN","CNTY"
,"INSPECTION","Hamilton County Soil and Water","HSWI220192","HSWINSP","Earthwork Pmt Inspection","CNEW","Commercial New Building","2022-06-28T00:00:00.000","ACTIVE","OPEN","DELH","1370051","409584","http://cagismaps.hamilton-co.org/PropertyActivity/CagisReport?APD=HSWI220192","2022-06-28T00:00:00.000","N","39.1053742872557","-84.6091151113564","COUNTY","5020  GARDEN GROVE LN","CNTY"
,"INSPECTION","Cincinnati Fire Dept","FI22000418","CFDSPEC","CFD Annual Inspections and SRs","ANNUAL-C","ANNUAL COMMERCIAL-NO LICENSE","2022-06-28T00:00:00.000","CLOSE-NO","OPEN","CINC","1378581","400921","http://cagismaps.hamilton-co.org/PropertyActivity/CagisReport?APD=FI22000418","2022-07-20T00:00:00.000","N","39.0821379870228","-84.578360910524","RIVERSIDE","3335  SOUTHSIDE AV","CITY"
,"INSPECTION","Hamilton County Soil and Water","HSWI220195","HSWINSP","Earthwork Pmt Inspection","CNEW","Commercial New Building","2022-06-28T00:00:00.000","ACTIVE","OPEN","DELH","1369835","409681","http://cagismaps.hamilton-co.org/PropertyActivity/CagisReport?APD=HSWI220195","2022-06-28T00:00:00.000","N","39.1056266905874","-84.6098840695986","COUNTY","5051  GARDEN GROVE LN","CNTY"
,"INSPECTION","Cincinnati Fire Dept","FI22000411","CFDSPEC","CFD Annual Inspections and SRs","ANNUAL-C","ANNUAL COMMERCIAL-NO LICENSE","2022-06-28T00:00:00.000","CLOSE-NO","OPEN","CINC","1432920","403671","http://cagismaps.hamilton-co.org/PropertyActivity/CagisReport?APD=FI22000411","2022-07-20T00:00:00.000","N","39.0929625696137","-84.3871786072441","MT. WASHINGTON","2111  BEECHMONT AV","CITY"
,"INSPECTION","Cincinnati Fire Dept","FI22000417","CFDSPEC","CFD Annual Inspections and SRs","ANNUAL-C","ANNUAL COMMERCIAL-NO LICENSE","2022-06-28T00:00:00.000","ORDERS1","OPEN","CINC","1411330","435275","http://cagismaps.hamilton-co.org/PropertyActivity/CagisReport?APD=FI22000417","2022-07-20T00:00:00.000","N","39.178451938716","-84.465653724653","BOND HILL","1702  BELLA VISTA ST","CITY"
,"INSPECTION","Cincinnati Fire Dept","FI22000415","CFDSPEC","CFD Annual Inspections and SRs","ANNUAL-C","ANNUAL COMMERCIAL-NO LICENSE","2022-06-28T00:00:00.000","ORDERS1","OPEN","CINC","1403973","422944","http://cagismaps.hamilton-co.org/PropertyActivity/CagisReport?APD=FI22000415","2022-07-20T00:00:00.000","N","39.1441610037894","-84.4906414317178","AVONDALE","3494  READING RD","CITY"
,"INSPECTION","Hamilton County Soil and Water","HSWI220194","HSWINSP","Earthwork Pmt Inspection","CNEW","Commercial New Building","2022-06-28T00:00:00.000","ACTIVE","OPEN","DELH","1369828","409542","http://cagismaps.hamilton-co.org/PropertyActivity/CagisReport?APD=HSWI220194","2022-06-28T00:00:00.000","N","39.1052446985184","-84.6098972863421","COUNTY","5041  GARDEN GROVE LN","CNTY"
,"INSPECTION","Cincinnati Fire Dept","FI22000414","CFDSPEC","CFD Annual Inspections and SRs","ANNUAL-C","ANNUAL COMMERCIAL-NO LICENSE","2022-06-28T00:00:00.000","CLOSE-NO","OPEN","CINC","1404398","423833","http://cagismaps.hamilton-co.org/PropertyActivity/CagisReport?APD=FI22000414","2022-07-20T00:00:00.000","N","39.1466270087813","-84.489212324369","AVONDALE","3566  READING RD","CITY"
,"INSPECTION","Cincinnati Fire Dept","FI22000410","CFDSPEC","CFD Annual Inspections and SRs","6MONTH","6 MONTH ON-GOING INSPECTION","2022-06-27T00:00:00.000","CLOSE-NO","OPEN","CINC","1431799","427888","http://cagismaps.hamilton-co.org/PropertyActivity/CagisReport?APD=FI22000410","2022-07-20T00:00:00.000","N","39.1593751623083","-84.3929159688944","MADISONVILLE","4830  WHETSEL AV","CITY"
,"INSPECTION","Cincinnati Buildings and Inspections","CRI2200043","CBHRRI","Residential Rental Program - Inspections","520","02- Dwelling Units","2022-06-27T00:00:00.000","VOID","OPEN","CINC","1379852","410620","http://cagismaps.hamilton-co.org/PropertyActivity/CagisReport?APD=CRI2200043","2022-07-20T00:00:00.000","Y","39.1088413924168","-84.5746695550293","EAST PRICE HILL","3746  WIEMAN AV","CITY"
,"INSPECTION","Cincinnati Buildings and Inspections","BF22000374","CBHFACFE","Building Facade and Fire Escape Inspections","FIRE_ESC","FIRE ESCAPE CERTIFICATION","2022-06-27T00:00:00.000","REPORT","OPEN","CINC","1379800","412689","http://cagismaps.hamilton-co.org/PropertyActivity/CagisReport?APD=BF22000374","2022-08-01T00:00:00.000","N","39.1145173841799","-84.575020304859","EAST PRICE HILL","1216  QUEBEC RD","CITY"
,"INSPECTION","Cincinnati Fire Dept","FI22000408","CFDSPEC","CFD Annual Inspections and SRs","ANNUAL-C","ANNUAL COMMERCIAL-NO LICENSE","2022-06-27T00:00:00.000","NEW","OPEN","CINC","1420620","425206","http://cagismaps.hamilton-co.org/PropertyActivity/CagisReport?APD=FI22000408","2022-07-20T00:00:00.000","N","39.1513629350916","-84.4321294252109","OAKLEY","3924  ISABELLA AV","CITY"
,"INSPECTION","Hamilton County Soil and Water","HSWC220015","HSWCODE","Earthwork Investigation","STORMWTI","Stormwater drainage, inquiry","2022-06-27T00:00:00.000","CLOSED-I","CLOS","ADDY","1345033","419736","http://cagismaps.hamilton-co.org/PropertyActivity/CagisReport?APD=HSWC220015","2022-06-27T00:00:00.000","N","39.1316021611824","-84.6981227770777","COUNTY","5  SOUTH RD","CNTY"
,"INSPECTION","Cincinnati Buildings and Inspections","CRI2200042","CBHRRI","Residential Rental Program - Inspections","520","02- Dwelling Units","2022-06-27T00:00:00.000","VOID","OPEN","CINC","1379852","410620","http://cagismaps.hamilton-co.org/PropertyActivity/CagisReport?APD=CRI2200042","2022-07-20T00:00:00.000","Y","39.1088413924168","-84.5746695550293","EAST PRICE HILL","3746  WIEMAN AV","CITY"
,"INSPECTION","Cincinnati Fire Dept","FI22000409","CFDSPEC","CFD Annual Inspections and SRs","ANNUAL-C","ANNUAL COMMERCIAL-NO LICENSE","2022-06-27T00:00:00.000","NEW","OPEN","CINC","1422766","427212","http://cagismaps.hamilton-co.org/PropertyActivity/CagisReport?APD=FI22000409","2022-07-20T00:00:00.000","N","39.1569952778152","-84.4247144992546","OAKLEY","4502  MARBURG AV","CITY"
,"INSPECTION","Cincinnati Fire Dept","FI22000406","CFDSPEC","CFD Annual Inspections and SRs","ANNUAL-C","ANNUAL COMMERCIAL-NO LICENSE","2022-06-25T00:00:00.000","CLOSE-NO","OPEN","CINC","1359435","404902","http://cagismaps.hamilton-co.org/PropertyActivity/CagisReport?APD=FI22000406","2022-07-20T00:00:00.000","N","39.0918359296708","-84.6461230331673","RIVERSIDE","5204  RIVER RD","CITY"
,"INSPECTION","Cincinnati Fire Dept","FI22000407","CFDSPEC","CFD Annual Inspections and SRs","ANNUAL-C","ANNUAL COMMERCIAL-NO LICENSE","2022-06-25T00:00:00.000","CLOSE-NO","OPEN","CINC","1365963","399632","http://cagismaps.hamilton-co.org/PropertyActivity/CagisReport?APD=FI22000407","2022-07-20T00:00:00.000","N","39.077793936655","-84.6226928149537","RIVERSIDE","4332  RIVER RD","CITY"
,"INSPECTION","Cincinnati Buildings and Inspections","B202203494","CBHDNS","Dept. of Community Dev.- Survey Inspection","CRATAXIN","CRA Tax Abatement Inspection","2022-06-24T00:00:00.000","RPT NREC","CLOS","CINC","1430276","425179","http://cagismaps.hamilton-co.org/PropertyActivity/CagisReport?APD=B202203494","2022-08-10T00:00:00.000","N","39.1518510641057","-84.3980851202621","MADISONVILLE","5663  BRAMBLE AV","CITY"
,"INSPECTION","Cincinnati Buildings and Inspections","B202203503","CBHDNS","Dept. of Community Dev.- Survey Inspection","CRATAXIN","CRA Tax Abatement Inspection","2022-06-24T00:00:00.000","RPT NREC","CLOS","CINC","1427010","428504","http://cagismaps.hamilton-co.org/PropertyActivity/CagisReport?APD=B202203503","2022-08-10T00:00:00.000","N","39.1607892537231","-84.4098474480654","MADISONVILLE","4960  CHARLEMAR DR","CITY"
,"INSPECTION","Cincinnati Fire Dept","FI22000405","CFDSPEC","CFD Annual Inspections and SRs","ANNUAL-C","ANNUAL COMMERCIAL-NO LICENSE","2022-06-24T00:00:00.000","ORDERS1","OPEN","CINC","1392561","418624","http://cagismaps.hamilton-co.org/PropertyActivity/CagisReport?APD=FI22000405","2022-07-20T00:00:00.000","N","39.1316051014922","-84.5305266306294","CUF","2740  HALLMAR AV","CITY"
,"INSPECTION","Cincinnati Buildings and Inspections","B202203506","CBHDNS","Dept. of Community Dev.- Survey Inspection","CRATAXIN","CRA Tax Abatement Inspection","2022-06-24T00:00:00.000","RPT NREC","CLOS","CINC","1411483","420035","http://cagismaps.hamilton-co.org/PropertyActivity/CagisReport?APD=B202203506","2022-08-17T00:00:00.000","N","39.1366272985164","-84.4639449273785","EVANSTON","2037  HEWITT AV","CITY"
,"INSPECTION","Cincinnati Buildings and Inspections","B202203500","CBHDNS","Dept. of Community Dev.- Survey Inspection","CRATAXIN","CRA Tax Abatement Inspection","2022-06-24T00:00:00.000","RPT NREC","CLOS","CINC","1390464","442989","http://cagismaps.hamilton-co.org/PropertyActivity/CagisReport?APD=B202203500","2022-07-20T00:00:00.000","N","39.1983560277979","-84.5398574940532","COLLEGE HILL","1192  CEDAR AV","CITY"
,"INSPECTION","Hamilton County Soil and Water","HSWI220188","HSWINSP","Earthwork Pmt Inspection","RNEW","Residential New Building","2022-06-24T00:00:00.000","ACTIVE","OPEN","ANDE","1445793","386754","http://cagismaps.hamilton-co.org/PropertyActivity/CagisReport?APD=HSWI220188","2022-06-24T00:00:00.000","N","39.0472534871086","-84.3406169242792","COUNTY","256  COLDSTREAM CLUB DR","CNTY"
,"INSPECTION","Cincinnati Buildings and Inspections","B202203507","CBHDNS","Dept. of Community Dev.- Survey Inspection","CRATAXIN","CRA Tax Abatement Inspection","2022-06-24T00:00:00.000","RPT NREC","CLOS","CINC","1400410","423132","http://cagismaps.hamilton-co.org/PropertyActivity/CagisReport?APD=B202203507","2022-07-20T00:00:00.000","N","39.1444607329991","-84.5032159179957","AVONDALE","3457  WILSON AV","CITY"
,"INSPECTION","Hamilton County Soil and Water","HSWI220186","HSWINSP","Earthwork Pmt Inspection","RNEW","Residential New Building","2022-06-24T00:00:00.000","ACTIVE","OPEN","MIAM","1343989","423372","http://cagismaps.hamilton-co.org/PropertyActivity/CagisReport?APD=HSWI220186","2022-07-17T00:00:00.000","N","39.1415125627261","-84.7021146550554","COUNTY","2814  BUCKRIDGE DR","CNTY"
,"INSPECTION","Cincinnati Buildings and Inspections","B202203504","CBHDNS","Dept. of Community Dev.- Survey Inspection","CRATAXIN","CRA Tax Abatement Inspection","2022-06-24T00:00:00.000","RPT NREC","CLOS","CINC","1402394","428434","http://cagismaps.hamilton-co.org/PropertyActivity/CagisReport?APD=B202203504","2022-07-20T00:00:00.000","N","39.1591352392714","-84.4966354953407","NORTH AVONDALE - PADDOCK HILLS","3956  GLENCROSS AV","CITY"
,"INSPECTION","Cincinnati Buildings and Inspections","B202203498","CBHDNS","Dept. of Community Dev.- Survey Inspection","CRATAXIN","CRA Tax Abatement Inspection","2022-06-24T00:00:00.000","RPT NREC","CLOS","CINC","1395543","411089","http://cagismaps.hamilton-co.org/PropertyActivity/CagisReport?APD=B202203498","2022-08-10T00:00:00.000","N","39.1111053617413","-84.5194228186528","OVER-THE-RHINE","213 W 15TH ST","CITY"
,"INSPECTION","Hamilton County Soil and Water","HSWI220191","HSWINSP","Earthwork Pmt Inspection","RNEW","Residential New Building","2022-06-24T00:00:00.000","ACTIVE","OPEN","COLE","1347570","452623","http://cagismaps.hamilton-co.org/PropertyActivity/CagisReport?APD=HSWI220191","2022-06-24T00:00:00.000","N","39.2220407509731","-84.6919958340807","COUNTY","7339  HUNTERS RIDGE LN","CNTY"
,"INSPECTION","Hamilton County Soil and Water","HSWI220187","HSWINSP","Earthwork Pmt Inspection","RNEW","Residential New Building","2022-06-24T00:00:00.000","ACTIVE","OPEN","GREE","1355310","416780","http://cagismaps.hamilton-co.org/PropertyActivity/CagisReport?APD=HSWI220187","2022-06-24T00:00:00.000","N","39.1241694899924","-84.6616542493824","COUNTY","1783  BALLYMORE LN","CNTY"
,"INSPECTION","Cincinnati Buildings and Inspections","B202203499","CBHDNS","Dept. of Community Dev.- Survey Inspection","CRATAXIN","CRA Tax Abatement Inspection","2022-06-24T00:00:00.000","RPT NREC","CLOS","CINC","1396950","409143","http://cagismaps.hamilton-co.org/PropertyActivity/CagisReport?APD=B202203499","2022-08-17T00:00:00.000","N","39.1058499166708","-84.5143124290593","DOWNTOWN","915  VINE ST","CITY"
,"INSPECTION","Cincinnati Buildings and Inspections","B202203509","CBHDNS","Dept. of Community Dev.- Survey Inspection","CRATAXIN","CRA Tax Abatement Inspection","2022-06-24T00:00:00.000","RPT NREC","CLOS","CINC","1397924","412541","http://cagismaps.hamilton-co.org/PropertyActivity/CagisReport?APD=B202203509","2022-07-20T00:00:00.000","N","39.1152369592301","-84.5111475788024","MT. AUBURN","320  MULBERRY ST","CITY"
,"INSPECTION","Cincinnati Buildings and Inspections","B202203497","CBHDNS","Dept. of Community Dev.- Survey Inspection","CRATAXIN","CRA Tax Abatement Inspection","2022-06-24T00:00:00.000","RPT NREC","CLOS","CINC","1395543","411089","http://cagismaps.hamilton-co.org/PropertyActivity/CagisReport?APD=B202203497","2022-08-10T00:00:00.000","N","39.1111053617413","-84.5194228186528","OVER-THE-RHINE","213 W 15TH ST","CITY"
,"INSPECTION","Cincinnati Buildings and Inspections","B202203495","CBHDNS","Dept. of Community Dev.- Survey Inspection","CRATAXIN","CRA Tax Abatement Inspection","2022-06-24T00:00:00.000","RPT NREC","CLOS","CINC","1415115","423244","http://cagismaps.hamilton-co.org/PropertyActivity/CagisReport?APD=B202203495","2022-07-20T00:00:00.000","N","39.1456522111196","-84.4513875980512","HYDE PARK","2509  DOWNING DR","CITY"
,"INSPECTION","Hamilton County Soil and Water","HSWI220190","HSWINSP","Earthwork Pmt Inspection","RNEW","Residential New Building","2022-06-24T00:00:00.000","ACTIVE","OPEN","COLE","1347740","452835","http://cagismaps.hamilton-co.org/PropertyActivity/CagisReport?APD=HSWI220190","2022-06-24T00:00:00.000","N","39.2226339804947","-84.6914140979446","COUNTY","7358  HUNTERS RIDGE LN","CNTY"
,"INSPECTION","Hamilton County Soil and Water","HSWI220189","HSWINSP","Earthwork Pmt Inspection","RNEW","Residential New Building","2022-06-24T00:00:00.000","ACTIVE","OPEN","MIAM","1343477","422713","http://cagismaps.hamilton-co.org/PropertyActivity/CagisReport?APD=HSWI220189","2022-07-17T00:00:00.000","N","39.1396694224782","-84.7038626201973","COUNTY","2854  BUCKRIDGE DR","CNTY"
,"INSPECTION","Cincinnati Buildings and Inspections","B202203502","CBHDNS","Dept. of Community Dev.- Survey Inspection","CRATAXIN","CRA Tax Abatement Inspection","2022-06-24T00:00:00.000","RPT NREC","CLOS","CINC","1419073","415158","http://cagismaps.hamilton-co.org/PropertyActivity/CagisReport?APD=B202203502","2022-08-12T00:00:00.000","N","39.1236899437776","-84.4368234006979","HYDE PARK","2950  LOWER GRANDIN RD","CITY"
,"INSPECTION","Cincinnati Fire Dept","FI22000403","CFDSPEC","CFD Annual Inspections and SRs","ANNUAL-C","ANNUAL COMMERCIAL-NO LICENSE","2022-06-24T00:00:00.000","CLOSE-NO","OPEN","CINC","1428537","427113","http://cagismaps.hamilton-co.org/PropertyActivity/CagisReport?APD=FI22000403","2022-07-20T00:00:00.000","N","39.1570594500141","-84.4043598313093","MADISONVILLE","4625  RED BANK EXWY","CITY"
,"INSPECTION","Cincinnati Fire Dept","FI22000401","CFDSPEC","CFD Annual Inspections and SRs","ANNUAL-C","ANNUAL COMMERCIAL-NO LICENSE","2022-06-24T00:00:00.000","NEW","OPEN","CINC","1395630","441213","http://cagismaps.hamilton-co.org/PropertyActivity/CagisReport?APD=FI22000401","2022-07-20T00:00:00.000","N","39.1937999599138","-84.5214927952416","WINTON HILLS","5720  WINTON RD","CITY"
,"INSPECTION","Cincinnati Buildings and Inspections","B202203496","CBHDNS","Dept. of Community Dev.- Survey Inspection","CRATAXIN","CRA Tax Abatement Inspection","2022-06-24T00:00:00.000","RPT NREC","CLOS","CINC","1426527","396184","http://cagismaps.hamilton-co.org/PropertyActivity/CagisReport?APD=B202203496","2022-08-12T00:00:00.000","N","39.0720413411292","-84.4091407247036","CALIFORNIA","535  FAIRWAY LN","CITY"
,"INSPECTION","Cincinnati Buildings and Inspections","B202203508","CBHDNS","Dept. of Community Dev.- Survey Inspection","CRATAXIN","CRA Tax Abatement Inspection","2022-06-24T00:00:00.000","RPT NREC","CLOS","CINC","1418104","419413","http://cagismaps.hamilton-co.org/PropertyActivity/CagisReport?APD=B202203508","2022-08-12T00:00:00.000","N","39.1353129016467","-84.4405605411572","HYDE PARK","1282  MORTEN ST","CITY"
,"INSPECTION","Cincinnati Buildings and Inspections","B202203501","CBHDNS","Dept. of Community Dev.- Survey Inspection","CRATAXIN","CRA Tax Abatement Inspection","2022-06-24T00:00:00.000","RPT NREC","CLOS","CINC","1396950","409143","http://cagismaps.hamilton-co.org/PropertyActivity/CagisReport?APD=B202203501","2022-08-17T00:00:00.000","N","39.1058499166708","-84.5143124290593","DOWNTOWN","915  VINE ST","CITY"
,"INSPECTION","Cincinnati Fire Dept","FI22000404","CFDSPEC","CFD Annual Inspections and SRs","ANNUAL-C","ANNUAL COMMERCIAL-NO LICENSE","2022-06-24T00:00:00.000","CLOSE-NO","OPEN","CINC","1389194","408598","http://cagismaps.hamilton-co.org/PropertyActivity/CagisReport?APD=FI22000404","2022-07-20T00:00:00.000","N","39.103875686213","-84.541594210689","QUEENSGATE","1301 W 8TH ST","CITY"
,"INSPECTION","Cincinnati Fire Dept","FI22000402","CFDSPEC","CFD Annual Inspections and SRs","SPECIAL","SPECIAL INSPECTION","2022-06-24T00:00:00.000","ORDERS2","OPEN","CINC","1396006","412520","http://cagismaps.hamilton-co.org/PropertyActivity/CagisReport?APD=FI22000402","2022-07-20T00:00:00.000","N","39.1150618373684","-84.5179041820238","OVER-THE-RHINE","1726  RACE ST","CITY"
,"INSPECTION","Cincinnati Fire Dept","FI22000397","CFDSPEC","CFD Annual Inspections and SRs","ANNUAL-C","ANNUAL COMMERCIAL-NO LICENSE","2022-06-23T00:00:00.000","ORDERS2","OPEN","CINC","1396062","412327","http://cagismaps.hamilton-co.org/PropertyActivity/CagisReport?APD=FI22000397","2022-07-06T00:00:00.000","N","39.1145354929952","-84.5176916633526","OVER-THE-RHINE","1708  RACE ST","CITY"
,"INSPECTION","Cincinnati Fire Dept","FI22000396","CFDSPEC","CFD Annual Inspections and SRs","ANNUAL-C","ANNUAL COMMERCIAL-NO LICENSE","2022-06-23T00:00:00.000","CLOSE-NO","CLOS","CINC","1401640","419292","http://cagismaps.hamilton-co.org/PropertyActivity/CagisReport?APD=FI22000396","2022-06-27T00:00:00.000","N","39.1339948381502","-84.4985804234994","AVONDALE","526  MAXWELL AV","CITY"
,"INSPECTION","Cincinnati Fire Dept","FI22000394","CFDSPEC","CFD Annual Inspections and SRs","ANNUAL-C","ANNUAL COMMERCIAL-NO LICENSE","2022-06-23T00:00:00.000","CLOSE-NO","CLOS","CINC","1401793","419270","http://cagismaps.hamilton-co.org/PropertyActivity/CagisReport?APD=FI22000394","2022-06-27T00:00:00.000","N","39.1339437444585","-84.498039450808","AVONDALE","532  MAXWELL AV","CITY"
,"INSPECTION","Cincinnati Fire Dept","FI22000398","CFDSPEC","CFD Annual Inspections and SRs","ANNUAL-C","ANNUAL COMMERCIAL-NO LICENSE","2022-06-23T00:00:00.000","CLOSE-NO","CLOS","CINC","1401200","419215","http://cagismaps.hamilton-co.org/PropertyActivity/CagisReport?APD=FI22000398","2022-06-27T00:00:00.000","N","39.1337567279647","-84.500125212834","AVONDALE","3007  VERNON PL","CITY"
,"INSPECTION","Cincinnati Fire Dept","FI22000400","CFDSPEC","CFD Annual Inspections and SRs","ANNUAL-C","ANNUAL COMMERCIAL-NO LICENSE","2022-06-23T00:00:00.000","ABAT-OWN","CLOS","CINC","1417660","422982","http://cagismaps.hamilton-co.org/PropertyActivity/CagisReport?APD=FI22000400","2022-07-28T00:00:00.000","N","39.1450836652582","-84.4423961331922","OAKLEY","2701  MADISON RD","CITY"
,"INSPECTION","Cincinnati Fire Dept","FI22000399","CFDSPEC","CFD Annual Inspections and SRs","ANNUAL-C","ANNUAL COMMERCIAL-NO LICENSE","2022-06-23T00:00:00.000","CLOSE-NO","CLOS","CINC","1388310","442852","http://cagismaps.hamilton-co.org/PropertyActivity/CagisReport?APD=FI22000399","2022-06-27T00:00:00.000","N","39.1978461333512","-84.5474452816657","COLLEGE HILL","5825  HAMILTON AV","CITY"
,"INSPECTION","Cincinnati Fire Dept","FI22000392","CFDSPEC","CFD Annual Inspections and SRs","ANNUAL-C","ANNUAL COMMERCIAL-NO LICENSE","2022-06-23T00:00:00.000","CLOSE-NO","CLOS","CINC","1388600","440941","http://cagismaps.hamilton-co.org/PropertyActivity/CagisReport?APD=FI22000392","2022-07-14T00:00:00.000","N","39.1926186152827","-84.5462694478719","COLLEGE HILL","5609  HAMILTON AV","CITY"
,"INSPECTION","Cincinnati Fire Dept","FI22000395","CFDSPEC","CFD Annual Inspections and SRs","ANNUAL-C","ANNUAL COMMERCIAL-NO LICENSE","2022-06-23T00:00:00.000","CLOSE-NO","CLOS","CINC","1401710","419286","http://cagismaps.hamilton-co.org/PropertyActivity/CagisReport?APD=FI22000395","2022-06-27T00:00:00.000","N","39.1339826215951","-84.4983332360776","AVONDALE","528  MAXWELL AV","CITY"
,"INSPECTION","Cincinnati Fire Dept","FI22000393","CFDSPEC","CFD Annual Inspections and SRs","ANNUAL-C","ANNUAL COMMERCIAL-NO LICENSE","2022-06-23T00:00:00.000","CLOSE-NO","CLOS","CINC","1391111","409745","http://cagismaps.hamilton-co.org/PropertyActivity/CagisReport?APD=FI22000393","2022-06-27T00:00:00.000","N","39.107142958216","-84.5349316777567","QUEENSGATE","1190  GEST ST","CITY"
,"INSPECTION","Cincinnati Buildings and Inspections","BF22000373","CBHFACFE","Building Facade and Fire Escape Inspections","FIRE_ESC","FIRE ESCAPE CERTIFICATION","2022-06-22T00:00:00.000","ORDERS","OPEN","CINC","1406186","424824","http://cagismaps.hamilton-co.org/PropertyActivity/CagisReport?APD=BF22000373","2022-06-22T00:00:00.000","N","39.1494552606248","-84.4829859990513","AVONDALE","985  BURTON AV","CITY"
,"INSPECTION","Cincinnati Fire Dept","FI22000391","CFDSPEC","CFD Annual Inspections and SRs","SPECIAL","SPECIAL INSPECTION","2022-06-22T00:00:00.000","NEW","OPEN","CINC","1412980","439439","http://cagismaps.hamilton-co.org/PropertyActivity/CagisReport?APD=FI22000391","2022-06-22T00:00:00.000","N","39.1899805580696","-84.4601533211496","ROSELAWN","1838 E SEYMOUR AV","CITY"
,"INSPECTION","Hamilton County Soil and Water","HSWI220184","HSWINSP","Earthwork Pmt Inspection","RNEW","Residential New Building","2022-06-22T00:00:00.000","ACTIVE","OPEN","COLE","1361999","476105","http://cagismaps.hamilton-co.org/PropertyActivity/CagisReport?APD=HSWI220184","2022-06-22T00:00:00.000","N","39.287445626112","-84.64304517439","COUNTY","11279  GOSLING RD","CNTY"
,"INSPECTION","Cincinnati Fire Dept","FI22000390","CFDSPEC","CFD Annual Inspections and SRs","ANNUAL-C","ANNUAL COMMERCIAL-NO LICENSE","2022-06-22T00:00:00.000","ORDERS1","OPEN","CINC","1431319","428497","http://cagismaps.hamilton-co.org/PropertyActivity/CagisReport?APD=FI22000390","2022-06-27T00:00:00.000","N","39.1610192563989","-84.3946534683268","MADISONVILLE","5728  MADISON RD","CITY"
,"INSPECTION","Cincinnati Fire Dept","FI22000389","CFDSPEC","CFD Annual Inspections and SRs","ANNUAL-C","ANNUAL COMMERCIAL-NO LICENSE","2022-06-21T00:00:00.000","CLOSE-NO","CLOS","CINC","1421980","423217","http://cagismaps.hamilton-co.org/PropertyActivity/CagisReport?APD=FI22000389","2022-06-27T00:00:00.000","N","39.1459828728898","-84.4271850872434","OAKLEY","3842  PAXTON AV","CITY"
,"INSPECTION","Cincinnati Fire Dept","FI22000388","CFDSPEC","CFD Annual Inspections and SRs","ANNUAL-C","ANNUAL COMMERCIAL-NO LICENSE","2022-06-21T00:00:00.000","CLOSE-NO","CLOS","CINC","1421970","423290","http://cagismaps.hamilton-co.org/PropertyActivity/CagisReport?APD=FI22000388","2022-06-27T00:00:00.000","N","39.1461826743779","-84.4272258325742","OAKLEY","3848  PAXTON AV","CITY"
,"INSPECTION","Inspection Bureau Inc","HIOS220002","HIBISRVO","Electrical Survey (IBI)","CTOTSRVY","COM. TOTAL SURVEY","2022-06-21T00:00:00.000","APPLIED","OPEN","NOR","1412189","426550","http://cagismaps.hamilton-co.org/PropertyActivity/CagisReport?APD=HIOS220002","2022-06-21T00:00:00.000","N","39.1545531306901","-84.4619554977855","COUNTY","2010  DELAWARE AV","CNTY"
,"INSPECTION","Cincinnati Buildings and Inspections","B202200201","CBHDNS","Dept. of Community Dev.- Survey Inspection","NHSINITL","Home Ownership- INITIAL SURVEY","2022-06-21T00:00:00.000","RPT NREC","CLOS","CINC","1370567","411871","http://cagismaps.hamilton-co.org/PropertyActivity/CagisReport?APD=B202200201","2022-06-27T00:00:00.000","N","39.1116849798472","-84.6074853142168","WEST PRICE HILL","936  SEIBEL LN","CITY"
,"INSPECTION","Cincinnati Fire Dept","FI22000387","CFDSPEC","CFD Annual Inspections and SRs","ANNUAL-C","ANNUAL COMMERCIAL-NO LICENSE","2022-06-20T00:00:00.000","CLOSE-NO","CLOS","CINC","1417770","422992","http://cagismaps.hamilton-co.org/PropertyActivity/CagisReport?APD=FI22000387","2022-06-21T00:00:00.000","N","39.1451176110156","-84.4420091238626","OAKLEY","2709  MADISON RD","CITY"
,"INSPECTION","Cincinnati Fire Dept","FI22000385","CFDSPEC","CFD Annual Inspections and SRs","ANNUAL-C","ANNUAL COMMERCIAL-NO LICENSE","2022-06-20T00:00:00.000","NEW","OPEN","CINC","1396340","426038","http://cagismaps.hamilton-co.org/PropertyActivity/CagisReport?APD=FI22000385","2022-06-20T00:00:00.000","N","39.1521888292377","-84.5177918599122","CLIFTON","3766  CLIFTON AV","CITY"
,"INSPECTION","Cincinnati Fire Dept","FI22000386","CFDSPEC","CFD Annual Inspections and SRs","ANNUAL-C","ANNUAL COMMERCIAL-NO LICENSE","2022-06-20T00:00:00.000","CLOSE-NO","CLOS","CINC","1436242","400035","http://cagismaps.hamilton-co.org/PropertyActivity/CagisReport?APD=FI22000386","2022-06-21T00:00:00.000","N","39.0831715011667","-84.3752105041242","MT. WASHINGTON","6615  BEECHMONT AV","CITY"
"349354","INSPECTION","Hamilton County Public Health","HPSI120028","HHTPOOLI","Swimming Pool SPA INSP","STANDARD","Standard","2012-10-03T00:00:00.000","CLOSE-V","CLOS","GREE","1365680","423558","http://cagismaps.hamilton-co.org/propertyactivity/cagisreport?APD=HPSI120028","2012-10-05T00:00:00.000","N","39.1434501667505","-84.6256733009029","COUNTY","3694  WERK RD","CNTY"
"355491","INSPECTION","Hamilton County Public Health","HPSI120671","HHTPOOLI","Swimming Pool SPA INSP","STANDARD","Standard","2012-10-03T00:00:00.000","ABATE-V","CLOS","GREE","1365680","423558","http://cagismaps.hamilton-co.org/propertyactivity/cagisreport?APD=HPSI120671","2013-01-15T00:00:00.000","N","39.1434501667505","-84.6256733009029","COUNTY","3694  WERK RD","CNTY"
"355490","INSPECTION","Hamilton County Public Health","HPSI120670","HHTPOOLI","Swimming Pool SPA INSP","STANDARD","Standard","2012-10-03T00:00:00.000","ABATE-V","CLOS","GREE","1365680","423558","http://cagismaps.hamilton-co.org/propertyactivity/cagisreport?APD=HPSI120670","2012-12-06T00:00:00.000","N","39.1434501667505","-84.6256733009029","COUNTY","3694  WERK RD","CNTY"
,"INSPECTION","Inspection Bureau Inc","HIOS220003","HIBISRVO","Electrical Survey (IBI)","RTOTSRVY","RES. TOTAL SURVEY","2022-09-09T00:00:00.000","APPLIED","OPEN","NOR","1415588","430362","http://cagismaps.hamilton-co.org/PropertyActivity/CagisReport?APD=HIOS220003","2022-09-09T00:00:00.000","N","39.1652192367453","-84.4502622181477","COUNTY","4923  MARION AV","CNTY"
,"INSPECTION","Hamilton County Soil and Water","HSWI220241","HSWINSP","Earthwork Pmt Inspection","RNEW","Residential New Building","2022-09-09T00:00:00.000","ACTIVE","OPEN","DELH","1358581","414091","http://cagismaps.hamilton-co.org/PropertyActivity/CagisReport?APD=HSWI220241","2022-09-09T00:00:00.000","N","39.1170029120887","-84.6499018399964","COUNTY","6063  GREENSIDE DR","CNTY"
,"INSPECTION","Hamilton County Soil and Water","HSWI220239","HSWINSP","Earthwork Pmt Inspection","RNEW","Residential New Building","2022-09-05T00:00:00.000","ACTIVE","OPEN","COLE","1380810","446625","http://cagismaps.hamilton-co.org/PropertyActivity/CagisReport?APD=HSWI220239","2022-09-05T00:00:00.000","N","39.207732789646","-84.5742087416312","COUNTY","2449  AMELIA CT","CNTY"
,"INSPECTION","Hamilton County Soil and Water","HSWI220236","HSWINSP","Earthwork Pmt Inspection","RNEW","Residential New Building","2022-09-05T00:00:00.000","ACTIVE","OPEN","COLE","1380879","446616","http://cagismaps.hamilton-co.org/PropertyActivity/CagisReport?APD=HSWI220236","2022-09-05T00:00:00.000","N","39.2077124366617","-84.573964566719","COUNTY","2445  AMELIA CT","CNTY"
,"INSPECTION","Hamilton County Soil and Water","HSWC220023","HSWCODE","Earthwork Investigation","EROSIONP","Erosion/Sediment, problem","2022-09-05T00:00:00.000","INTAKE","OPEN","GREE","1354352","438241","http://cagismaps.hamilton-co.org/PropertyActivity/CagisReport?APD=HSWC220023","2022-09-05T00:00:00.000","N","39.1830139167061","-84.6668452860463","COUNTY","5091  RYBOLT RD","CNTY"
,"INSPECTION","Hamilton County Soil and Water","HSWC220022","HSWCODE","Earthwork Investigation","EROSIONP","Erosion/Sediment, problem","2022-09-05T00:00:00.000","CLOSED-I","CLOS","SYCM","1444820","475902","http://cagismaps.hamilton-co.org/PropertyActivity/CagisReport?APD=HSWC220022","2022-09-06T00:00:00.000","N","39.2919163631992","-84.3504744407118","COUNTY","12180  3RD AV","CNTY"
,"INSPECTION","Hamilton County Soil and Water","HSWI220237","HSWINSP","Earthwork Pmt Inspection","RNEW","Residential New Building","2022-09-05T00:00:00.000","ACTIVE","OPEN","COLE","1380940","446609","http://cagismaps.hamilton-co.org/PropertyActivity/CagisReport?APD=HSWI220237","2022-09-05T00:00:00.000","N","39.2076970685577","-84.5737487806002","COUNTY","2441  AMELIA CT","CNTY"
,"INSPECTION","Hamilton County Soil and Water","HSWI220238","HSWINSP","Earthwork Pmt Inspection","RNEW","Residential New Building","2022-09-05T00:00:00.000","ACTIVE","OPEN","COLE","1380871","446778","http://cagismaps.hamilton-co.org/PropertyActivity/CagisReport?APD=HSWI220238","2022-09-05T00:00:00.000","N","39.2081566075012","-84.5740059224493","COUNTY","2448  AMELIA CT","CNTY"
,"INSPECTION","Hamilton County Soil and Water","HSWI220235","HSWINSP","Earthwork Pmt Inspection","RNEW","Residential New Building","2022-09-02T00:00:00.000","ACTIVE","OPEN","MIAM","1343320","422837","http://cagismaps.hamilton-co.org/PropertyActivity/CagisReport?APD=HSWI220235","2022-09-02T00:00:00.000","N","39.139999261132","-84.7044266621772","COUNTY","3061  BARNBOUGLE DR","CNTY"
,"INSPECTION","Inspection Bureau Inc","HIHS220003","HIBISRVH","Electrical Survey (IBI)","RTOTSRVY","RES. TOTAL SURVEY","2022-09-02T00:00:00.000","APPLIED","OPEN","SPRF","1383380","446399","http://cagismaps.hamilton-co.org/PropertyActivity/CagisReport?APD=HIHS220003","2022-09-02T00:00:00.000","N","39.2072741585215","-84.5651230451384","COUNTY","2232  LINCOLN AV","CNTY"
,"INSPECTION","Hamilton County Soil and Water","HSWI220138","HSWINSP","Earthwork Pmt Inspection","CNEW","Commercial New Building","2022-09-01T00:00:00.000","PENDING","OPEN","COLE","1375400","462090","http://cagismaps.hamilton-co.org/PropertyActivity/CagisReport?APD=HSWI220138","2022-09-01T00:00:00.000","N","39.2498397411493","-84.5945620033705","COUNTY","3545  SPRINGDALE RD","CNTY"
,"INSPECTION","Hamilton County Soil and Water","HSWI220234","HSWINSP","Earthwork Pmt Inspection","RNEW","Residential New Building","2022-09-01T00:00:00.000","ACTIVE","OPEN","MIAM","1345186","437537","http://cagismaps.hamilton-co.org/PropertyActivity/CagisReport?APD=HSWI220234","2022-09-01T00:00:00.000","N","39.1804732004828","-84.6991117192249","COUNTY","7723  ZION HILL RD","CNTY"
,"INSPECTION","Hamilton County Soil and Water","HSWC220021","HSWCODE","Earthwork Investigation","EROSIONP","Erosion/Sediment, problem","2022-08-31T00:00:00.000","CLOSED-P","CLOS","DELH","1356643","415452","http://cagismaps.hamilton-co.org/PropertyActivity/CagisReport?APD=HSWC220021","2022-09-01T00:00:00.000","N","39.1206118090194","-84.6568450654112","COUNTY","1251  HEATHER RDG","CNTY"
,"INSPECTION","Hamilton County Soil and Water","HSWC220070","HSWCODE","Earthwork Investigation","EROSIONP","Erosion/Sediment, problem","2022-08-30T00:00:00.000","CMPLTR","OPEN","COLE","1362491","454320","http://cagismaps.hamilton-co.org/PropertyActivity/CagisReport?APD=HSWC220070","2022-08-30T00:00:00.000","N","39.227681227528","-84.6394838580498","COUNTY","5968  SPRINGDALE RD","CNTY"
,"INSPECTION","Hamilton County Soil and Water","HSWC220069","HSWCODE","Earthwork Investigation","EROSIONP","Erosion/Sediment, problem","2022-08-30T00:00:00.000","CMPLTR","OPEN","WHIT","1331283","455319","http://cagismaps.hamilton-co.org/PropertyActivity/CagisReport?APD=HSWC220069","2022-08-30T00:00:00.000","N","39.2283410078917","-84.7497054918139","COUNTY","9221  HARRISON RD","CNTY"
,"INSPECTION","Hamilton County Soil and Water","HSWC220071","HSWCODE","Earthwork Investigation","EROSIONP","Erosion/Sediment, problem","2022-08-30T00:00:00.000","CMPLTR","OPEN","COLE","1362235","454250","http://cagismaps.hamilton-co.org/PropertyActivity/CagisReport?APD=HSWC220071","2022-08-30T00:00:00.000","N","39.2274724322814","-84.6403814582848","COUNTY","5990  SPRINGDALE RD","CNTY"
,"INSPECTION","Hamilton County Soil and Water","HSWC220072","HSWCODE","Earthwork Investigation","EROSIONP","Erosion/Sediment, problem","2022-08-30T00:00:00.000","CMPLTR","OPEN","COLE","1361170","454894","http://cagismaps.hamilton-co.org/PropertyActivity/CagisReport?APD=HSWC220072","2022-08-30T00:00:00.000","N","39.2291707507266","-84.6441939413434","COUNTY","6060  THOMPSON RD","CNTY"
,"INSPECTION","Hamilton County Soil and Water","HSWC220073","HSWCODE","Earthwork Investigation","EROSIONP","Erosion/Sediment, problem","2022-08-30T00:00:00.000","CMPLTR","OPEN","MIAM","1345064","432041","http://cagismaps.hamilton-co.org/PropertyActivity/CagisReport?APD=HSWC220073","2022-08-30T00:00:00.000","N","39.1653794572365","-84.6990698447511","COUNTY","7600  BRIDGETOWN RD","CNTY"
,"INSPECTION","Cincinnati Buildings and Inspections","CRI2200044","CBHRRI","Residential Rental Program - Inspections","520","02- Dwelling Units","2022-08-29T00:00:00.000","INTLINSP","OPEN","CINC","1404081","421891","http://cagismaps.hamilton-co.org/PropertyActivity/CagisReport?APD=CRI2200044","2022-08-30T00:00:00.000","Y","39.1412770690013","-84.4901789009626","AVONDALE","856  BLAIR AV","CITY"
,"INSPECTION","Hamilton County Soil and Water","HSWI210197","HSWINSP","Earthwork Pmt Inspection","SUBD","Subdivision","2022-08-25T00:00:00.000","ACTIVE","OPEN","ANDE","1430830","391996","http://cagismaps.hamilton-co.org/PropertyActivity/CagisReport?APD=HSWI210197","2022-08-25T00:00:00.000","N","39.0607937823025","-84.3936782086511","COUNTY","660  FOUR MILE RD","CNTY"
,"INSPECTION","Hamilton County Soil and Water","HSWI220229","HSWINSP","Earthwork Pmt Inspection","CNEW","Commercial New Building","2022-08-25T00:00:00.000","ACTIVE","OPEN","NEWT","1441068","415809","http://cagismaps.hamilton-co.org/PropertyActivity/CagisReport?APD=HSWI220229","2022-08-25T00:00:00.000","N","39.1267463109509","-84.3593569132655","COUNTY","3616  CHURCH ST","CNTY"
,"INSPECTION","Hamilton County Soil and Water","HSWI220228","HSWINSP","Earthwork Pmt Inspection","RNEW","Residential New Building","2022-08-24T00:00:00.000","ACTIVE","OPEN","MIAM","1336830","433849","http://cagismaps.hamilton-co.org/PropertyActivity/CagisReport?APD=HSWI220228","2022-08-24T00:00:00.000","N","39.1697879193305","-84.7282595820084","COUNTY","4032  BREMEN PASS","CNTY"
,"INSPECTION","Hamilton County Soil and Water","HSWI220227","HSWINSP","Earthwork Pmt Inspection","RNEW","Residential New Building","2022-08-24T00:00:00.000","ACTIVE","OPEN","GREE","1367552","444682","http://cagismaps.hamilton-co.org/PropertyActivity/CagisReport?APD=HSWI220227","2022-08-24T00:00:00.000","N","39.2015539691299","-84.6208238243779","COUNTY","6029  FALCONWAY CT","CNTY"
,"INSPECTION","Hamilton County Soil and Water","HSWI220225","HSWINSP","Earthwork Pmt Inspection","RNEW","Residential New Building","2022-08-22T00:00:00.000","ACTIVE","OPEN","GREE","1367515","444380","http://cagismaps.hamilton-co.org/PropertyActivity/CagisReport?APD=HSWI220225","2022-08-22T00:00:00.000","N","39.200722629899","-84.6209293260824","COUNTY","6024  FALCONWAY CT","CNTY"
,"INSPECTION","Hamilton County Soil and Water","HSWI220214","HSWINSP","Earthwork Pmt Inspection","CNEW","Commercial New Building","2022-08-22T00:00:00.000","ACTIVE","OPEN","CROS","1352380","470405","http://cagismaps.hamilton-co.org/PropertyActivity/CagisReport?APD=HSWI220214","2022-08-22T00:00:00.000","N","39.2711685093657","-84.676535057424","COUNTY","10815  BLUE ROCK RD","CNTY"
,"INSPECTION","Hamilton County Soil and Water","HSWI220105","HSWINSP","Earthwork Pmt Inspection","EXCV","Filling/Grading","2022-08-22T00:00:00.000","ACTIVE","OPEN","CROS","1350576","471766","http://cagismaps.hamilton-co.org/PropertyActivity/CagisReport?APD=HSWI220105","2022-08-22T00:00:00.000","N","39.2747846410393","-84.6830216880897","COUNTY","7238  NEW HAVEN RD","CNTY"
,"INSPECTION","Hamilton County Soil and Water","HSWC220020","HSWCODE","Earthwork Investigation","STORMWTI","Stormwater drainage, inquiry","2022-08-22T00:00:00.000","INTAKE","OPEN","SPRF","1387324","463502","http://cagismaps.hamilton-co.org/PropertyActivity/CagisReport?APD=HSWC220020","2022-08-22T00:00:00.000","N","39.2544672679592","-84.5525797909137","COUNTY","10126  HAMILTON AV","CNTY"
,"INSPECTION","Hamilton County Soil and Water","HSWC220019","HSWCODE","Earthwork Investigation","STORMWTI","Stormwater drainage, inquiry","2022-08-18T00:00:00.000","INTAKE","OPEN","SPRF","1392244","444255","http://cagismaps.hamilton-co.org/PropertyActivity/CagisReport?APD=HSWC220019","2022-08-18T00:00:00.000","N","39.2019413463534","-84.5336787009085","COUNTY","1087 W NORTH BEND RD","CNTY"
,"INSPECTION","Hamilton County Soil and Water","HSWI220224","HSWINSP","Earthwork Pmt Inspection","CNEW","Commercial New Building","2022-08-17T00:00:00.000","PENDING","OPEN","SPRF","1397034","451043","http://cagismaps.hamilton-co.org/PropertyActivity/CagisReport?APD=HSWI220224","2022-08-17T00:00:00.000","N","39.2208689906657","-84.5173149419497","COUNTY","8444  WINTON RD","CNTY"
,"INSPECTION","Hamilton County Soil and Water","HSWI220223","HSWINSP","Earthwork Pmt Inspection","RNEW","Residential New Building","2022-08-12T00:00:00.000","ACTIVE","OPEN","GREE","1355691","416529","http://cagismaps.hamilton-co.org/PropertyActivity/CagisReport?APD=HSWI220223","2022-08-12T00:00:00.000","N","39.1235055600393","-84.6602904733563","COUNTY","1790  BALLYMORE LN","CNTY"
,"INSPECTION","Hamilton County Soil and Water","HSWI220049","HSWINSP","Earthwork Pmt Inspection","CNEW","Commercial New Building","2022-08-05T00:00:00.000","ACTIVE","OPEN","WHIT","1343170","446531","http://cagismaps.hamilton-co.org/PropertyActivity/CagisReport?APD=HSWI220049","2022-08-05T00:00:00.000","N","39.205025087734","-84.7069969431529","COUNTY","8073  FURLONG DR","CNTY"
,"INSPECTION","Hamilton County Soil and Water","HSWI220220","HSWINSP","Earthwork Pmt Inspection","RNEW","Residential New Building","2022-08-04T00:00:00.000","ACTIVE","OPEN","DELH","1352730","411141","http://cagismaps.hamilton-co.org/PropertyActivity/CagisReport?APD=HSWI220220","2022-08-04T00:00:00.000","N","39.1085212675997","-84.6702682359924","COUNTY","6514  CANDLESTICK DR","CNTY"
,"INSPECTION","Hamilton County Soil and Water","HSWI220217","HSWINSP","Earthwork Pmt Inspection","RNEW","Residential New Building","2022-08-01T00:00:00.000","ACTIVE","OPEN","COLE","1376217","462645","http://cagismaps.hamilton-co.org/PropertyActivity/CagisReport?APD=HSWI220217","2022-08-01T00:00:00.000","N","39.2514151436238","-84.5917231562419","COUNTY","9845  DUNLAP DR","CNTY"
,"INSPECTION","Hamilton County Soil and Water","HSWI220219","HSWINSP","Earthwork Pmt Inspection","RNEW","Residential New Building","2022-08-01T00:00:00.000","ACTIVE","OPEN","COLE","1359255","455093","http://cagismaps.hamilton-co.org/PropertyActivity/CagisReport?APD=HSWI220219","2022-08-01T00:00:00.000","N","39.2295919387303","-84.6509690771998","COUNTY","8533  SWEETBAY CIR","CNTY"
,"INSPECTION","Hamilton County Soil and Water","HSWI220218","HSWINSP","Earthwork Pmt Inspection","RNEW","Residential New Building","2022-08-01T00:00:00.000","ACTIVE","OPEN","COLE","1376207","462572","http://cagismaps.hamilton-co.org/PropertyActivity/CagisReport?APD=HSWI220218","2022-08-01T00:00:00.000","N","39.2512141307935","-84.591752488724","COUNTY","9837  DUNLAP DR","CNTY"
,"INSPECTION","Hamilton County Soil and Water","HSWI220215","HSWINSP","Earthwork Pmt Inspection","RNEW","Residential New Building","2022-08-01T00:00:00.000","ACTIVE","OPEN","GREE","1354352","438242","http://cagismaps.hamilton-co.org/PropertyActivity/CagisReport?APD=HSWI220215","2022-08-01T00:00:00.000","N","39.1830166615514","-84.6668453706951","COUNTY","5091  RYBOLT RD","CNTY"
,"INSPECTION","Hamilton County Soil and Water","HSWI220216","HSWINSP","Earthwork Pmt Inspection","RNEW","Residential New Building","2022-08-01T00:00:00.000","ACTIVE","OPEN","COLE","1376226","462722","http://cagismaps.hamilton-co.org/PropertyActivity/CagisReport?APD=HSWI220216","2022-08-01T00:00:00.000","N","39.2516270714717","-84.5916976799485","COUNTY","9859  DUNLAP DR","CNTY"
,"INSPECTION","Hamilton County Soil and Water","HSWI210185","HSWINSP","Earthwork Pmt Inspection","SUBD","Subdivision","2022-08-01T00:00:00.000","ACTIVE","OPEN","COLE","1376360","463009","http://cagismaps.hamilton-co.org/PropertyActivity/CagisReport?APD=HSWI210185","2022-08-01T00:00:00.000","N","39.2524233735378","-84.5912480803023","COUNTY","3423  SPRINGDALE RD","CNTY"
,"INSPECTION","Cincinnati Fire Dept","FI22000479","CFDSPEC","CFD Annual Inspections and SRs","ANNUAL-C","ANNUAL COMMERCIAL-NO LICENSE","2022-07-29T00:00:00.000","CLOSE-NO","CLOS","CINC","1371043","418439","http://cagismaps.hamilton-co.org/PropertyActivity/CagisReport?APD=FI22000479","2022-08-08T00:00:00.000","N","39.1297440484515","-84.6063481116119","WESTWOOD","5440  GLENWAY AV","CITY"
,"INSPECTION","Cincinnati Fire Dept","FI22000480","CFDSPEC","CFD Annual Inspections and SRs","ANNUAL-C","ANNUAL COMMERCIAL-NO LICENSE","2022-07-29T00:00:00.000","CLOSE-NO","CLOS","CINC","1371240","417375","http://cagismaps.hamilton-co.org/PropertyActivity/CagisReport?APD=FI22000480","2022-08-08T00:00:00.000","N","39.1268360784669","-84.6055663820977","WEST PRICE HILL","5341  GLENWAY AV","CITY"
,"INSPECTION","Cincinnati Buildings and Inspections","B202200260","CBHDSS","Relocation Assistance (DSS) Survey Inspection","DSS","Normal Code Unsafe Unsanitary","2022-07-28T00:00:00.000","RPT NREC","CLOS","CINC","1374082","416659","http://cagismaps.hamilton-co.org/PropertyActivity/CagisReport?APD=B202200260","2022-08-30T00:00:00.000","N","39.1250522215605","-84.5954923013441","WEST PRICE HILL","4773  HARDWICK DR","CITY"
,"INSPECTION","Cincinnati Fire Dept","FI22000471","CFDSPEC","CFD Annual Inspections and SRs","ANNUAL-C","ANNUAL COMMERCIAL-NO LICENSE","2022-07-28T00:00:00.000","NEW","OPEN","CINC","1435367","424568","http://cagismaps.hamilton-co.org/PropertyActivity/CagisReport?APD=FI22000471","2022-07-29T00:00:00.000","N","39.1504662487981","-84.3800917036463","MADISONVILLE","4269  PLAINVILLE RD","CITY"
,"INSPECTION","Cincinnati Fire Dept","FI22000477","CFDSPEC","CFD Annual Inspections and SRs","ANNUAL-C","ANNUAL COMMERCIAL-NO LICENSE","2022-07-28T00:00:00.000","CLOSE-NO","OPEN","CINC","1370750","418714","http://cagismaps.hamilton-co.org/PropertyActivity/CagisReport?APD=FI22000477","2022-07-29T00:00:00.000","N","39.1304801299033","-84.6074033378636","WESTWOOD","5476  GLENWAY AV","CITY"
,"INSPECTION","Cincinnati Fire Dept","FI22000474","CFDSPEC","CFD Annual Inspections and SRs","ANNUAL-C","ANNUAL COMMERCIAL-NO LICENSE","2022-07-28T00:00:00.000","NEW","OPEN","CINC","1372007","416066","http://cagismaps.hamilton-co.org/PropertyActivity/CagisReport?APD=FI22000474","2022-07-29T00:00:00.000","N","39.1232920571827","-84.6027559530958","WEST PRICE HILL","5131  GLENWAY AV","CITY"
,"INSPECTION","Cincinnati Fire Dept","FI22000472","CFDSPEC","CFD Annual Inspections and SRs","ANNUAL-C","ANNUAL COMMERCIAL-NO LICENSE","2022-07-28T00:00:00.000","NEW","OPEN","CINC","1372007","416066","http://cagismaps.hamilton-co.org/PropertyActivity/CagisReport?APD=FI22000472","2022-07-29T00:00:00.000","N","39.1232920571827","-84.6027559530958","WEST PRICE HILL","5131  GLENWAY AV","CITY"
,"INSPECTION","Cincinnati Fire Dept","FI22000478","CFDSPEC","CFD Annual Inspections and SRs","6MONTH","6 MONTH ON-GOING INSPECTION","2022-07-28T00:00:00.000","CLOSE-NO","OPEN","CINC","1378172","411963","http://cagismaps.hamilton-co.org/PropertyActivity/CagisReport?APD=FI22000478","2022-07-29T00:00:00.000","N","39.1124217135449","-84.58069761482","WEST PRICE HILL","3900  VINCENT AV","CITY"
,"INSPECTION","Cincinnati Fire Dept","FI22000476","CFDSPEC","CFD Annual Inspections and SRs","ANNUAL-C","ANNUAL COMMERCIAL-NO LICENSE","2022-07-28T00:00:00.000","CLOSE-NO","OPEN","CINC","1372325","417551","http://cagismaps.hamilton-co.org/PropertyActivity/CagisReport?APD=FI22000476","2022-07-29T00:00:00.000","N","39.1273885789924","-84.6017571699794","WEST PRICE HILL","2301  FERGUSON RD","CITY"
,"INSPECTION","Cincinnati Fire Dept","FI22000475","CFDSPEC","CFD Annual Inspections and SRs","ANNUAL-C","ANNUAL COMMERCIAL-NO LICENSE","2022-07-28T00:00:00.000","CLOSE-NO","OPEN","CINC","1370582","417593","http://cagismaps.hamilton-co.org/PropertyActivity/CagisReport?APD=FI22000475","2022-07-29T00:00:00.000","N","39.1273923216491","-84.6079031749261","WEST PRICE HILL","5075  CROOKSHANK RD","CITY"
,"INSPECTION","Cincinnati Fire Dept","FI22000473","CFDSPEC","CFD Annual Inspections and SRs","ANNUAL-C","ANNUAL COMMERCIAL-NO LICENSE","2022-07-28T00:00:00.000","CLOSE-NO","OPEN","CINC","1372007","416066","http://cagismaps.hamilton-co.org/PropertyActivity/CagisReport?APD=FI22000473","2022-07-29T00:00:00.000","N","39.1232920571827","-84.6027559530958","WEST PRICE HILL","5131  GLENWAY AV","CITY"
,"INSPECTION","Cincinnati Buildings and Inspections","B202200259","CBHDSS","Relocation Assistance (DSS) Survey Inspection","DSS","Normal Code Unsafe Unsanitary","2022-07-27T00:00:00.000","INTAKE","OPEN","CINC","1386100","419198","http://cagismaps.hamilton-co.org/PropertyActivity/CagisReport?APD=B202200259","2022-07-29T00:00:00.000","N","39.1327795864705","-84.5533436900659","NORTH FAIRMOUNT","2567  TREVOR PL","CITY"
,"INSPECTION","Cincinnati Fire Dept","FI22000470","CFDSPEC","CFD Annual Inspections and SRs","ANNUAL-C","ANNUAL COMMERCIAL-NO LICENSE","2022-07-27T00:00:00.000","NEW","OPEN","CINC","1386301","408728","http://cagismaps.hamilton-co.org/PropertyActivity/CagisReport?APD=FI22000470","2022-07-29T00:00:00.000","N","39.1040525053644","-84.5517966498872","LOWER PRICE HILL","2121  HATMAKER ST","CITY"
,"INSPECTION","Hamilton County Soil and Water","HSWI220213","HSWINSP","Earthwork Pmt Inspection","RNEW","Residential New Building","2022-07-27T00:00:00.000","ACTIVE","OPEN","ANDE","1444019","403391","http://cagismaps.hamilton-co.org/PropertyActivity/CagisReport?APD=HSWI220213","2022-07-27T00:00:00.000","N","39.0928241952419","-84.3480608317507","COUNTY","2113  CLOUGH CHASE DR","CNTY"
,"INSPECTION","Hamilton County Soil and Water","HSWC220018","HSWCODE","Earthwork Investigation","PONDPROB","Pond, problem","2022-07-27T00:00:00.000","CLOSED-N","CLOS","MIAM","1344854","429058","http://cagismaps.hamilton-co.org/PropertyActivity/CagisReport?APD=HSWC220018","2022-07-28T00:00:00.000","N","39.1571775776751","-84.699554039227","COUNTY","3576  SHADY LN","CNTY"
,"INSPECTION","Cincinnati Fire Dept","FI22000469","CFDSPEC","CFD Annual Inspections and SRs","LIFESFTY","LIFE SFTY INSPECTN-PLACE ASSEM","2022-07-27T00:00:00.000","NEW","OPEN","CINC","1371443","418615","http://cagismaps.hamilton-co.org/PropertyActivity/CagisReport?APD=FI22000469","2022-07-29T00:00:00.000","N","39.1302527604756","-84.6049528758981","WESTWOOD","2390  BOUDINOT AV","CITY"
,"INSPECTION","Cincinnati Buildings and Inspections","B202200202","CBHDNS","Dept. of Community Dev.- Survey Inspection","NHSINITL","Home Ownership- INITIAL SURVEY","2022-07-27T00:00:00.000","INTAKE","OPEN","CINC","1392725","443156","http://cagismaps.hamilton-co.org/PropertyActivity/CagisReport?APD=B202200202","2022-07-29T00:00:00.000","N","39.1989543849548","-84.5318945056351","COLLEGE HILL","6066  CAPRI DR","CITY"
,"INSPECTION","Cincinnati Fire Dept","FI22000467","CFDSPEC","CFD Annual Inspections and SRs","ANNUAL-C","ANNUAL COMMERCIAL-NO LICENSE","2022-07-26T00:00:00.000","NEW","OPEN","CINC","1375871","412365","http://cagismaps.hamilton-co.org/PropertyActivity/CagisReport?APD=FI22000467","2022-07-29T00:00:00.000","N","39.1133793250304","-84.5888377105186","WEST PRICE HILL","4500  GLENWAY AV","CITY"
,"INSPECTION","Cincinnati Fire Dept","FI22000468","CFDSPEC","CFD Annual Inspections and SRs","ANNUAL-C","ANNUAL COMMERCIAL-NO LICENSE","2022-07-26T00:00:00.000","ORDERS1","OPEN","CINC","1410050","431342","http://cagismaps.hamilton-co.org/PropertyActivity/CagisReport?APD=FI22000468","2022-07-29T00:00:00.000","N","39.167579304191","-84.4698653923474","NORTH AVONDALE - PADDOCK HILLS","4544  READING RD","CITY"
,"INSPECTION","Cincinnati Buildings and Inspections","BF22000021","CBHFACFE","Building Facade and Fire Escape Inspections","FIRE_ESC","FIRE ESCAPE CERTIFICATION","2022-07-26T00:00:00.000","ORDERS","OPEN","CINC","1385487","416790","http://cagismaps.hamilton-co.org/PropertyActivity/CagisReport?APD=BF22000021","2022-08-10T00:00:00.000","N","39.1261314687933","-84.5553109666783","SOUTH FAIRMOUNT","1740  QUEEN CITY AV","CITY"
,"INSPECTION","Cincinnati Fire Dept","FI22000466","CFDSPEC","CFD Annual Inspections and SRs","CMPLN_LS","COMPLAINT- LIFE SAFETY ISSUES","2022-07-24T00:00:00.000","NEW","OPEN","CINC","1400530","416143","http://cagismaps.hamilton-co.org/PropertyActivity/CagisReport?APD=FI22000466","2022-07-29T00:00:00.000","N","39.1252833770513","-84.5022465293583","MT. AUBURN","2401  READING RD","CITY"
,"INSPECTION","Cincinnati Buildings and Inspections","B202204367","CBHDNS","Dept. of Community Dev.- Survey Inspection","CRATAXIN","CRA Tax Abatement Inspection","2022-07-22T00:00:00.000","RPT RECM","CLOS","CINC","1418920","421295","http://cagismaps.hamilton-co.org/PropertyActivity/CagisReport?APD=B202204367","2022-08-12T00:00:00.000","N","39.1405271428131","-84.437826788025","HYDE PARK","3544  ST CHARLES PL","CITY"
,"INSPECTION","Cincinnati Fire Dept","FI22000465","CFDSPEC","CFD Annual Inspections and SRs","ANNUAL-C","ANNUAL COMMERCIAL-NO LICENSE","2022-07-22T00:00:00.000","CLOSE-NO","OPEN","CINC","1383033","404155","http://cagismaps.hamilton-co.org/PropertyActivity/CagisReport?APD=FI22000465","2022-07-29T00:00:00.000","N","39.0912954203039","-84.5629416732312","SEDAMSVILLE","2790  RIVER RD","CITY"
,"INSPECTION","Cincinnati Fire Dept","FI22000464","CFDSPEC","CFD Annual Inspections and SRs","6MONTH","6 MONTH ON-GOING INSPECTION","2022-07-22T00:00:00.000","CLOSE-NO","OPEN","CINC","1376685","401442","http://cagismaps.hamilton-co.org/PropertyActivity/CagisReport?APD=FI22000464","2022-07-29T00:00:00.000","N","39.0834480972864","-84.5850807712412","RIVERSIDE","315  LILIENTHAL ST","CITY"
,"INSPECTION","Cincinnati Fire Dept","FI22000463","CFDSPEC","CFD Annual Inspections and SRs","ANNUAL-C","ANNUAL COMMERCIAL-NO LICENSE","2022-07-21T00:00:00.000","CLOSE-NO","OPEN","CINC","1398804","437800","http://cagismaps.hamilton-co.org/PropertyActivity/CagisReport?APD=FI22000463","2022-07-29T00:00:00.000","N","39.1846259527516","-84.5100283330286","WINTON HILLS","5139  HOLLAND DR","CITY"
,"INSPECTION","Cincinnati Buildings and Inspections","BF22000383","CBHFACFE","Building Facade and Fire Escape Inspections","FIRE_ESC","FIRE ESCAPE CERTIFICATION","2022-07-21T00:00:00.000","INTAKE","OPEN","CINC","1405340","416122","http://cagismaps.hamilton-co.org/PropertyActivity/CagisReport?APD=BF22000383","2022-07-29T00:00:00.000","N","39.1255173096339","-84.4852938499052","EAST WALNUT HILLS","1119 E MCMILLAN ST","CITY"
,"INSPECTION","Cincinnati Buildings and Inspections","BF22000384","CBHFACFE","Building Facade and Fire Escape Inspections","FIRE_ESC","FIRE ESCAPE CERTIFICATION","2022-07-21T00:00:00.000","INTAKE","OPEN","CINC","1405340","416122","http://cagismaps.hamilton-co.org/PropertyActivity/CagisReport?APD=BF22000384","2022-07-29T00:00:00.000","N","39.1255173096339","-84.4852938499052","EAST WALNUT HILLS","1119 E MCMILLAN ST","CITY"
,"INSPECTION","Cincinnati Buildings and Inspections","BF22000382","CBHFACFE","Building Facade and Fire Escape Inspections","FIRE_ESC","FIRE ESCAPE CERTIFICATION","2022-07-20T00:00:00.000","REPORT","OPEN","CINC","1344265","415903","http://cagismaps.hamilton-co.org/PropertyActivity/CagisReport?APD=BF22000382","2022-07-29T00:00:00.000","N","39.1210298251537","-84.7005001425793","SAYLER PARK","7102  RIVER RD","CITY"
,"INSPECTION","Cincinnati Fire Dept","FI22000460","CFDSPEC","CFD Annual Inspections and SRs","ANNUAL-C","ANNUAL COMMERCIAL-NO LICENSE","2022-07-20T00:00:00.000","NEW","OPEN","CINC","1381378","440035","http://cagismaps.hamilton-co.org/PropertyActivity/CagisReport?APD=FI22000460","2022-07-20T00:00:00.000","N","39.1896796124923","-84.5716712034233","MT. AIRY","2645 W NORTH BEND RD","CITY"
,"INSPECTION","Hamilton County Soil and Water","HSWC220017","HSWCODE","Earthwork Investigation","STORMWTI","Stormwater drainage, inquiry","2022-07-20T00:00:00.000","INTAKE","OPEN","ANDE","1442556","397824","http://cagismaps.hamilton-co.org/PropertyActivity/CagisReport?APD=HSWC220017","2022-07-20T00:00:00.000","N","39.0774599658411","-84.3528119730043","COUNTY","1396  BLUEORCHARD DR","CNTY"
,"INSPECTION","Cincinnati Fire Dept","FI22000462","CFDSPEC","CFD Annual Inspections and SRs","ANNUAL-C","ANNUAL COMMERCIAL-NO LICENSE","2022-07-20T00:00:00.000","CLOSE-NO","CLOS","CINC","1405000","428662","http://cagismaps.hamilton-co.org/PropertyActivity/CagisReport?APD=FI22000462","2022-07-22T00:00:00.000","N","39.1599189315041","-84.4874648984712","NORTH AVONDALE - PADDOCK HILLS","4165  ROSE HILL AV","CITY"
,"INSPECTION","Cincinnati Fire Dept","FI22000461","CFDSPEC","CFD Annual Inspections and SRs","6MONTH","6 MONTH ON-GOING INSPECTION","2022-07-20T00:00:00.000","ORDERS1","OPEN","CINC","1386074","409258","http://cagismaps.hamilton-co.org/PropertyActivity/CagisReport?APD=FI22000461","2022-07-22T00:00:00.000","N","39.1054931666362","-84.5526388236622","LOWER PRICE HILL","2136 W 8TH ST","CITY"
,"INSPECTION","Cincinnati Fire Dept","FI22000459","CFDSPEC","CFD Annual Inspections and SRs","ANNUAL-C","ANNUAL COMMERCIAL-NO LICENSE","2022-07-20T00:00:00.000","CLOSE-NO","CLOS","CINC","1399359","417134","http://cagismaps.hamilton-co.org/PropertyActivity/CagisReport?APD=FI22000459","2022-07-22T00:00:00.000","N","39.1279322915235","-84.5064508758503","CORRYVILLE","199  WILLIAM H TAFT RD","CITY"
,"INSPECTION","Cincinnati Fire Dept","FI22000458","CFDSPEC","CFD Annual Inspections and SRs","COMPLNT","COMPLAINT INSPECTION","2022-07-18T00:00:00.000","NEW","OPEN","CINC","1409839","439609","http://cagismaps.hamilton-co.org/PropertyActivity/CagisReport?APD=FI22000458","2022-07-20T00:00:00.000","N","39.1902594834465","-84.4712459281561","ROSELAWN","6900  STEGER DR","CITY"
,"INSPECTION","Cincinnati Buildings and Inspections","B202200051","CBHRMHSE","Rooming House Annual Inspection","BB","BED and BREAKFAST HOME","2022-07-18T00:00:00.000","CLOSED","CLOS","CINC","1380259","412438","http://cagismaps.hamilton-co.org/PropertyActivity/CagisReport?APD=B202200051","2022-07-20T00:00:00.000","Y","39.1138573521586","-84.5733827024097","EAST PRICE HILL","3703  GLENWAY AV","CITY"
,"INSPECTION","Cincinnati Buildings and Inspections","B202204366","CBHDNS","Dept. of Community Dev.- Survey Inspection","CRATAXIN","CRA Tax Abatement Inspection","2022-07-18T00:00:00.000","INTAKE","OPEN","CINC","1397922","409000","http://cagismaps.hamilton-co.org/PropertyActivity/CagisReport?APD=B202204366","2022-07-20T00:00:00.000","N","39.1055168623316","-84.5108767235563","DOWNTOWN","825  MAIN ST","CITY"
,"INSPECTION","Cincinnati Fire Dept","FI22000457","CFDSPEC","CFD Annual Inspections and SRs","COMPLNT","COMPLAINT INSPECTION","2022-07-16T00:00:00.000","NEW","OPEN","CINC","1412361","449483","http://cagismaps.hamilton-co.org/PropertyActivity/CagisReport?APD=FI22000457","2022-07-20T00:00:00.000","N","39.2175142873834","-84.4631071388253","HARTWELL","8468  CURZON AV","CITY"
,"INSPECTION","Hamilton County Soil and Water","HSWC220014","HSWCODE","Earthwork Investigation","STORMWTI","Stormwater drainage, inquiry","2022-06-20T00:00:00.000","INTAKE","OPEN","READ","1426542","454185","http://cagismaps.hamilton-co.org/PropertyActivity/CagisReport?APD=HSWC220014","2022-06-20T00:00:00.000","N","39.2312569555548","-84.4134166552073","COUNTY","2581  PETWORTH CT","CNTY"
,"INSPECTION","Cincinnati Buildings and Inspections","BF22000019","CBHFACFE","Building Facade and Fire Escape Inspections","FIRE_ESC","FIRE ESCAPE CERTIFICATION","2022-06-17T00:00:00.000","INTAKE","OPEN","CINC","1380749","412356","http://cagismaps.hamilton-co.org/PropertyActivity/CagisReport?APD=BF22000019","2022-06-19T00:00:00.000","N","39.1136631431466","-84.5716495677801","EAST PRICE HILL","3627  GLENWAY AV","CITY"
,"INSPECTION","Cincinnati Buildings and Inspections","B202200258","CBHDSS","Relocation Assistance (DSS) Survey Inspection","DSS","Normal Code Unsafe Unsanitary","2022-06-17T00:00:00.000","RPT RECM","CLOS","CINC","1385186","410663","http://cagismaps.hamilton-co.org/PropertyActivity/CagisReport?APD=B202200258","2022-06-19T00:00:00.000","N","39.1092943611362","-84.5558800323919","EAST PRICE HILL","2506  WARSAW AV","CITY"
,"INSPECTION","Hamilton County Soil and Water","HSWI220182","HSWINSP","Earthwork Pmt Inspection","RNEW","Residential New Building","2022-06-17T00:00:00.000","ACTIVE","OPEN","COLE","1347580","452781","http://cagismaps.hamilton-co.org/PropertyActivity/CagisReport?APD=HSWI220182","2022-06-17T00:00:00.000","N","39.222475098947","-84.6919740833315","COUNTY","7355  HUNTERS RIDGE LN","CNTY"
,"INSPECTION","Hamilton County Soil and Water","HSWI220181","HSWINSP","Earthwork Pmt Inspection","RNEW","Residential New Building","2022-06-17T00:00:00.000","ACTIVE","OPEN","COLE","1381092","480562","http://cagismaps.hamilton-co.org/PropertyActivity/CagisReport?APD=HSWI220181","2022-06-17T00:00:00.000","N","39.3009039832695","-84.5759670329114","COUNTY","11922  ABBEYTOWN DR","CNTY"
,"INSPECTION","Cincinnati Fire Dept","FI22000383","CFDSPEC","CFD Annual Inspections and SRs","ANNUAL-C","ANNUAL COMMERCIAL-NO LICENSE","2022-06-17T00:00:00.000","CLOSE-NO","CLOS","CINC","1434683","406801","http://cagismaps.hamilton-co.org/PropertyActivity/CagisReport?APD=FI22000383","2022-06-21T00:00:00.000","N","39.1016556263908","-84.3811980057942","MT. WASHINGTON","2497 S COVEYRUN CT","CITY"
,"INSPECTION","Cincinnati Fire Dept","FI22000382","CFDSPEC","CFD Annual Inspections and SRs","ANNUAL-C","ANNUAL COMMERCIAL-NO LICENSE","2022-06-17T00:00:00.000","CLOSE-NO","CLOS","CINC","1390430","408507","http://cagismaps.hamilton-co.org/PropertyActivity/CagisReport?APD=FI22000382","2022-06-21T00:00:00.000","N","39.1037025352682","-84.5372325369189","QUEENSGATE","1221 W 8TH ST","CITY"
,"INSPECTION","Hamilton County Soil and Water","HSWI220179","HSWINSP","Earthwork Pmt Inspection","RNEW","Residential New Building","2022-06-17T00:00:00.000","ACTIVE","OPEN","COLE","1381026","480563","http://cagismaps.hamilton-co.org/PropertyActivity/CagisReport?APD=HSWI220179","2022-06-17T00:00:00.000","N","39.3009025622344","-84.5762002830407","COUNTY","11920  ABBEYTOWN DR","CNTY"
,"INSPECTION","Cincinnati Fire Dept","FI22000381","CFDSPEC","CFD Annual Inspections and SRs","ANNUAL-C","ANNUAL COMMERCIAL-NO LICENSE","2022-06-17T00:00:00.000","NEW","OPEN","CINC","1395630","441213","http://cagismaps.hamilton-co.org/PropertyActivity/CagisReport?APD=FI22000381","2022-06-19T00:00:00.000","N","39.1937999599138","-84.5214927952416","WINTON HILLS","5720  WINTON RD","CITY"
,"INSPECTION","Cincinnati Fire Dept","FI22000384","CFDSPEC","CFD Annual Inspections and SRs","ANNUAL-C","ANNUAL COMMERCIAL-NO LICENSE","2022-06-17T00:00:00.000","CLOSE-NO","CLOS","CINC","1397566","410844","http://cagismaps.hamilton-co.org/PropertyActivity/CagisReport?APD=FI22000384","2022-06-21T00:00:00.000","N","39.1105568330038","-84.5122757521573","OVER-THE-RHINE","1323  MAIN ST","CITY"
,"INSPECTION","Hamilton County Soil and Water","HSWI220180","HSWINSP","Earthwork Pmt Inspection","RNEW","Residential New Building","2022-06-17T00:00:00.000","ACTIVE","OPEN","COLE","1381071","480737","http://cagismaps.hamilton-co.org/PropertyActivity/CagisReport?APD=HSWI220180","2022-06-17T00:00:00.000","N","39.3013830106458","-84.5760554398639","COUNTY","11921  ABBEYTOWN DR","CNTY"
,"INSPECTION","Cincinnati Buildings and Inspections","B202200192","CBHDNS","Dept. of Community Dev.- Survey Inspection","NHSINITL","Home Ownership- INITIAL SURVEY","2022-06-16T00:00:00.000","RPT NREC","CLOS","CINC","1383340","445167","http://cagismaps.hamilton-co.org/PropertyActivity/CagisReport?APD=B202200192","2022-06-30T00:00:00.000","N","39.2038899099572","-84.5651647426609","MT. AIRY","2257  BANNING RD","CITY"
,"INSPECTION","Hamilton County Soil and Water","HSWI220178","HSWINSP","Earthwork Pmt Inspection","RNEW","Residential New Building","2022-06-16T00:00:00.000","ACTIVE","OPEN","COLE","1359637","455385","http://cagismaps.hamilton-co.org/PropertyActivity/CagisReport?APD=HSWI220178","2022-06-16T00:00:00.000","N","39.2304184073962","-84.6496454552566","COUNTY","6936  DAYBREAK DR","CNTY"
,"INSPECTION","Cincinnati Buildings and Inspections","RIU2200039","CBHRRIU","Residential Rental Program - Unit Inspections","UNITINFO","UNIT CONDITIONS INFORMATION","2022-06-15T00:00:00.000","NONCOMP","OPEN","CINC","1381296","412310","http://cagismaps.hamilton-co.org/PropertyActivity/CagisReport?APD=RIU2200039","2022-06-27T00:00:00.000","Y","39.113571313775","-84.5697185137551","EAST PRICE HILL","3529  GLENWAY AV","CITY"
,"INSPECTION","Cincinnati Buildings and Inspections","RIU2200041","CBHRRIU","Residential Rental Program - Unit Inspections","UNITINFO","UNIT CONDITIONS INFORMATION","2022-06-15T00:00:00.000","NONCOMP","OPEN","CINC","1381296","412310","http://cagismaps.hamilton-co.org/PropertyActivity/CagisReport?APD=RIU2200041","2022-06-27T00:00:00.000","Y","39.113571313775","-84.5697185137551","EAST PRICE HILL","3529  GLENWAY AV","CITY"
,"INSPECTION","Cincinnati Buildings and Inspections","RIU2200038","CBHRRIU","Residential Rental Program - Unit Inspections","UNITINFO","UNIT CONDITIONS INFORMATION","2022-06-15T00:00:00.000","NONCOMP","OPEN","CINC","1381296","412310","http://cagismaps.hamilton-co.org/PropertyActivity/CagisReport?APD=RIU2200038","2022-06-27T00:00:00.000","Y","39.113571313775","-84.5697185137551","EAST PRICE HILL","3529  GLENWAY AV","CITY"
,"INSPECTION","Cincinnati Buildings and Inspections","RIU2200040","CBHRRIU","Residential Rental Program - Unit Inspections","UNITINFO","UNIT CONDITIONS INFORMATION","2022-06-15T00:00:00.000","NONCOMP","OPEN","CINC","1381296","412310","http://cagismaps.hamilton-co.org/PropertyActivity/CagisReport?APD=RIU2200040","2022-06-27T00:00:00.000","Y","39.113571313775","-84.5697185137551","EAST PRICE HILL","3529  GLENWAY AV","CITY"
,"INSPECTION","Cincinnati Buildings and Inspections","CRI2200041","CBHRRI","Residential Rental Program - Inspections","403","40 or more Dwelling Units","2022-06-15T00:00:00.000","INTLINSP","OPEN","CINC","1403537","420971","http://cagismaps.hamilton-co.org/PropertyActivity/CagisReport?APD=CRI2200041","2022-06-28T00:00:00.000","Y","39.1387187498149","-84.4920249062232","AVONDALE","759  RIDGEWAY AV","CITY"
,"INSPECTION","Cincinnati Fire Dept","FI22000380","CFDSPEC","CFD Annual Inspections and SRs","ANNUAL-C","ANNUAL COMMERCIAL-NO LICENSE","2022-06-15T00:00:00.000","NEW","OPEN","CINC","1407721","432389","http://cagismaps.hamilton-co.org/PropertyActivity/CagisReport?APD=FI22000380","2022-06-15T00:00:00.000","N","39.1703135256101","-84.4781589310237","BOND HILL","4676  PADDOCK RD","CITY"
,"INSPECTION","Cincinnati Fire Dept","FI22000379","CFDSPEC","CFD Annual Inspections and SRs","ANNUAL-C","ANNUAL COMMERCIAL-NO LICENSE","2022-06-15T00:00:00.000","NCOMMRCL","CLOS","CINC","1391834","441314","http://cagismaps.hamilton-co.org/PropertyActivity/CagisReport?APD=FI22000379","2022-06-27T00:00:00.000","N","39.1938431196986","-84.5348912934799","COLLEGE HILL","5715  PEARTON CT","CITY"
,"INSPECTION","Cincinnati Fire Dept","FI22000377","CFDSPEC","CFD Annual Inspections and SRs","ANNUAL-C","ANNUAL COMMERCIAL-NO LICENSE","2022-06-14T00:00:00.000","CLOSE-NO","CLOS","CINC","1397010","417322","http://cagismaps.hamilton-co.org/PropertyActivity/CagisReport?APD=FI22000377","2022-06-17T00:00:00.000","N","39.128304751372","-84.5147440891955","CUF","200  CALHOUN ST","CITY"
,"INSPECTION","Cincinnati Fire Dept","FI22000375","CFDSPEC","CFD Annual Inspections and SRs","ANNUAL-C","ANNUAL COMMERCIAL-NO LICENSE","2022-06-14T00:00:00.000","CLOSE-NO","CLOS","CINC","1404813","417300","http://cagismaps.hamilton-co.org/PropertyActivity/CagisReport?APD=FI22000375","2022-06-17T00:00:00.000","N","39.128719084891","-84.4872424480024","WALNUT HILLS","2640  KEMPER LN","CITY"
,"INSPECTION","Cincinnati Fire Dept","FI22000376","CFDSPEC","CFD Annual Inspections and SRs","ANNUAL-C","ANNUAL COMMERCIAL-NO LICENSE","2022-06-14T00:00:00.000","ORDERS1","OPEN","CINC","1395669","417287","http://cagismaps.hamilton-co.org/PropertyActivity/CagisReport?APD=FI22000376","2022-06-17T00:00:00.000","N","39.1281264362699","-84.5194673479788","CUF","2507  CLIFTON AV","CITY"
,"INSPECTION","Cincinnati Fire Dept","FI22000378","CFDSPEC","CFD Annual Inspections and SRs","ANNUAL-C","ANNUAL COMMERCIAL-NO LICENSE","2022-06-14T00:00:00.000","ORDERS1","OPEN","CINC","1396160","417336","http://cagismaps.hamilton-co.org/PropertyActivity/CagisReport?APD=FI22000378","2022-06-17T00:00:00.000","N","39.1282910741363","-84.5177408047103","CUF","265  CALHOUN ST","CITY"
