"the_geom","id","stop_id","stop_code","stop_name","stop_lat","stop_lon","zone_id","stop_url","loc_type","wheelchair"
"POINT (149.112478 -35.426308)","0","1493",,"Clift Cr opp Heagney Cr","-35.426308","149.112478",,,"0","0"
"POINT (149.12331 -35.187759)","0","5084",,"Burgmann Anglican School Valley Campus","-35.187759","149.12331",,,"0","0"
"POINT (149.04386399999999 -35.329814)","0","2121",,"Dixon Dr after Hyndes Cr","-35.329814","149.043864",,,"0","0"
"POINT (149.045523 -35.342385)","0","2438",,"Carbeen St before Hindmarsh Dr","-35.342385","149.045523",,,"0","0"
"POINT (149.101939 -35.435978999999996)","0","1080",,"Outtrim Av after Gurr St","-35.435979","149.101939",,,"0","0"
"POINT (149.069041 -35.239982000000005)","0","5517",,"Belconnen Interchange Arrivals","-35.239982","149.069041",,"https://www.transport.act.gov.au/__data/assets/pdf_file/0010/1244197/TC_station_community.pdf","0","0"
"POINT (149.135261 -35.32578)","0","3294",,"Captain Cook Cr before Barrallier St","-35.32578","149.135261",,,"0","0"
"POINT (149.01140800000002 -35.218777)","0","4328",,"Southern Cross Dr opp O'Reilly St","-35.218777","149.011408",,,"0","0"
"POINT (149.087812 -35.34424)","0","2709",,"Woden Interchange Plt 6","-35.34424","149.087812",,"https://www.transport.act.gov.au/__data/assets/pdf_file/0016/1244203/TC_station_woden.pdf","0","0"
"POINT (149.038728 -35.189083000000004)","0","4223",,"Shakespeare Cr before 2nd Dunbar St","-35.189083","149.038728",,,"0","0"
"POINT (149.07343999999998 -35.215084999999995)","0","4130",,"Dumas St before 2nd Vagabond Cr","-35.215085","149.07344",,,"0","0"
"POINT (149.138344 -35.320037)","0","2328",,"Canberra Av after Giles St","-35.320037","149.138344",,,"0","0"
"POINT (149.060075 -35.258956)","0","4638",,"Templeton St opp Ellis St","-35.258956","149.060075",,,"0","0"
"POINT (149.12276200000002 -35.250488)","0","3346",,"Wattle St after Dyson St","-35.250488","149.122762",,,"0","0"
"POINT (149.025002 -35.220281)","0","4397",,"Southern Cross Dr before Dalley Cr","-35.220281","149.025002",,,"0","0"
"POINT (149.01191699999998 -35.222074)","0","4954",,"Beaurepaire Cr after 1st Armstrong Cr","-35.222074","149.011917",,,"0","0"
"POINT (149.111211 -35.22948)","0","4022",,"Maribyrnong Av opp Warrego Cct","-35.22948","149.111211",,,"0","0"
"POINT (149.109038 -35.359443)","0","2105",,"Ngunawal Dr before Kareelah Vsta","-35.359443","149.109038",,,"0","0"
"POINT (149.084212 -35.345915999999995)","0","2679",,"Westfield Woden Corinna St","-35.345916","149.084212",,,"0","0"
"POINT (149.063691 -35.20486)","0","4080",,"Baddeley Cr after Colborne Pl","-35.20486","149.063691",,,"0","0"
"POINT (149.089227 -35.400526)","0","1467",,"Wheeler Cr before Hanna St","-35.400526","149.089227",,,"0","0"
"POINT (149.13061100000002 -35.279067)","0","3420",,"City Interchange Plt 9","-35.279067","149.130611",,,"0","0"
"POINT (149.10755600000002 -35.402691)","0","1167",,"Bugden Av before Sternberg Cr","-35.402691","149.107556",,,"0","0"
"POINT (149.11901699999999 -35.272968)","0","4528",,"ANU Barry Dr","-35.272968","149.119017",,,"0","0"
"POINT (149.124282 -35.241162)","0","3128",,"North Lyneham Shops Cossington Smith Cr","-35.241162","149.124282",,,"0","0"
"POINT (149.113995 -35.266756)","0","3106",,"Miller St after Hobbs St","-35.266756","149.113995",,,"0","0"
"POINT (149.139125 -35.169984)","0","6127",,"Horse Park Dr opp Katherine Av","-35.169984","149.139125",,,"0","0"
"POINT (149.149372 -35.185643)","0","6145",,"Anthony Rolfe Av before Rosanna St","-35.185643","149.149372",,,"0","0"
"POINT (149.154216 -35.283204)","0","2261",,"Fairbairn Av before Creswell St","-35.283204","149.154216",,,"0","0"
"POINT (149.090938 -35.174597999999996)","0","6309",,"Overall Av before 2nd John Crawford Cr","-35.174598","149.090938",,,"0","0"
"POINT (149.126983 -35.431723999999996)","0","1126",,"Deamer Cr opp 69","-35.431724","149.126983",,,"0","0"
"POINT (149.09475 -35.171076)","0","6304",,"Overall Av after Shedden St","-35.171076","149.09475",,,"0","0"
"POINT (149.02611299999998 -35.239663)","0","4983",,"Drake Brockman Dr after Kinsella St","-35.239663","149.026113",,,"0","0"
"POINT (149.166471 -35.333304)","0","5031",,"Canberra Av opp Geelong St","-35.333304","149.166471",,,"0","0"
"POINT (149.055143 -35.224788000000004)","0","4065",,"John Cleland Cr opp Florey Shops","-35.224788","149.055143",,,"0","0"
"POINT (149.11211100000003 -35.168834000000004)","0","4867",,"Ngunnawal PS Unaipon Av","-35.168834","149.112111",,,"0","0"
"POINT (149.032273 -35.246438000000005)","0","4291",,"Murranji St opp Hawker College","-35.246438","149.032273",,,"0","0"
"POINT (149.140836 -35.219285)","0","4925",,"Brookes St after Heffernan St","-35.219285","149.140836",,,"0","0"
"POINT (149.037729 -35.251096000000004)","0","4454",,"Erldunda Cct before 2nd Kulgera St","-35.251096","149.037729",,,"0","0"
"POINT (149.124277 -35.177467)","0","4808",,"Mirrabei Dr after 2nd Paul Coe Cr","-35.177467","149.124277",,,"0","0"
"POINT (149.139295 -35.20557700000001)","0","6080",,"Hoskins St after Well Station Dr","-35.205577","149.139295",,,"0","0"
"POINT (149.10568899999998 -35.468348999999996)","0","1685",,"Paperbark St after 1st Kettlewell Cr","-35.468349","149.105689",,,"0","0"
"POINT (149.041331 -35.219613)","0","4195",,"Kingsford Smith Dr opp Krefft St","-35.219613","149.041331",,,"0","0"
"POINT (149.13613999999998 -35.303456)","0","3028",,"Kings Av before King Edward Tce","-35.303456","149.13614",,,"0","0"
"POINT (149.07936 -35.416263)","0","1446",,"Charleston St after Blakey Cl","-35.416263","149.07936",,,"0","0"
"POINT (149.03731200000001 -35.220292)","0","4415",,"O'Loghlen St after 1st Stretton Cr","-35.220292","149.037312",,,"0","0"
"POINT (149.15989400000004 -35.244689)","0","3198",,"Madigan St before Antill St","-35.244689","149.159894",,,"0","0"
"POINT (149.143217 -35.313088)","0","2373",,"Wentworth Av opp Old Bus Depot Markets","-35.313088","149.143217",,,"0","0"
"POINT (149.099423 -35.370504)","0","2041",,"Wilkins St after Beasley St","-35.370504","149.099423",,,"0","0"
"POINT (149.113857 -35.371902)","0","2464",,"Julia Flynn Av before 2nd Walton St","-35.371902","149.113857",,,"0","0"
"POINT (149.064247 -35.397462)","0","1416",,"Vansittart Cr before Pinkerton Cct","-35.397462","149.064247",,,"0","0"
"POINT (149.108376 -35.357780000000005)","0","2104",,"Kareelah Vsta after Taronga Pl","-35.35778","149.108376",,,"0","0"
"POINT (149.093261 -35.445199)","0","2697",,"Tharwa Dr before Drakeford Dr","-35.445199","149.093261",,,"0","0"
"POINT (149.058859 -35.390364)","0","1290",,"O'Halloran Cct before Boddington Cr","-35.390364","149.058859",,,"0","0"
"POINT (149.076355 -35.202507000000004)","0","4668",,"Owen Dixon Dr opp Badenoch Cr","-35.202507","149.076355",,,"0","0"
"POINT (149.156052 -35.332769)","0","2439",,"Kootara Cr after 2nd Gymea St","-35.332769","149.156052",,,"0","0"
"POINT (149.046424 -35.213285)","0","4570",,"Kingsford Smith Dr after Companion Cr","-35.213285","149.046424",,,"0","0"
"POINT (149.13401299999998 -35.339816)","0","3287",,"Red Hill School La Perouse St","-35.339816","149.134013",,,"0","0"
"POINT (149.065463 -35.414427)","0","1804",,"Tuggeranong Interchange Plt 4","-35.414427","149.065463",,"https://www.transport.act.gov.au/__data/assets/pdf_file/0013/1244200/TC_station_tuggeranong.pdf","0","0"
"POINT (149.147477 -35.248428000000004)","0","4590",,"Antill St before Hawdon Pl","-35.248428","149.147477",,,"0","0"
"POINT (149.172318 -35.324994000000004)","0","2941",,"Newcastle St after Gladstone St","-35.324994","149.172318",,,"0","0"
"POINT (149.108792 -35.342045)","0","2534",,"Garran Shops Gilmore Cr","-35.342045","149.108792",,,"0","0"
"POINT (149.114625 -35.192333000000005)","0","4786",,"Kosciuszko Av before Burrowa St","-35.192333","149.114625",,,"0","0"
"POINT (149.08875 -35.421377)","0","1672",,"Clive Steele Av after Falconer St","-35.421377","149.08875",,,"0","0"
"POINT (149.048299 -35.378093)","0","1275",,"Barritt St before Kambah Pool Rd","-35.378093","149.048299",,,"0","0"
"POINT (149.074674 -35.336488)","0","2500",,"Devonport St after 1st Scottsdale St","-35.336488","149.074674",,,"0","0"
"POINT (149.047943 -35.347043)","0","0201",,"Fremantle Dr after 1st McKail Cr","-35.347043","149.047943",,,"0","0"
"POINT (149.118947 -35.250688000000004)","0","3117",,"Miller St after Swainsona St","-35.250688","149.118947",,,"0","0"
"POINT (149.16398999999998 -35.192591)","0","6200",,"Bettong Av before Hawksbill St","-35.192591","149.16399",,,"0","0"
"POINT (149.09817900000002 -35.319844)","0","2278",,"Canberra Private Hospital Kent St","-35.319844","149.098179",,,"0","0"
"POINT (149.082777 -35.324606)","0","2014",,"Carruthers St opp Curtin Shops","-35.324606","149.082777",,,"0","0"
"POINT (149.042443 -35.34205300000001)","0","2144",,"Hindmarsh Dr after Dixon Dr","-35.342053","149.042443",,,"0","0"
"POINT (149.08229 -35.257332)","0","4523",,"Bandjalong Cr before Nungara St","-35.257332","149.08229",,,"0","0"
"POINT (149.133731 -35.301181)","0","3261",,"Parkes Pl opp John Gorton Building","-35.301181","149.133731",,,"0","0"
"POINT (149.110769 -35.170969)","0","4742",,"Gurrang Av after Wanganeen Av","-35.170969","149.110769",,,"0","0"
"POINT (149.104023 -35.18132000000001)","0","4731",,"Anne Clark Av opp Freda Bennett Cct","-35.18132","149.104023",,,"0","0"
"POINT (149.115224 -35.44801)","0","1113",,"Louis Loder St after 1st Cochrane Cr","-35.44801","149.115224",,,"0","0"
"POINT (149.069534 -35.216567)","0","4180",,"William Webb Dr before Callaghan St","-35.216567","149.069534",,,"0","0"
"POINT (149.09647900000002 -35.17378000000001)","0","6109",,"Casey Market Town Kingsland Pde","-35.17378","149.096479",,,"0","0"
"POINT (149.04055300000002 -35.228657)","0","4190",,"Southern Cross Dr after Kingsford Smith Dr","-35.228657","149.040553",,,"0","0"
"POINT (149.135991 -35.286351)","0","3034",,"Constitution Av opp CIT Reid","-35.286351","149.135991",,,"0","0"
"POINT (149.032838 -35.226771)","0","4357",,"Southern Cross Dr after Kingsford Smith Dr","-35.226771","149.032838",,,"0","0"
"POINT (149.111349 -35.463891)","0","1687",,"Templestowe Av after Eaglemont Rt","-35.463891","149.111349",,,"0","0"
"POINT (149.088005 -35.416239000000004)","0","1451",,"Clive Steele Av before 2nd Balsillie Cr","-35.416239","149.088005",,,"0","0"
"POINT (149.158305 -35.195551)","0","6058",,"Jenolan St before Cultivation St","-35.195551","149.158305",,,"0","0"
"POINT (149.113629 -35.200692)","0","6332",,"Langtree Cr before 1st Drooka Cr","-35.200692","149.113629",,,"0","0"
"POINT (149.151633 -35.242984)","0","4595",,"Phillip Av after Shirley St","-35.242984","149.151633",,,"0","0"
"POINT (149.139266 -35.265169)","0","3144",,"Cowper St opp All Saints Church","-35.265169","149.139266",,,"0","0"
"POINT (149.137656 -35.213928)","0","4934",,"Hoskins St before Dacre St","-35.213928","149.137656",,,"0","0"
"POINT (149.051652 -35.253723)","0","4437",,"Shumack St after Harcourt St","-35.253723","149.051652",,,"0","0"
"POINT (149.121032 -35.416431)","0","1539",,"Norriss St opp Caroline Chisholm Senior School","-35.416431","149.121032",,,"0","0"
"POINT (149.14789299999998 -35.335868)","0","2571",,"Narrabundah College Jerrabomberra Av","-35.335868","149.147893",,,"0","0"
"POINT (149.089281 -35.472807)","0","1201",,"Knoke Av after 1st Harry Hopman Cct","-35.472807","149.089281",,,"0","0"
"POINT (149.14084200000002 -35.250227)","0","3164",,"Cowper St opp Dickson Shops","-35.250227","149.140842",,,"0","0"
"POINT (149.118563 -35.453058)","0","1811",,"Theodore Terminus Chippindall Cct","-35.453058","149.118563",,,"0","0"
"POINT (149.14255800000004 -35.278631)","0","3096",,"Gooreen St after Coranderrk St","-35.278631","149.142558",,,"0","0"
"POINT (149.114249 -35.203967999999996)","0","6152",,"Langtree Cr after Fergus St","-35.203968","149.114249",,,"0","0"
"POINT (149.161835 -35.28525)","0","2263",,"Fairbairn Av after Truscott St","-35.28525","149.161835",,,"0","0"
"POINT (149.111503 -35.164066999999996)","0","4703",,"Unaipon Av after Len Waters St","-35.164067","149.111503",,,"0","0"
"POINT (149.109052 -35.314192)","0","2643",,"Gawler Cr after Deakin Shops","-35.314192","149.109052",,,"0","0"
"POINT (149.124589 -35.166072)","0","5997",,"Good Shepherd PS Burdekin Av","-35.166072","149.124589",,,"0","0"
"POINT (149.100203 -35.221828)","0","5005",,"Baldwin Dr opp 2nd Maribyrnong Av","-35.221828","149.100203",,,"0","0"
"POINT (149.044157 -35.192678)","0","4233",,"Daley Cr opp Fraser Shops","-35.192678","149.044157",,,"0","0"
"POINT (149.10273 -35.233647999999995)","0","4017",,"Gwydir Square Maribyrnong Av","-35.233648","149.10273",,,"0","0"
"POINT (149.135985 -35.419093)","0","1140",,"Gilmore PS Heagney Cr","-35.419093","149.135985",,,"0","0"
"POINT (149.08879 -35.253913)","0","4977",,"Mary Potter Cct opp Calvary Public Hospital","-35.253913","149.08879",,,"0","0"
"POINT (149.04243500000004 -35.356885999999996)","0","2162",,"Perry Dr opp Chapman PS","-35.356886","149.042435",,,"0","0"
"POINT (149.11316000000002 -35.317139000000005)","0","2219",,"Gawler Cr opp Canberra Girls Grammar Senior School","-35.317139","149.11316",,,"0","0"
"POINT (149.153198 -35.232521000000006)","0","3252",,"Knox St before Piddington St","-35.232521","149.153198",,,"0","0"
"POINT (149.063721 -35.259589)","0","4641",,"Cook Shops Templeton St","-35.259589","149.063721",,,"0","0"
"POINT (149.053761 -35.352146000000005)","0","1258",,"Namatjira Dr opp St John Vianney","-35.352146","149.053761",,,"0","0"
"POINT (149.09498200000002 -35.4012)","0","1336",,"Sternberg Cr opp Whiteman Cr","-35.4012","149.094982",,,"0","0"
"POINT (149.122715 -35.184785999999995)","0","6031",,"Gundaroo Dr after Ginn St","-35.184786","149.122715",,,"0","0"
"POINT (149.031947 -35.298611)","0","2835",,"Holborow Av after Greenwood St","-35.298611","149.031947",,,"0","0"
"POINT (149.041639 -35.202234000000004)","0","4151",,"Tillyard Dr after McDougall St","-35.202234","149.041639",,,"0","0"
"POINT (149.134937 -35.251049)","0","945",,"Dickson Interchange Plt 1","-35.251049","149.134937",,"https://www.transport.act.gov.au/__data/assets/pdf_file/0011/1244198/TC_station_dickson.pdf","0","0"
"POINT (149.027657 -35.22166)","0","4908",,"Southern Cross Dr before Chave St","-35.22166","149.027657",,,"0","0"
"POINT (149.091162 -35.212595)","0","4054",,"Canopus Cr after Achernar Cl","-35.212595","149.091162",,,"0","0"
"POINT (149.06621299999998 -35.256107)","0","4511",,"Redfern St before Allman Cct","-35.256107","149.066213",,,"0","0"
"POINT (149.051151 -35.213204)","0","4261",,"Verbrugghen St opp Melba HS","-35.213204","149.051151",,,"0","0"
"POINT (149.102701 -35.348687)","0","2604",,"Bateson Rd before Canberra Hospital","-35.348687","149.102701",,,"0","0"
"POINT (149.094546 -35.230009)","0","4012",,"Baldwin Dr after 2nd Maribyrnong Av","-35.230009","149.094546",,,"0","0"
"POINT (149.108824 -35.21755)","0","4033",,"Maribyrnong Av before 2nd Onkaparinga Cr","-35.21755","149.108824",,,"0","0"
"POINT (149.09741599999998 -35.397754)","0","1368",,"Langdon Av before Longmore Cr","-35.397754","149.097416",,,"0","0"
"POINT (149.033043 -35.205867)","0","4205",,"Lhotsky St opp Charnwood Shops","-35.205867","149.033043",,,"0","0"
"POINT (149.12004199999998 -35.174667)","0","4720",,"Paul Coe Cr Shops Paul Coe Cr","-35.174667","149.120042",,,"0","0"
"POINT (149.160287 -35.196338)","0","6056",,"Cultivation St before Granites St","-35.196338","149.160287",,,"0","0"
"POINT (149.10630100000003 -35.304595)","0","2230",,"Schlich St before Hopetoun Cct","-35.304595","149.106301",,,"0","0"
"POINT (149.046786 -35.320311)","0","2841",,"Annabelle View after Harold White Av","-35.320311","149.046786",,,"0","0"
"POINT (149.067248 -35.21425)","0","4175",,"Moynihan St before 2nd Alderman St","-35.21425","149.067248",,,"0","0"
"POINT (149.10133000000002 -35.15952)","0","4843",,"Whitrod Av after Kowalski St","-35.15952","149.10133",,,"0","0"
"POINT (149.003141 -35.2162)","0","0404",,"MacFarlane Burnet Av before De Gruchy Pl","-35.2162","149.003141",,,"0","0"
"POINT (149.037345 -35.22048200000001)","0","4414",,"O'Loghlen St after 1st Chambers St","-35.220482","149.037345",,,"0","0"
"POINT (149.060234 -35.35548300000001)","0","2417",,"Arawang PS Nemerang Cr","-35.355483","149.060234",,,"0","0"
"POINT (149.141475 -35.259595000000004)","0","3149",,"Cowper St at 2nd Bonney St","-35.259595","149.141475",,,"0","0"
"POINT (149.115701 -35.410953000000006)","0","1615",,"Holy Family PS Castleton Cr","-35.410953","149.115701",,,"0","0"
"POINT (149.127953 -35.409005)","0","1149",,"Coyne St before Carson St","-35.409005","149.127953",,,"0","0"
"POINT (149.016851 -35.22351)","0","4959",,"Starke St after Luke St","-35.22351","149.016851",,,"0","0"
"POINT (149.117599 -35.15947)","0","6111",,"Crackajack Way before Bandstand St","-35.15947","149.117599",,,"0","0"
"POINT (149.05715800000002 -35.389395)","0","1288",,"Boddington Cr before Broad Pl","-35.389395","149.057158",,,"0","0"
"POINT (149.04036000000002 -35.191592)","0","4228",,"Shakespeare Cr after Filshie Cl","-35.191592","149.04036",,,"0","0"
"POINT (149.038367 -35.221105)","0","4993",,"O'Loghlen St before 2nd Stretton Cr","-35.221105","149.038367",,,"0","0"
"POINT (149.158089 -35.289365999999994)","0","3080",,"Vasey Cr opp 100","-35.289366","149.158089",,,"0","0"
"POINT (149.14553700000002 -35.271755999999996)","0","3230",,"Chisholm St after Paterson St","-35.271756","149.145537",,,"0","0"
"POINT (149.049422 -35.34894)","0","2424",,"Fremantle Dr opp Bunbury St","-35.34894","149.049422",,,"0","0"
"POINT (149.077479 -35.404247)","0","1596",,"Newman-Morris Cct before Taverner St","-35.404247","149.077479",,,"0","0"
"POINT (149.031757 -35.336822999999995)","0","2133",,"Duffy Shops Burrinjuck Cr","-35.336823","149.031757",,,"0","0"
"POINT (149.127409 -35.299451)","0","1778",,"Langton Cr after Newlands St","-35.299451","149.127409",,,"0","0"
"POINT (149.06022 -35.2396)","0","942",,"Cohen St Interchange Plt 2","-35.2396","149.06022",,"https://www.transport.act.gov.au/__data/assets/pdf_file/0009/1244196/TC_station_cohen.pdf","0","0"
"POINT (149.125458 -35.194618)","0","4775",,"Kosciuszko Av before Mainwaring Rich Cct","-35.194618","149.125458",,,"0","0"
"POINT (149.04161299999998 -35.194914000000004)","0","4487",,"Tillyard Dr before Reuther St","-35.194914","149.041613",,,"0","0"
"POINT (149.051974 -35.20671)","0","4162",,"Alfred Hill Dr after Henslowe Pl","-35.20671","149.051974",,,"0","0"
"POINT (149.060178 -35.358631)","0","2090",,"Badimara St after 1st Kalgoorlie Cr","-35.358631","149.060178",,,"0","0"
"POINT (149.024459 -35.228004)","0","4363",,"Starke St opp Hardwick Cr","-35.228004","149.024459",,,"0","0"
"POINT (149.078911 -35.396159999999995)","0","1323",,"Fincham Cr after Morrissey St","-35.39616","149.078911",,,"0","0"
"POINT (149.03456100000002 -35.354717)","0","2156",,"Perry Dr before Rene St","-35.354717","149.034561",,,"0","0"
"POINT (149.125852 -35.336672)","0","3277",,"Golden Gr before Quiros St","-35.336672","149.125852",,,"0","0"
"POINT (149.085728 -35.460663000000004)","0","1235",,"Knoke Av after Midge St","-35.460663","149.085728",,,"0","0"
"POINT (149.075535 -35.35253)","0","2061",,"Chifley Shops Eggleston Cr","-35.35253","149.075535",,,"0","0"
"POINT (149.099516 -35.210207000000004)","0","4048",,"Chuculba Cr after Nyawi Pl","-35.210207","149.099516",,,"0","0"
"POINT (149.066372 -35.419474)","0","2718",,"Soward Way after Athllon Dr","-35.419474","149.066372",,,"0","0"
"POINT (149.04850300000004 -35.334412)","0","2396",,"Blackwood Tce after Mulley St","-35.334412","149.048503",,,"0","0"
"POINT (149.11509099999998 -35.26072)","0","3111",,"Miller St opp Hack St","-35.26072","149.115091",,,"0","0"
"POINT (149.068755 -35.197685)","0","4097",,"Clarey Cr before Boote St","-35.197685","149.068755",,,"0","0"
"POINT (149.074975 -35.207772999999996)","0","4114",,"Heydon Cr opp Evatt PS","-35.207773","149.074975",,,"0","0"
"POINT (149.091607 -35.426111999999996)","0","1001",,"Drumston St opp MacKillop College","-35.426112","149.091607",,,"0","0"
"POINT (149.069179 -35.239779)","0","5512",,"Belconnen Interchange Plt 2","-35.239779","149.069179",,"https://www.transport.act.gov.au/__data/assets/pdf_file/0010/1244197/TC_station_community.pdf","0","0"
"POINT (149.017666 -35.211024)","0","4376",,"Osburn Dr opp Archdall St","-35.211024","149.017666",,,"0","0"
"POINT (149.087902 -35.344530999999996)","0","2908",,"Woden Interchange Plt 5","-35.344531","149.087902",,"https://www.transport.act.gov.au/__data/assets/pdf_file/0016/1244203/TC_station_woden.pdf","0","0"
"POINT (149.019576 -35.199308)","0","4482",,"Lance Hill Av before 2nd Evelyn Owen Cr","-35.199308","149.019576",,,"0","0"
"POINT (149.103166 -35.219273)","0","4037",,"Maribyrnong Av opp Kaleen Village","-35.219273","149.103166",,,"0","0"
"POINT (149.019328 -35.222482)","0","4334",,"Kippax Terminus","-35.222482","149.019328",,,"0","0"
"POINT (149.05613300000002 -35.202913)","0","4251",,"Kingsford Smith Dr before Le Gallienne St","-35.202913","149.056133",,,"0","0"
"POINT (149.113865 -35.420965)","0","1499",,"Beattie Cr opp Hemmings Cr","-35.420965","149.113865",,,"0","0"
"POINT (149.113621 -35.420984000000004)","0","1498",,"Beattie Cr after Hemmings Cr","-35.420984","149.113621",,,"0","0"
"POINT (149.070847 -35.419798)","0","1067",,"Anketell St opp Tuggeranong Square","-35.419798","149.070847",,,"0","0"
"POINT (149.010915 -35.225134000000004)","0","4315",,"Beaurepaire Cr opp Holt Shops","-35.225134","149.010915",,,"0","0"
"POINT (149.14988799999998 -35.291834)","0","3075",,"Blamey Cr before Vasey Cr","-35.291834","149.149888",,,"0","0"
"POINT (149.047228 -35.247203000000006)","0","4443",,"Gillespie St before Southwell St","-35.247203","149.047228",,,"0","0"
"POINT (149.132225 -35.340621)","0","3282",,"La Perouse St before Red Hill Shops","-35.340621","149.132225",,,"0","0"
"POINT (149.10323200000002 -35.424109)","0","1840",,"Ashley Dr before Isabella Dr","-35.424109","149.103232",,,"0","0"
"POINT (149.124129 -35.177537)","0","4874",,"Mirrabei Dr before 1st Paul Coe Cr","-35.177537","149.124129",,,"0","0"
"POINT (149.074925 -35.32116)","0","2009",,"Throssell St after Jennings St","-35.32116","149.074925",,,"0","0"
"POINT (149.099162 -35.403649)","0","1172",,"Erindale Interchange Plt 1","-35.403649","149.099162",,,"0","0"
"POINT (149.045799 -35.225843)","0","4421",,"Krefft St after 2nd Ennor Cr","-35.225843","149.045799",,,"0","0"
"POINT (149.123228 -35.270140000000005)","0","4614",,"McCaughey St at Masson St","-35.27014","149.123228",,,"0","0"
"POINT (149.08626999999998 -35.234327)","0","1739",,"Pantowora St after Allawoona St","-35.234327","149.08627",,,"0","0"
"POINT (149.103025 -35.240176)","0","5171",,"Braybrooke St before Ginninderra Dr","-35.240176","149.103025",,,"0","0"
"POINT (149.11610100000001 -35.269943)","0","3102",,"Boldrewood St after Ridley St","-35.269943","149.116101",,,"0","0"
"POINT (149.093228 -35.180254999999995)","0","4814",,"Gold Creek HS Kelleway Av","-35.180255","149.093228",,,"0","0"
"POINT (149.04215 -35.350687)","0","2298",,"Streeton Dr before Bangalay Cr","-35.350687","149.04215",,,"0","0"
"POINT (149.143845 -35.17083300000001)","0","6165",,"Burgmann Anglican School Forde Campus","-35.170833","149.143845",,,"0","0"
"POINT (149.05726299999998 -35.342273999999996)","0","2202",,"Namatjira Dr after Conder St","-35.342274","149.057263",,,"0","0"
"POINT (149.141162 -35.276208000000004)","0","3236",,"Gooreen St before Batman St","-35.276208","149.141162",,,"0","0"
"POINT (149.110857 -35.193861)","0","5054",,"Gundaroo Dr after Burrowa St","-35.193861","149.110857",,,"0","0"
"POINT (149.117059 -35.28778)","0","4631",,"Constables Cottage Lennox Crossing","-35.28778","149.117059",,,"0","0"
"POINT (149.09981499999998 -35.476442999999996)","0","1678",,"Forsythe St after 2nd Smeaton Cct","-35.476443","149.099815",,,"0","0"
"POINT (149.12108700000002 -35.254883)","0","3190",,"Brigalow St before Scrivener St","-35.254883","149.121087",,,"0","0"
"POINT (149.13863700000002 -35.343101000000004)","0","2333",,"Dalrymple St after Goyder St","-35.343101","149.138637",,,"0","0"
"POINT (149.134429 -35.328977)","0","3301",,"Bremer St before Captain Cook Cr","-35.328977","149.134429",,,"0","0"
"POINT (149.021842 -35.197162)","0","5098",,"Lance Hill Av before 1st Evelyn Owen Cr","-35.197162","149.021842",,,"0","0"
"POINT (149.145898 -35.262491)","0","3221",,"O'Connell St opp Ainslie Shops","-35.262491","149.145898",,,"0","0"
"POINT (149.062983 -35.345901)","0","2185",,"McInnes St after 2nd Buvelot St","-35.345901","149.062983",,,"0","0"
"POINT (149.112125 -35.167805)","0","4698",,"Unaipon Av after Ngunnawal PS","-35.167805","149.112125",,,"0","0"
"POINT (149.087964 -35.209901)","0","4792",,"William Slim Dr after Chuculba Cr","-35.209901","149.087964",,,"0","0"
"POINT (149.04385200000002 -35.243708000000005)","0","4448",,"Hawker Shops Hawker Pl","-35.243708","149.043852",,,"0","0"
"POINT (149.131463 -35.281324)","0","3356",,"Legislative Assembly London Cct","-35.281324","149.131463",,,"0","0"
"POINT (149.063966 -35.351929999999996)","0","2240",,"Nemarang Cr opp Larakia St","-35.35193","149.063966",,,"0","0"
"POINT (149.11451599999998 -35.375628999999996)","0","2468",,"Julia Flynn Av after Alexander Mackie Cct","-35.375629","149.114516",,,"0","0"
"POINT (149.03260600000002 -35.236746999999994)","0","4298",,"Kingsford Smith Dr opp Findlay St","-35.236747","149.032606",,,"0","0"
"POINT (149.069297 -35.333039)","0","2504",,"Heysen St before Devonport St","-35.333039","149.069297",,,"0","0"
"POINT (149.02188 -35.299328)","0","2830",,"Denman Prospect Shops Felstead Vista","-35.299328","149.02188",,,"0","0"
"POINT (149.10523999999998 -35.171595)","0","4736",,"Jabanungga Av after Taylor St","-35.171595","149.10524",,,"0","0"
"POINT (149.097043 -35.414112)","0","1439",,"Clive Steele Av before 2nd Fraenkel St","-35.414112","149.097043",,,"0","0"
"POINT (149.026385 -35.237903)","0","4882",,"Kinsella St before 2nd Nicholas St","-35.237903","149.026385",,,"0","0"
"POINT (149.086937 -35.391088)","0","1906",,"Langdon Av opp Wanniassa Shops","-35.391088","149.086937",,,"0","0"
"POINT (149.135701 -35.271516999999996)","0","3388",,"Fawkner St before Girrahween St","-35.271517","149.135701",,,"0","0"
"POINT (149.085974 -35.443044)","0","1184",,"Clare Dennis Av before Armbruster St","-35.443044","149.085974",,,"0","0"
"POINT (149.09281000000001 -35.186159)","0","5067",,"Temperley St opp Stedman Pl","-35.186159","149.09281",,,"0","0"
"POINT (149.07306499999999 -35.222305000000006)","0","4136",,"Dumas St after 2nd Bean Cr","-35.222305","149.073065",,,"0","0"
"POINT (149.163382 -35.241028)","0","3175",,"Antill St opp Fison St","-35.241028","149.163382",,,"0","0"
"POINT (149.096768 -35.346014000000004)","0","2485",,"Ainsworth St after Kitchener St","-35.346014","149.096768",,,"0","0"
"POINT (149.137 -35.16044)","0","6329",,"Mobourne St before Ben Blakeney St","-35.16044","149.137",,,"0","0"
"POINT (149.05433 -35.221159)","0","4069",,"John Cleland Cr after Ginninderra Dr","-35.221159","149.05433",,,"0","0"
"POINT (149.028606 -35.346302)","0","2149",,"Darwinia Tce after Kathner St","-35.346302","149.028606",,,"0","0"
"POINT (149.153696 -35.331939)","0","2351",,"Kootara Cr opp Narrabundah Shops","-35.331939","149.153696",,,"0","0"
"POINT (149.09536200000002 -35.467558000000004)","0","1205",,"Pockett Av after Perrin Cct","-35.467558","149.095362",,,"0","0"
"POINT (149.145516 -35.291834)","0","3009",,"Constitution Av after Creswell St","-35.291834","149.145516",,,"0","0"
"POINT (149.10984 -35.415811)","0","1535",,"Bugden Av after Beardsmore Pl","-35.415811","149.10984",,,"0","0"
"POINT (149.134733 -35.269882)","0","3140",,"Torrens St after Henty St","-35.269882","149.134733",,,"0","0"
"POINT (149.05541599999998 -35.230295)","0","4432",,"Ratcliffe Cr before Woolnough St","-35.230295","149.055416",,,"0","0"
"POINT (149.09873000000002 -35.303827000000005)","0","2451",,"Schlich St before Novar St","-35.303827","149.09873",,,"0","0"
"POINT (149.09246299999998 -35.456354)","0","1217",,"Lanyon Marketplace Box Hill Av","-35.456354","149.092463",,,"0","0"
"POINT (149.127426 -35.245721)","0","4548",,"Mouat St opp National Hockey Centre","-35.245721","149.127426",,,"0","0"
"POINT (149.15528 -35.209740000000004)","0","6007",,"Well Station Dr opp Kings Canyon St","-35.20974","149.15528",,,"0","0"
"POINT (149.14986299999998 -35.162506)","0","6317",,"Amy Ackman St after Turbayne Cr","-35.162506","149.149863",,,"0","0"
"POINT (149.10280600000002 -35.348599)","0","2617",,"Bateson Rd after Canberra Hospital","-35.348599","149.102806",,,"0","0"
"POINT (149.05318300000002 -35.192177)","0","4886",,"Bingley Cr opp Bazley St","-35.192177","149.053183",,,"0","0"
"POINT (149.101753 -35.180634000000005)","0","4687",,"Kelleway Av opp Holy Spirit PS","-35.180634","149.101753",,,"0","0"
"POINT (149.16254700000002 -35.251740000000005)","0","3204",,"Madigan St opp Mackenzie St","-35.25174","149.162547",,,"0","0"
"POINT (149.165864 -35.299015999999995)","0","3065",,"Parnell St opp Combes Rd","-35.299016","149.165864",,,"0","0"
"POINT (149.052355 -35.240111999999996)","0","4475",,"Page Shops Petterd St","-35.240112","149.052355",,,"0","0"
"POINT (149.08000800000002 -35.431101)","0","1052",,"Barr Smith Av opp Hurtle Av","-35.431101","149.080008",,,"0","0"
"POINT (149.138466 -35.180792)","0","6027",,"Gundaroo Dr after Pallin St","-35.180792","149.138466",,,"0","0"
"POINT (149.165467 -35.229092)","0","3476",,"Aspinall St after Antill St","-35.229092","149.165467",,,"0","0"
"POINT (149.03061200000002 -35.199314)","0","4212",,"Lhotsky St at Donnison Pl","-35.199314","149.030612",,,"0","0"
"POINT (149.10200700000001 -35.316947)","0","2283",,"Macgregor St before Nathan St","-35.316947","149.102007",,,"0","0"
"POINT (149.093504 -35.209721)","0","4052",,"Chuculba Cr after Buriga St","-35.209721","149.093504",,,"0","0"
"POINT (149.056141 -35.336748)","0","2196",,"Hilder St after 1st Lycett St","-35.336748","149.056141",,,"0","0"
"POINT (149.114545 -35.173126)","0","4849",,"Gurrang Av after Marungul Av","-35.173126","149.114545",,,"0","0"
"POINT (149.139401 -35.325555)","0","2368",,"Stuart St after Barrallier St","-35.325555","149.139401",,,"0","0"
"POINT (149.124524 -35.421960999999996)","0","1549",,"Baskerville St opp 2nd Laughton St","-35.421961","149.124524",,,"0","0"
"POINT (149.11129 -35.436661)","0","1019",,"Casey Cr before Carpenter Cl","-35.436661","149.11129",,,"0","0"
"POINT (149.01811 -35.227714)","0","2563",,"Starke St after Powell St","-35.227714","149.01811",,,"0","0"
"POINT (149.035971 -35.346779999999995)","0","2431",,"Bangalay Cr opp Rivett Shops","-35.34678","149.035971",,,"0","0"
"POINT (149.036357 -35.324558)","0","2805",,"Steve Irwin Av before David Fleay St","-35.324558","149.036357",,,"0","0"
"POINT (149.06406 -35.377741)","0","1348",,"Taylor PS Marconi Cr","-35.377741","149.06406",,,"0","0"
"POINT (149.048811 -35.206321)","0","4256",,"Kingsford Smith Dr after Pattinson Cr","-35.206321","149.048811",,,"0","0"
"POINT (149.129582 -35.182714000000004)","0","4836",,"Anthony Rolfe Av before Gundaroo Rd","-35.182714","149.129582",,,"0","0"
"POINT (149.122136 -35.17329)","0","4714",,"Shoalhaven Av before Roderick St","-35.17329","149.122136",,,"0","0"
"POINT (149.017232 -35.227103)","0","4310",,"Starke St before Beaurepaire Cr","-35.227103","149.017232",,,"0","0"
"POINT (149.02240600000002 -35.233473)","0","4305",,"Cussen St before Davidson St","-35.233473","149.022406",,,"0","0"
"POINT (149.111801 -35.166204)","0","4700",,"Unaipon Av before Yumba Av","-35.166204","149.111801",,,"0","0"
"POINT (149.130434 -35.279291)","0","3402",,"City Interchange Plt 11","-35.279291","149.130434",,"https://www.transport.act.gov.au/__data/assets/pdf_file/0008/1244195/TC_station_city.pdf","0","0"
"POINT (149.050176 -35.190512)","0","4238",,"Bingley Cr after 2nd Foskett St","-35.190512","149.050176",,,"0","0"
"POINT (149.190329 -35.316348)","0","3467",,"Brindabella Business Park Molonglo Dr","-35.316348","149.190329",,,"0","0"
"POINT (149.093016 -35.392568)","0","1361",,"Langdon Av before Carr Cr","-35.392568","149.093016",,,"0","0"
"POINT (149.030183 -35.224706)","0","4942",,"Starke St after Blackham St","-35.224706","149.030183",,,"0","0"
"POINT (149.03193000000002 -35.219237)","0","4410",,"Onslow St opp Latham Shops","-35.219237","149.03193",,,"0","0"
"POINT (149.063349 -35.199292)","0","4086",,"Baddeley Cr after Blumental Pl","-35.199292","149.063349",,,"0","0"
"POINT (149.075168 -35.410988)","0","1403",,"77 Newman-Morris Cct","-35.410988","149.075168",,,"0","0"
"POINT (149.054357 -35.355019)","0","5105",,"Mt Stromlo HS School Grounds SSO","-35.355019","149.054357",,,"0","0"
"POINT (149.074948 -35.323040999999996)","0","2024",,"Throssell St after Storey St","-35.323041","149.074948",,,"0","0"
"POINT (149.13071000000002 -35.278333)","0","3413",,"City Interchange Plt 8","-35.278333","149.13071",,"https://www.transport.act.gov.au/__data/assets/pdf_file/0008/1244195/TC_station_city.pdf","0","0"
"POINT (149.099436 -35.169891)","0","4914",,"Horse Park Dr before Newlop St","-35.169891","149.099436",,,"0","0"
"POINT (149.04952600000001 -35.201262)","0","4158",,"Spalding St opp Schwarz Pl","-35.201262","149.049526",,,"0","0"
"POINT (149.137108 -35.216571)","0","4758",,"Hoskins St opp Lysaght St","-35.216571","149.137108",,,"0","0"
"POINT (149.133002 -35.413875)","0","1568",,"Louisa Lawson Cr before 2nd Aronson Cr","-35.413875","149.133002",,,"0","0"
"POINT (149.058626 -35.251092)","0","4506",,"Bennelong Cr opp Macquarie PS","-35.251092","149.058626",,,"0","0"
"POINT (149.01570800000002 -35.199948)","0","5043",,"Archdall St before Fleay Pl","-35.199948","149.015708",,,"0","0"
"POINT (149.120304 -35.450720000000004)","0","1038",,"Chippindall Cct after Latchford St","-35.45072","149.120304",,,"0","0"
"POINT (149.0813 -35.206185999999995)","0","4673",,"Owen Dixon after Heydon Cr","-35.206186","149.0813",,,"0","0"
"POINT (149.035313 -35.205602)","0","4147",,"Charnwood Shops Tillyard Dr","-35.205602","149.035313",,,"0","0"
"POINT (149.143242 -35.265512)","0","3226",,"Campbell St before Foveaux St","-35.265512","149.143242",,,"0","0"
"POINT (149.012231 -35.210096)","0","4374",,"Osburn Dr after Chalmers Pl","-35.210096","149.012231",,,"0","0"
"POINT (149.123703 -35.259066)","0","3185",,"Hovea St after Macarthur Av","-35.259066","149.123703",,,"0","0"
"POINT (149.05833 -35.212854)","0","4266",,"Verbrugghen St opp Copland College","-35.212854","149.05833",,,"0","0"
"POINT (149.06375900000003 -35.19477)","0","4093",,"Clarey Cr after Clark Cl","-35.19477","149.063759",,,"0","0"
"POINT (149.11084600000004 -35.436859000000005)","0","1020",,"Casey Cr opp Carpenter Cl","-35.436859","149.110846",,,"0","0"
"POINT (149.14989100000003 -35.25683300000001)","0","3215",,"Officer Cr after Hawdon St","-35.256833","149.149891",,,"0","0"
"POINT (149.07489099999998 -35.26063)","0","4646",,"Bandjalong Cr after 2nd Barada Cr","-35.26063","149.074891",,,"0","0"
"POINT (149.03190700000002 -35.334854)","0","2129",,"Duffy PS Burrinjuck Cr","-35.334854","149.031907",,,"0","0"
"POINT (149.065792 -35.393972)","0","1298",,"O'Halloran Cct opp Ashby Cct","-35.393972","149.065792",,,"0","0"
"POINT (149.109397 -35.414013)","0","1505",,"Castleton Cr opp Gowrie Shops","-35.414013","149.109397",,,"0","0"
"POINT (149.05473 -35.252645)","0","4273",,"Coulter Dr opp Schumack St","-35.252645","149.05473",,,"0","0"
"POINT (149.06973 -35.422657)","0","1063",,"Tuggeranong Bus Depot Scollay St","-35.422657","149.06973",,,"0","0"
"POINT (149.05353 -35.32795)","0","2821",,"Streeton Dr after Dixon Dr","-35.32795","149.05353",,,"0","0"
"POINT (149.110199 -35.231195)","0","4020",,"Maribyrnong Av before Wakool Cct","-35.231195","149.110199",,,"0","0"
"POINT (149.055251 -35.330242)","0","2212",,"Heysen St opp Preston St","-35.330242","149.055251",,,"0","0"
"POINT (149.152321 -35.237187)","0","3249",,"Knox St after 1st A'Beckett St","-35.237187","149.152321",,,"0","0"
"POINT (149.095483 -35.425653999999994)","0","1009",,"Mackillop College Ellerston Av","-35.425654","149.095483",,,"0","0"
"POINT (149.01667 -35.206063)","0","4380",,"Archdall St after Barrett St","-35.206063","149.01667",,,"0","0"
"POINT (149.113881 -35.411696)","0","6190",,"Castleton Cr before Finlay Pl","-35.411696","149.113881",,,"0","0"
"POINT (149.081246 -35.335553999999995)","0","2029",,"Theodore St before 2nd Holman St","-35.335554","149.081246",,,"0","0"
"POINT (149.015657 -35.19988)","0","4486",,"Archdall St before Hugh McKay Cr","-35.19988","149.015657",,,"0","0"
"POINT (149.097949 -35.218427)","0","4041",,"Chuculba Cr after Baldwin Dr","-35.218427","149.097949",,,"0","0"
"POINT (149.11776799999998 -35.190698)","0","4789",,"Kosciuszko Av after Gingera St","-35.190698","149.117768",,,"0","0"
"POINT (149.108917 -35.183516999999995)","0","4878",,"Lexcen Av after Arthaldo Ct","-35.183517","149.108917",,,"0","0"
"POINT (149.097362 -35.457716)","0","1216",,"Box Hill Av opp St Clare of Assisi PS","-35.457716","149.097362",,,"0","0"
"POINT (149.043307 -35.243609)","0","4447",,"Hawker Pl opp Hawker Shops","-35.243609","149.043307",,,"0","0"
"POINT (149.006943 -35.220376)","0","4323",,"Spofforth St before Southern Cross Dr","-35.220376","149.006943",,,"0","0"
"POINT (149.12818600000003 -35.329658)","0","3270",,"Monaro Cr before Flinders Way","-35.329658","149.128186",,,"0","0"
"POINT (149.052865 -35.342457)","0","2206",,"Cooleman Court Interchange Plt 2","-35.342457","149.052865",,,"0","0"
"POINT (149.091868 -35.172561)","0","6307",,"Overall Av before Tippett St","-35.172561","149.091868",,,"0","0"
"POINT (149.10831000000002 -35.315459999999995)","0","2286",,"Macgregor St opp Deakin Shops","-35.31546","149.10831",,,"0","0"
"POINT (149.148401 -35.208676000000004)","0","6092",,"Well Station Dr after Flemington Rd","-35.208676","149.148401",,,"0","0"
"POINT (149.104019 -35.424738)","0","1486",,"Clift Cr after Ashley Dr","-35.424738","149.104019",,,"0","0"
"POINT (149.16751299999999 -35.326234)","0","1766",,"Barrier St before Ipswich St","-35.326234","149.167513",,,"0","0"
"POINT (149.11690900000002 -35.288134)","0","4630",,"Old Canberra House Lennox Crossing","-35.288134","149.116909",,,"0","0"
"POINT (149.13492 -35.423045)","0","1135",,"Heagney Cr before 1st Couchman Cr","-35.423045","149.13492",,,"0","0"
"POINT (149.084194 -35.18456)","0","4676",,"McClelland Av opp Moriarty St","-35.18456","149.084194",,,"0","0"
"POINT (149.146794 -35.319226)","0","3321",,"Wentworth Av opp Canberra Railway Stn","-35.319226","149.146794",,,"0","0"
"POINT (149.120793 -35.261765000000004)","0","4607",,"Macpherson St after Lilley St","-35.261765","149.120793",,,"0","0"
"POINT (149.143343 -35.265718)","0","3225",,"Campbell St after Foveaux St","-35.265718","149.143343",,,"0","0"
"POINT (149.16345900000002 -35.20528)","0","6008",,"Well Station Dr after Albatross Cr","-35.20528","149.163459",,,"0","0"
"POINT (149.081353 -35.362987)","0","2050",,"Pearce Shops Macfarland Cr","-35.362987","149.081353",,,"0","0"
"POINT (149.143892 -35.337652)","0","3295",,"Caley Cr after Sprent St","-35.337652","149.143892",,,"0","0"
"POINT (149.09958 -35.3467)","0","2095",,"Yamba Dr opp Canberra Hospital","-35.3467","149.09958",,,"0","0"
"POINT (149.142124 -35.328656)","0","2365",,"Griffith Shops Stuart St","-35.328656","149.142124",,,"0","0"
"POINT (149.07617 -35.220890000000004)","0","4140",,"Dumas St opp 2nd Slessor Cr","-35.22089","149.07617",,,"0","0"
"POINT (149.11813999999998 -35.1575)","0","6103",,"Bernard Heinze Av after Yidaki Way","-35.1575","149.11814",,,"0","0"
"POINT (149.107245 -35.379151)","0","2472",,"Lambrigg St opp Farrer PS","-35.379151","149.107245",,,"0","0"
"POINT (149.058639 -35.342631)","0","2189",,"McInnes St after 1st Buvelot St","-35.342631","149.058639",,,"0","0"
"POINT (149.125878 -35.297776000000006)","0","2248",,"Albert Hall Commonwealth Av","-35.297776","149.125878",,,"0","0"
"POINT (149.104937 -35.345865)","0","2303",,"Gilmore Cr before Esson Pl","-35.345865","149.104937",,,"0","0"
"POINT (149.120472 -35.406757)","0","1154",,"Bugden Av before Coyne St","-35.406757","149.120472",,,"0","0"
"POINT (149.097304 -35.419885)","0","1443",,"Cockcroft Av before Kneeshaw St","-35.419885","149.097304",,,"0","0"
"POINT (149.0721 -35.244071999999996)","0","4532",,"Hennessy St at Greene Pl","-35.244072","149.0721",,,"0","0"
"POINT (149.131012 -35.340646)","0","3285",,"La Perouse St opp Red Hill Shops","-35.340646","149.131012",,,"0","0"
"POINT (149.142878 -35.24492)","0","3240",,"Melba St after Bradfield St","-35.24492","149.142878",,,"0","0"
"POINT (149.103165 -35.240418)","0","5172",,"Braybrooke St after Ginninderra Dr","-35.240418","149.103165",,,"0","0"
"POINT (149.033853 -35.19702)","0","4213",,"Lhotsky St before 2nd Townson Cr","-35.19702","149.033853",,,"0","0"
"POINT (149.054887 -35.222826000000005)","0","4066",,"John Cleland Cr opp 2nd Twelvetrees Cr","-35.222826","149.054887",,,"0","0"
"POINT (149.066244 -35.208189000000004)","0","4541",,"Ashkanasy Cr after Keenan St","-35.208189","149.066244",,,"0","0"
"POINT (149.038757 -35.349342)","0","2492",,"Bangalay Cr before 1st Mirbelia Cr","-35.349342","149.038757",,,"0","0"
"POINT (149.08727199999998 -35.414229)","0","1457",,"Corlette Cr opp Hebblewhite St","-35.414229","149.087272",,,"0","0"
"POINT (149.121775 -35.239917999999996)","0","3129",,"Cossington Smith Cr before Fairweather Cct","-35.239918","149.121775",,,"0","0"
"POINT (149.090401 -35.210229)","0","4805",,"Canopus Cr before Chuculba Cr","-35.210229","149.090401",,,"0","0"
"POINT (149.046512 -35.23041)","0","5024",,"Southern Cross Dr before Ross Smith Cr","-35.23041","149.046512",,,"0","0"
"POINT (149.08945400000002 -35.472849)","0","1229",,"Knoke Av after Coventry Cl","-35.472849","149.089454",,,"0","0"
"POINT (149.06071799999998 -35.212715)","0","4073",,"Copland Dr opp Copland College","-35.212715","149.060718",,,"0","0"
"POINT (149.026999 -35.305351)","0","2826",,"Wyndham Av after Bielski St SSO","-35.305351","149.026999",,,"0","0"
"POINT (149.150943 -35.300714)","0","3070",,"Russell Dr after Morshead Dr","-35.300714","149.150943",,,"0","0"
"POINT (149.034831 -35.330467999999996)","0","2508",,"Warragamba Av opp Jindabyne St","-35.330468","149.034831",,,"0","0"
"POINT (149.13953999999998 -35.1541)","0","6325",,"Essie Coffey St before Irinyili St","-35.1541","149.13954",,,"0","0"
"POINT (149.064747 -35.402611)","0","2",,"Athllon Dr after Learmonth Dr","-35.402611","149.064747",,,"0","0"
"POINT (149.07665 -35.432228)","0","1660",,"Barr Smith Av after 1st Derrington Cr","-35.432228","149.07665",,,"0","0"
"POINT (149.086122 -35.448402)","0","1188",,"Lewis Luxton Av after Preddy Way","-35.448402","149.086122",,,"0","0"
"POINT (149.067695 -35.214263)","0","4176",,"Moynihan St after De Lissa St","-35.214263","149.067695",,,"0","0"
"POINT (149.11178999999998 -35.165951)","0","4701",,"Unaipon Av after Windradyne St","-35.165951","149.11179",,,"0","0"
"POINT (149.14800400000001 -35.33840900000001)","0","2338",,"Narrabundah College Goyder St","-35.338409","149.148004",,,"0","0"
"POINT (149.112573 -35.36558)","0","2457",,"Julia Flynn Av before Crook Pl","-35.36558","149.112573",,,"0","0"
"POINT (149.083001 -35.324994000000004)","0","2018",,"Curtin Shops Carruthers St","-35.324994","149.083001",,,"0","0"
"POINT (149.059013 -35.248073)","0","4503",,"Bennelong Cr after Lachlan St","-35.248073","149.059013",,,"0","0"
"POINT (149.058611 -35.331083)","0","2114",,"Heysen St opp Gruner St","-35.331083","149.058611",,,"0","0"
"POINT (149.09975 -35.346484000000004)","0","2382",,"Canberra Hospital Yamba Dr","-35.346484","149.09975",,,"0","0"
"POINT (149.144801 -35.27776)","0","4661",,"Campbell HS Limestone Av","-35.27776","149.144801",,,"0","0"
"POINT (149.095924 -35.250079)","0","3439",,"CIT Solutions Vowels Cr","-35.250079","149.095924",,,"0","0"
"POINT (149.020372 -35.195165)","0","5099",,"Lance Hill Av after Shoobridge Cct","-35.195165","149.020372",,,"0","0"
"POINT (149.065015 -35.402793)","0","3",,"Athllon Dr opp Learmonth Dr","-35.402793","149.065015",,,"0","0"
"POINT (149.076885 -35.238233)","0","4143",,"Aikman Dr opp UC","-35.238233","149.076885",,,"0","0"
"POINT (149.104985 -35.462199)","0","1221",,"Tom Roberts Av before Lethbridge St","-35.462199","149.104985",,,"0","0"
"POINT (149.10288899999998 -35.42879)","0","1015",,"Ellerston Av before Ashley Dr","-35.42879","149.102889",,,"0","0"
"POINT (149.156599 -35.286454)","0","3085",,"White St before 2nd Glossop Cr","-35.286454","149.156599",,,"0","0"
"POINT (149.15674099999998 -35.251153)","0","3208",,"Phillip Av after Stott St","-35.251153","149.156741",,,"0","0"
"POINT (149.046479 -35.190082000000004)","0","4889",,"Fraser East Terminus Tillyard Dr","-35.190082","149.046479",,,"0","0"
"POINT (149.136732 -35.336948)","0","3291",,"Carnegie Cr after La Perouse St","-35.336948","149.136732",,,"0","0"
"POINT (149.017368 -35.210877)","0","4375",,"Osburn Dr before Archdall St","-35.210877","149.017368",,,"0","0"
"POINT (149.121259 -35.424343)","0","1553",,"Heagney Cr before 1st Moffin St","-35.424343","149.121259",,,"0","0"
"POINT (149.03230200000002 -35.342558000000004)","0","2410",,"Wyangala St before Hindmarsh Dr","-35.342558","149.032302",,,"0","0"
"POINT (149.075536 -35.258419)","0","4649",,"Bandjalong Cr after Amangu St","-35.258419","149.075536",,,"0","0"
"POINT (149.06059199999999 -35.197509000000004)","0","4090",,"Kingsford Smith Dr opp Magrath Cr","-35.197509","149.060592",,,"0","0"
"POINT (149.08231 -35.432126000000004)","0","1056",,"Hurtle Av opp Bonython PS","-35.432126","149.08231",,,"0","0"
"POINT (149.055143 -35.202751)","0","4252",,"Kingsford Smith Dr after 1st Bainton Cr","-35.202751","149.055143",,,"0","0"
"POINT (149.100659 -35.18152)","0","2553",,"Gold Creek PS Kelleway Av","-35.18152","149.100659",,,"0","0"
"POINT (149.11822800000002 -35.433112)","0","1118",,"Clift Cr after Johnson Dr","-35.433112","149.118228",,,"0","0"
"POINT (149.14059699999999 -35.188338)","0","7010",,"The Valley Av after Manning Clark Cr","-35.188338","149.140597",,,"0","0"
"POINT (149.076472 -35.340408000000004)","0","2070",,"Launceston St opp Lyons Shops","-35.340408","149.076472",,,"0","0"
"POINT (149.12348 -35.252171999999995)","0","3379",,"Brigalow St after Lyneham Shops","-35.252172","149.12348",,,"0","0"
"POINT (149.027873 -35.203168)","0","4208",,"Lhotsky St after Cartwright St","-35.203168","149.027873",,,"0","0"
"POINT (149.09871 -35.371724)","0","2655",,"Beasley St opp Wilkins St","-35.371724","149.09871",,,"0","0"
"POINT (149.057769 -35.379135999999995)","0","1344",,"Kambah Village Marconi Cr","-35.379136","149.057769",,,"0","0"
"POINT (149.09786699999998 -35.333877)","0","2271",,"Kitchener St opp Goble St","-35.333877","149.097867",,,"0","0"
"POINT (149.05457500000003 -35.226839)","0","4427",,"Florey Shops Ratcliffe Cr","-35.226839","149.054575",,,"0","0"
"POINT (149.092884 -35.231821000000004)","0","4009",,"Baldwin Dr after Ginninderra Dr","-35.231821","149.092884",,,"0","0"
"POINT (149.04755 -35.353363)","0","2427",,"Fremantle Dr after 1st Reveley Cr","-35.353363","149.04755",,,"0","0"
"POINT (149.12439 -35.422051)","0","1548",,"Baskerville St before 1st Laughton St","-35.422051","149.12439",,,"0","0"
"POINT (149.158968 -35.331589)","0","3044",,"Narrabundah Terminus Matina St","-35.331589","149.158968",,,"0","0"
"POINT (149.063186 -35.41215)","0","1408",,"Lakeside Leisure Centre Anketell St","-35.41215","149.063186",,,"0","0"
"POINT (149.116687 -35.170604)","0","4710",,"Mirrabei Dr after Wanganeen Av Southbound","-35.170604","149.116687",,,"0","0"
"POINT (149.086154 -35.441691999999996)","0","1183",,"Woodcock Dr opp Clare Dennis Av","-35.441692","149.086154",,,"0","0"
"POINT (149.038455 -35.20930300000001)","0","4204",,"Companion Cr at Dobinson Pl","-35.209303","149.038455",,,"0","0"
"POINT (149.047876 -35.358207)","0","1269",,"Namatjira Dr after Perry Dr","-35.358207","149.047876",,,"0","0"
"POINT (149.10013899999998 -35.190745)","0","5079",,"Temperley St before 2nd Whitfield Cct","-35.190745","149.100139",,,"0","0"
"POINT (149.100629 -35.167237)","0","4853",,"Horse Park Dr before Yeend Av","-35.167237","149.100629",,,"0","0"
"POINT (149.028405 -35.234176000000005)","0","4301",,"Findlay St after Kinsella St","-35.234176","149.028405",,,"0","0"
"POINT (149.065348 -35.378684)","0","1349",,"Marconi Cr after 2nd Lascelles Cct","-35.378684","149.065348",,,"0","0"
"POINT (149.042219 -35.233426)","0","4466",,"McGinness St after Keith St","-35.233426","149.042219",,,"0","0"
"POINT (149.14603300000002 -35.323215000000005)","0","1609",,"St Edmunds College McMillan Cr SSO","-35.323215","149.146033",,,"0","0"
"POINT (149.126662 -35.186415999999994)","0","6133",,"The Valley Av before Warwick St","-35.186416","149.126662",,,"0","0"
"POINT (149.07266 -35.252547)","0","4518",,"Jamison Centre Bowman St","-35.252547","149.07266",,,"0","0"
"POINT (149.073239 -35.209103000000006)","0","4111",,"Evatt Shops Clancy St","-35.209103","149.073239",,,"0","0"
"POINT (149.070832 -35.419976)","0","1068",,"Tuggeranong Square Anketell St","-35.419976","149.070832",,,"0","0"
"POINT (149.08783 -35.348742)","0","1376",,"Hindmarsh Dr after Ball St","-35.348742","149.08783",,,"0","0"
"POINT (149.1297 -35.278507)","0","3406",,"City Interchange Plt 3","-35.278507","149.1297",,"https://www.transport.act.gov.au/__data/assets/pdf_file/0008/1244195/TC_station_city.pdf","0","0"
"POINT (149.11381 -35.174649)","0","4753",,"Gurrang Av after Marungul Av","-35.174649","149.11381",,,"0","0"
"POINT (149.111284 -35.433499)","0","1091",,"Calwell Park & Ride Johnson Dr","-35.433499","149.111284",,,"0","0"
"POINT (149.022064 -35.189139000000004)","0","4634",,"Kerrigan St before Douglas Waterhouse Dr","-35.189139","149.022064",,,"0","0"
"POINT (149.045751 -35.239205)","0","4471",,"Petterd St after Roseby St","-35.239205","149.045751",,,"0","0"
"POINT (149.091969 -35.326029999999996)","0","3019",,"The Woden School Denison St","-35.32603","149.091969",,,"0","0"
"POINT (149.071581 -35.391096000000005)","0","1301",,"Summerland Cct after Vanzetti Cr","-35.391096","149.071581",,,"0","0"
"POINT (149.121414 -35.254284000000006)","0","3189",,"Brigalow St after Scrivener St","-35.254284","149.121414",,,"0","0"
"POINT (149.144652 -35.248495)","0","4587",,"Antill St opp Rosevear Pl","-35.248495","149.144652",,,"0","0"
"POINT (149.101116 -35.441603)","0","1030",,"Duggan St before 2nd Andrew Cr","-35.441603","149.101116",,,"0","0"
"POINT (149.017684 -35.229774)","0","4827",,"Macnaughton St before Gore St","-35.229774","149.017684",,,"0","0"
"POINT (149.093537 -35.324106)","0","5128",,"Alfred Deakin High School Grounds SSO","-35.324106","149.093537",,,"0","0"
"POINT (149.108445 -35.466516999999996)","0","6016",,"Templestowe Av before Humphrey St","-35.466517","149.108445",,,"0","0"
"POINT (149.048194 -35.347359999999995)","0","1253",,"Fremantle Dr opp 1st McKail Cr","-35.34736","149.048194",,,"0","0"
"POINT (149.070649 -35.197244)","0","4101",,"Owen Dixon Dr before Clarey Cr","-35.197244","149.070649",,,"0","0"
"POINT (149.139805 -35.174589000000005)","0","6039",,"Horse Park Dr before David Walsh Av","-35.174589","149.139805",,,"0","0"
"POINT (149.110918 -35.224027)","0","4026",,"Maribyrnong Av before Tyrell Cct","-35.224027","149.110918",,,"0","0"
"POINT (149.103205 -35.472398999999996)","0","1681",,"Paperbark St after Galbraith Cl","-35.472399","149.103205",,,"0","0"
"POINT (149.096452 -35.36319400000001)","0","2479",,"Mawson Dr after Hurley St","-35.363194","149.096452",,,"0","0"
"POINT (149.115734 -35.188227000000005)","0","4727",,"Gundaroo Dr opp Gungahlin Lakes Club","-35.188227","149.115734",,,"0","0"
"POINT (149.13042099999998 -35.279332000000004)","0","1721",,"City Interchange Plt 11 Arrivals","-35.279332","149.130421",,"https://www.transport.act.gov.au/__data/assets/pdf_file/0008/1244195/TC_station_city.pdf","0","0"
"POINT (149.08004700000004 -35.459068)","0","1195",,"Callaway Cr at 1st Myles Connell Cr","-35.459068","149.080047",,,"0","0"
"POINT (149.06305 -35.208197999999996)","0","4076",,"Copland Dr before 2nd McEachern Cr","-35.208198","149.06305",,,"0","0"
"POINT (149.125687 -35.334903999999995)","0","3274",,"Golden Gr after Friendship St","-35.334904","149.125687",,,"0","0"
"POINT (149.133151 -35.310889)","0","2256",,"National Cct before Bourke St","-35.310889","149.133151",,,"0","0"
"POINT (149.011601 -35.218685)","0","4327",,"Southern Cross Dr after O'Reilly St","-35.218685","149.011601",,,"0","0"
"POINT (149.141536 -35.200275)","0","6186",,"Oodgeroo Av before Brissenden St","-35.200275","149.141536",,,"0","0"
"POINT (149.021402 -35.213971)","0","4393",,"Florey Dr opp Hayward St","-35.213971","149.021402",,,"0","0"
"POINT (149.02028700000002 -35.224266)","0","4859",,"Hardwick Cr after Powell St","-35.224266","149.020287",,,"0","0"
"POINT (149.096533 -35.363346)","0","2290",,"Mawson Dr after Wilkins St","-35.363346","149.096533",,,"0","0"
"POINT (149.086319 -35.242314)","0","4979",,"University of Canberra College St","-35.242314","149.086319",,,"0","0"
"POINT (149.068224 -35.256002)","0","4514",,"Redfern St after Dexter St","-35.256002","149.068224",,,"0","0"
"POINT (149.10519299999999 -35.462228)","0","1211",,"Tom Roberts Av before 1st Templestowe Av","-35.462228","149.105193",,,"0","0"
"POINT (149.09781 -35.215962)","0","4061",,"Canopus Cr after 1st Tucana St","-35.215962","149.09781",,,"0","0"
"POINT (149.00626499999998 -35.226982)","0","4950",,"26 Spofforth St","-35.226982","149.006265",,,"0","0"
"POINT (149.075663 -35.358228999999994)","0","2055",,"Macfarland Cr before 2nd Threlfall St","-35.358229","149.075663",,,"0","0"
"POINT (149.157569 -35.230562)","0","3429",,"Aspinall St opp Mary Kitson St","-35.230562","149.157569",,,"0","0"
"POINT (149.086841 -35.407527)","0","1600",,"Trinity Christian School McBryde Cr","-35.407527","149.086841",,,"0","0"
"POINT (149.09022 -35.180482)","0","4680",,"McClelland Av after Clemenger St","-35.180482","149.09022",,,"0","0"
"POINT (149.078202 -35.460817)","0","2717",,"Jim Pike Av after 1st Charlton Cr","-35.460817","149.078202",,,"0","0"
"POINT (149.138939 -35.288090000000004)","0","3033",,"Constitution Av after Anzac Park West","-35.28809","149.138939",,,"0","0"
"POINT (149.040404 -35.247157)","0","4288",,"Belconnen HS Murranji St","-35.247157","149.040404",,,"0","0"
"POINT (149.076071 -35.413455)","0","1404",,"Newman-Morris Cct after 1st Collocott Cr","-35.413455","149.076071",,,"0","0"
"POINT (149.109589 -35.427562)","0","1490",,"Clift Cr before 2nd Kiddle Cr","-35.427562","149.109589",,,"0","0"
"POINT (149.114545 -35.19795500000001)","0","6075",,"Grampians St before Clear St","-35.197955","149.114545",,,"0","0"
"POINT (149.111287 -35.221306)","0","4029",,"Maribyrnong Av after Moruya Cct","-35.221306","149.111287",,,"0","0"
"POINT (149.139696 -35.17577100000001)","0","6038",,"Horse Park Dr after Gundaroo Dr","-35.175771","149.139696",,,"0","0"
"POINT (149.104996 -35.35438)","0","2099",,"Culgoa Cct after 1st Jindalee Cr","-35.35438","149.104996",,,"0","0"
"POINT (149.04256 -35.313407)","0","3331",,"Fred Daly Av after Yorston St","-35.313407","149.04256",,,"0","0"
"POINT (149.047096 -35.34468)","0","1248",,"Streeton Dr before 1st Fremantle Dr","-35.34468","149.047096",,,"0","0"
"POINT (149.041986 -35.330037)","0","2122",,"Dixon Dr opp Warragamba Av","-35.330037","149.041986",,,"0","0"
"POINT (149.059279 -35.395814)","0","1294",,"O'Halloran Cct opp 2nd Snodgrass Cr","-35.395814","149.059279",,,"0","0"
"POINT (149.037159 -35.231965)","0","4349",,"Southern Cross Early Childhood School Wirraway Cr","-35.231965","149.037159",,,"0","0"
"POINT (149.107923 -35.462497)","0","1691",,"Templestowe Av after 1st Barringer St","-35.462497","149.107923",,,"0","0"
"POINT (149.149495 -35.291778)","0","3074",,"Blamey Cr before Watt St","-35.291778","149.149495",,,"0","0"
"POINT (149.145318 -35.33147)","0","2361",,"McIntyre St after Stuart St","-35.33147","149.145318",,,"0","0"
"POINT (149.092817 -35.241524)","0","4605",,"Thynne St opp Eardley St","-35.241524","149.092817",,,"0","0"
"POINT (149.123083 -35.266044)","0","4611",,"McCaughey St before Condamine St","-35.266044","149.123083",,,"0","0"
"POINT (149.09828000000005 -35.228101)","0","5011",,"Baldwin Dr before 2nd Maribyrnong Av","-35.228101","149.09828",,,"0","0"
"POINT (149.130996 -35.426486)","0","1131",,"Heagney Cr before Deamer Cr","-35.426486","149.130996",,,"0","0"
"POINT (149.05115200000003 -35.382090999999996)","0","1279",,"Boddington Cr after Carleton St","-35.382091","149.051152",,,"0","0"
"POINT (149.071482 -35.246351000000004)","0","4534",,"Hennessy St after Strong Pl","-35.246351","149.071482",,,"0","0"
"POINT (149.11598 -35.196146999999996)","0","4782",,"Kosciuszko Av before Grampians St","-35.196147","149.11598",,,"0","0"
"POINT (149.127772 -35.40915800000001)","0","1150",,"Coyne St opp Carson St","-35.409158","149.127772",,,"0","0"
"POINT (149.073249 -35.385438)","0","1792",,"Summerland Cct after Mason St","-35.385438","149.073249",,,"0","0"
"POINT (149.153582 -35.288476)","0","3089",,"White St opp Campbell Shops","-35.288476","149.153582",,,"0","0"
"POINT (149.053334 -35.357755)","0","2495",,"Kalgoorlie Cr before 2nd Bendigo St","-35.357755","149.053334",,,"0","0"
"POINT (149.1048 -35.153439)","0","6120",,"Grenfell Av after Holdford St","-35.153439","149.1048",,,"0","0"
"POINT (149.020259 -35.195212)","0","3444",,"Lance Hill Av before Fairlight St","-35.195212","149.020259",,,"0","0"
"POINT (149.088941 -35.37298300000001)","0","2675",,"142 Beasley St","-35.372983","149.088941",,,"0","0"
"POINT (149.08243800000002 -35.418192)","0","1447",,"Charleston St before 1st William Hudson Cr","-35.418192","149.082438",,,"0","0"
"POINT (149.08312200000003 -35.339215)","0","2033",,"Melrose Dr before Launceston St","-35.339215","149.083122",,,"0","0"
"POINT (149.152152 -35.186391)","0","6069",,"Anthony Rolfe Av after DeBortoli St","-35.186391","149.152152",,,"0","0"
"POINT (149.031137 -35.230327)","0","4344",,"Castieau St after Hodges St","-35.230327","149.031137",,,"0","0"
"POINT (149.100868 -35.167208)","0","4873",,"Horse Park Dr after Arrabri St","-35.167208","149.100868",,,"0","0"
"POINT (149.11453600000002 -35.178653000000004)","0","4746",,"Amagula Av after Taggerty St","-35.178653","149.114536",,,"0","0"
"POINT (149.098205 -35.310115)","0","2307",,"Novar St before Weston St","-35.310115","149.098205",,,"0","0"
"POINT (149.116782 -35.445646)","0","1109",,"Louis Loder St at 1st Vonwiller Cr","-35.445646","149.116782",,,"0","0"
"POINT (149.034683 -35.193829)","0","4217",,"Kerrigan St after Winder Pl","-35.193829","149.034683",,,"0","0"
"POINT (149.088358 -35.416298)","0","1452",,"Clive Steele Av before Harkness St","-35.416298","149.088358",,,"0","0"
"POINT (149.159248 -35.183203000000006)","0","6204",,"Bettong Av after Pipistrelle St","-35.183203","149.159248",,,"0","0"
"POINT (149.10706399999998 -35.344997)","0","2539",,"Gilmore Cr opp 1st Eldridge Cr","-35.344997","149.107064",,,"0","0"
"POINT (149.122761 -35.24709)","0","3121",,"Mackennal St at Earle St","-35.24709","149.122761",,,"0","0"
"POINT (149.144497 -35.243437)","0","3244",,"Bradfield St after Frencham St","-35.243437","149.144497",,,"0","0"
"POINT (149.140885 -35.228262)","0","4929",,"Canberra Racecourse Randwick Rd","-35.228262","149.140885",,,"0","0"
"POINT (149.044625 -35.325386)","0","2812",,"Cotter Rd after Harold White Av","-35.325386","149.044625",,,"0","0"
"POINT (149.156005 -35.337065)","0","2342",,"130 Goyder St","-35.337065","149.156005",,,"0","0"
"POINT (149.09624 -35.16676100000001)","0","4846",,"Plimsoll Dr after Skermer St","-35.166761","149.09624",,,"0","0"
"POINT (149.112619 -35.367296)","0","2460",,"Isaacs Shops Julia Flynn Av","-35.367296","149.112619",,,"0","0"
"POINT (149.105985 -35.468242)","0","1686",,"Paperbark St before Jane Sutherland St","-35.468242","149.105985",,,"0","0"
"POINT (149.074034 -35.346726000000004)","0","2066",,"Launceston St after Dennes Pl","-35.346726","149.074034",,,"0","0"
"POINT (149.048641 -35.355708)","0","2582",,"Streeton Dr after Namatjira Dr","-35.355708","149.048641",,,"0","0"
"POINT (149.102228 -35.338147)","0","2267",,"Kitchener St before Lynch St","-35.338147","149.102228",,,"0","0"
"POINT (149.093547 -35.405553999999995)","0","1178",,"Amsinck St after McBryde Cr","-35.405554","149.093547",,,"0","0"
"POINT (149.136252 -35.248355)","0","4583",,"Antill St before Pigot St","-35.248355","149.136252",,,"0","0"
"POINT (149.065303 -35.414225)","0","49",,"Tuggeranong Interchange Plt 5","-35.414225","149.065303",,"https://www.transport.act.gov.au/__data/assets/pdf_file/0013/1244200/TC_station_tuggeranong.pdf","0","0"
"POINT (149.114068 -35.267055)","0","3107",,"Miller St after Syme Cr","-35.267055","149.114068",,,"0","0"
"POINT (149.111205 -35.406197)","0","1513",,"Castleton Cr before Wray Pl","-35.406197","149.111205",,,"0","0"
"POINT (149.053153 -35.360207)","0","2166",,"Kalgoorlie Cr before Callide St","-35.360207","149.053153",,,"0","0"
"POINT (149.144723 -35.178853000000004)","0","6338",,"David Walsh Av opp Max Purnell St","-35.178853","149.144723",,,"0","0"
"POINT (149.11395 -35.163109000000006)","0","4707",,"Mirrabei Dr opp Crackajack Way","-35.163109","149.11395",,,"0","0"
"POINT (149.015658 -35.202045)","0","3437",,"Archall St after Cashion Ct","-35.202045","149.015658",,,"0","0"
"POINT (149.098671 -35.401696)","0","1340",,"Sternberg Cr after Comrie St","-35.401696","149.098671",,,"0","0"
"POINT (149.096054 -35.174791)","0","6110",,"Kingslande Pde opp Casey Market Town","-35.174791","149.096054",,,"0","0"
"POINT (149.155945 -35.239906)","0","3168",,"Knox St at 2nd Higinbotham St","-35.239906","149.155945",,,"0","0"
"POINT (149.088905 -35.431554999999996)","0","1072",,"Ellerston Av opp Keverstone Cct","-35.431555","149.088905",,,"0","0"
"POINT (149.107655 -35.363640999999994)","0","2110",,"Bromby St after Julia Flynn Av","-35.363641","149.107655",,,"0","0"
"POINT (149.154778 -35.283097)","0","4665",,"Fairbairn Av after Treloar Cr","-35.283097","149.154778",,,"0","0"
"POINT (149.04955 -35.349007)","0","2423",,"Fremantle Dr after Bunbury St","-35.349007","149.04955",,,"0","0"
"POINT (149.058672 -35.362777)","0","2171",,"Kalgoorlie Cr opp Kambalda Cr","-35.362777","149.058672",,,"0","0"
"POINT (149.064084 -35.238965)","0","5501",,"Westfield Belconnen Plt 1","-35.238965","149.064084",,"https://www.transport.act.gov.au/__data/assets/pdf_file/0014/1244201/TC_station_westfield.pdf","0","0"
"POINT (149.107382 -35.313062)","0","2223",,"Hopetoun Cct after Grose St","-35.313062","149.107382",,,"0","0"
"POINT (149.098659 -35.469931)","0","1262",,"Wiburd St before Pockett Av","-35.469931","149.098659",,,"0","0"
"POINT (149.096678 -35.213877000000004)","0","4058",,"Canopus Cr after Fornax St","-35.213877","149.096678",,,"0","0"
"POINT (149.06747 -35.383371999999994)","0","1353",,"Summerland Cct before Hutchison Cr","-35.383372","149.06747",,,"0","0"
"POINT (149.041742 -35.35240600000001)","0","2522",,"Streeton Dr opp Darwinia Tce","-35.352406","149.041742",,,"0","0"
"POINT (149.1812 -35.327405999999996)","0","2406",,"Albany St before Collie St","-35.327406","149.1812",,,"0","0"
"POINT (149.072562 -35.260686)","0","4645",,"Lyttleton Cr before Bindubi St","-35.260686","149.072562",,,"0","0"
"POINT (149.04286299999998 -35.197113)","0","4490",,"Tillyard Dr opp Barber Cr","-35.197113","149.042863",,,"0","0"
"POINT (149.046979 -35.320301)","0","2840",,"Annabelle View before Harold White Av","-35.320301","149.046979",,,"0","0"
"POINT (149.094704 -35.47449)","0","1638",,"Forsythe St before Pockett Av","-35.47449","149.094704",,,"0","0"
"POINT (149.138262 -35.278548)","0","3054",,"Ainslie Av after Doonkuna St","-35.278548","149.138262",,,"0","0"
"POINT (149.115685 -35.400242)","0","1161",,"Bugden Av after 1st Dash Cr","-35.400242","149.115685",,,"0","0"
"POINT (149.058702 -35.212967)","0","4265",,"Copland College Verbrugghen St","-35.212967","149.058702",,,"0","0"
"POINT (149.096393 -35.325357000000004)","0","2275",,"Kent St opp Alfred Deakin HS","-35.325357","149.096393",,,"0","0"
"POINT (149.17000900000002 -35.372115)","0","6666",,"Alexander Maconochie Centre","-35.372115","149.170009",,,"0","0"
"POINT (149.09075900000002 -35.24282)","0","4005",,"Haydon Dr opp Radford College","-35.24282","149.090759",,,"0","0"
"POINT (149.11105600000002 -35.406056)","0","1512",,"Castleton Cr after Peeler Pl","-35.406056","149.111056",,,"0","0"
"POINT (149.046677 -35.199292)","0","4155",,"Spalding St before Flierl Pl","-35.199292","149.046677",,,"0","0"
"POINT (148.995136 -35.229543)","0","5050",,"Pro Hart Av after McClymont Way","-35.229543","148.995136",,,"0","0"
"POINT (149.115262 -35.448128000000004)","0","1114",,"44 Louis Loder St","-35.448128","149.115262",,,"0","0"
"POINT (149.135524 -35.273182)","0","3385",,"Fawkner St before Elouera St","-35.273182","149.135524",,,"0","0"
"POINT (149.114272 -35.401436)","0","1162",,"Bugden Av after Partridge St","-35.401436","149.114272",,,"0","0"
"POINT (149.027549 -35.341193)","0","2138",,"22 Eucumbene Dr","-35.341193","149.027549",,,"0","0"
"POINT (149.112965 -35.230793)","0","4821",,"Ellenborough St before Maribyrnong Av","-35.230793","149.112965",,,"0","0"
"POINT (149.179358 -35.322006)","0","2614",,"83 - 85 Gladstone St","-35.322006","149.179358",,,"0","0"
"POINT (149.156836 -35.20205)","0","6050",,"Nullarbor Av after Adder St","-35.20205","149.156836",,,"0","0"
"POINT (149.12721200000001 -35.418268)","0","1543",,"Hambidge Cr opp 64","-35.418268","149.127212",,,"0","0"
"POINT (149.121427 -35.249699)","0","3377",,"Wattle St before Miller St","-35.249699","149.121427",,,"0","0"
"POINT (149.119025 -35.314611)","0","2594",,"Melbourne Av at National Cct","-35.314611","149.119025",,,"0","0"
"POINT (149.112316 -35.148553)","0","6115",,"Sutherland Cr opp Chadwick St","-35.148553","149.112316",,,"0","0"
"POINT (149.10153300000002 -35.213747999999995)","0","4044",,"Chuculba Cr before Lenehan St","-35.213748","149.101533",,,"0","0"
"POINT (149.12515 -35.415211)","0","1143",,"Proctor St opp Maclean St","-35.415211","149.12515",,,"0","0"
"POINT (149.09108999999998 -35.252838)","0","4975",,"Calvary Private Hospital Mary Potter Cct","-35.252838","149.09109",,,"0","0"
"POINT (149.051368 -35.389192)","0","1284",,"Boddington Cr after Bateman St","-35.389192","149.051368",,,"0","0"
"POINT (149.10286599999998 -35.233508)","0","4016",,"Maribyrnong Av opp Gwydir Square","-35.233508","149.102866",,,"0","0"
"POINT (149.118989 -35.177828999999996)","0","4724",,"Paul Coe Cr after Galmarra St","-35.177829","149.118989",,,"0","0"
"POINT (149.137217 -35.417691)","0","1560",,"Louisa Lawson Cr before Gellatly Pl","-35.417691","149.137217",,,"0","0"
"POINT (149.140879 -35.264373000000006)","0","3145",,"Cowper St after 1st Bonney St","-35.264373","149.140879",,,"0","0"
"POINT (149.140829 -35.27362)","0","0300",,"Ainslie PS Donaldson St","-35.27362","149.140829",,,"0","0"
"POINT (149.050413 -35.190482)","0","4237",,"Bingley Cr after 2nd Rochford St","-35.190482","149.050413",,,"0","0"
"POINT (149.089967 -35.326753000000004)","0","3025",,"Carruthers St opp Groom St","-35.326753","149.089967",,,"0","0"
"POINT (149.010708 -35.215744)","0","4368",,"Osburn Dr opp O'Reilly St","-35.215744","149.010708",,,"0","0"
"POINT (149.162279 -35.25202)","0","3203",,"Madigan St before Mackenzie St","-35.25202","149.162279",,,"0","0"
"POINT (149.08436899999998 -35.394195)","0","1319",,"Wheeler Cr before Wanniassa HS","-35.394195","149.084369",,,"0","0"
"POINT (149.13703999999998 -35.309746000000004)","0","2376",,"Australian Federal Police College Brisbane Av","-35.309746","149.13704",,,"0","0"
"POINT (149.101597 -35.188677)","0","5075",,"Lexcen Av opp Temperley St","-35.188677","149.101597",,,"0","0"
"POINT (149.038246 -35.204817)","0","4150",,"Tillyard Dr after Blackwell Cct","-35.204817","149.038246",,,"0","0"
"POINT (149.170613 -35.327768)","0","1771",,"Barrier St before Isa St","-35.327768","149.170613",,,"0","0"
"POINT (149.125561 -35.279102)","0","1821",,"City West Marcus Clarke St","-35.279102","149.125561",,,"0","0"
"POINT (149.074572 -35.401228)","0","1372",,"Drakeford Dr before Taverner St","-35.401228","149.074572",,,"0","0"
"POINT (149.110352 -35.438693)","0","1085",,"Calwell PS Casey Cr","-35.438693","149.110352",,,"0","0"
"POINT (149.122128 -35.168446)","0","5903",,"Burdekin Av before Traine Ct","-35.168446","149.122128",,,"0","0"
"POINT (149.010712 -35.21653)","0","4367",,"O'Reilly St before Osburn Dr","-35.21653","149.010712",,,"0","0"
"POINT (149.084205 -35.448164)","0","1240",,"Preddy Way at Fingleton Cr","-35.448164","149.084205",,,"0","0"
"POINT (149.123505 -35.197691999999996)","0","4779",,"Kosciuszko Av opp Bollard St","-35.197692","149.123505",,,"0","0"
"POINT (149.043421 -35.211981)","0","4200",,"Companion Cr opp 1st Vickers Cr","-35.211981","149.043421",,,"0","0"
"POINT (149.121572 -35.26383)","0","4610",,"Macpherson St opp O'Connor Shops","-35.26383","149.121572",,,"0","0"
"POINT (149.09741699999998 -35.397873)","0","1367",,"Langdon Av before 2nd Brunton St","-35.397873","149.097417",,,"0","0"
"POINT (149.016027 -35.226886)","0","4311",,"Beaurepaire Cr after Starke St","-35.226886","149.016027",,,"0","0"
"POINT (149.044806 -35.32445900000001)","0","2842",,"Harold White Av after Woodberry Av","-35.324459","149.044806",,,"0","0"
"POINT (149.055707 -35.191047999999995)","0","4241",,"Bingley Cr at 1st Brophy St","-35.191048","149.055707",,,"0","0"
"POINT (149.047783 -35.212405)","0","4839",,"Kingsford Smith Dr opp Companion Cr","-35.212405","149.047783",,,"0","0"
"POINT (149.065583 -35.381402)","0","1352",,"Marconi Cr after Hutchison Cr","-35.381402","149.065583",,,"0","0"
"POINT (149.14181000000002 -35.259824)","0","3150",,"Cowper St before Suttor St","-35.259824","149.14181",,,"0","0"
"POINT (149.048365 -35.377990999999994)","0","1274",,"Barritt St after Kambah Pool Rd","-35.377991","149.048365",,,"0","0"
"POINT (149.027668 -35.343932)","0","1637",,"Weston Creek Terminus Hindmarsh Dr","-35.343932","149.027668",,,"0","0"
"POINT (149.00322 -35.209343)","0","0405",,"MacFarlane Burnet Av after Constance Stone St","-35.209343","149.00322",,,"0","0"
"POINT (149.10102700000002 -35.374983)","0","2475",,"Marshall St opp Farrer Shops","-35.374983","149.101027",,,"0","0"
"POINT (149.05903600000002 -35.390376)","0","1289",,"O'Halloran Cct opp Boddington Cr","-35.390376","149.059036",,,"0","0"
"POINT (149.088799 -35.431594)","0","1071",,"Ellerston Av after Keverstone Cct","-35.431594","149.088799",,,"0","0"
"POINT (149.114077 -35.425383000000004)","0","1494",,"Heagney Cr before Beattie Cr","-35.425383","149.114077",,,"0","0"
"POINT (149.125257 -35.415327000000005)","0","1144",,"Proctor St after MacLean St","-35.415327","149.125257",,,"0","0"
"POINT (149.130429 -35.18271)","0","1790",,"Anthony Rolfe Av after Gundaroo Rd","-35.18271","149.130429",,,"0","0"
"POINT (149.074514 -35.336459999999995)","0","2501",,"41 Devonport St","-35.33646","149.074514",,,"0","0"
"POINT (149.097607 -35.436485)","0","1577",,"Duggan St before Outtrim Av","-35.436485","149.097607",,,"0","0"
"POINT (149.12472 -35.166132)","0","5902",,"Burdekin Av opp Good Shepherd PS","-35.166132","149.12472",,,"0","0"
"POINT (149.03446 -35.354636)","0","2157",,"Perry Dr after 2nd Sidaway St","-35.354636","149.03446",,,"0","0"
"POINT (149.079126 -35.3963)","0","1324",,"Fincham Cr after Wheeler Cr","-35.3963","149.079126",,,"0","0"
"POINT (149.10241000000002 -35.407621)","0","1836",,"Ashley Dr before Erindale Dr","-35.407621","149.10241",,,"0","0"
"POINT (149.028369 -35.225918)","0","4362",,"Cranleigh School Starke St","-35.225918","149.028369",,,"0","0"
"POINT (149.099374 -35.210281)","0","4049",,"92 Chuculba Cr","-35.210281","149.099374",,,"0","0"
"POINT (149.027823 -35.34382)","0","2139",,"Hindmarsh Dr opp Weston Creek Terminus","-35.34382","149.027823",,,"0","0"
"POINT (149.077728 -35.33051)","0","2005",,"Carruthers St opp Curtin PS","-35.33051","149.077728",,,"0","0"
"POINT (149.097833 -35.35990000000001)","0","2294",,"Mawson PS Ainsworth St","-35.3599","149.097833",,,"0","0"
"POINT (149.09862900000002 -35.361672999999996)","0","2480",,"Ainsworth St after Mawson Dr","-35.361673","149.098629",,,"0","0"
"POINT (149.11667 -35.445576)","0","1110",,"Louis Loder St before 2nd Hartung Cr","-35.445576","149.11667",,,"0","0"
"POINT (149.126469 -35.338756)","0","3278",,"Golden Gr after La Perouse St","-35.338756","149.126469",,,"0","0"
"POINT (149.08364699999998 -35.461984)","0","1234",,"Knoke Av opp Jim Pike Av","-35.461984","149.083647",,,"0","0"
"POINT (149.13851 -35.265386)","0","3143",,"Cowper St after Limestone Av","-35.265386","149.13851",,,"0","0"
"POINT (149.11330900000002 -35.200609)","0","6333",,"Langtree Cr opp Jellicoe St","-35.200609","149.113309",,,"0","0"
"POINT (149.13312 -35.181670000000004)","0","5085",,"Gozzard St before Swain St","-35.18167","149.13312",,,"0","0"
"POINT (149.151253 -35.286234)","0","3091",,"Blamey Cr before Edmondson St","-35.286234","149.151253",,,"0","0"
"POINT (149.16237900000002 -35.28529)","0","2262",,"Fairbairn Av after Mount Ainslie Dr","-35.28529","149.162379",,,"0","0"
"POINT (149.100475 -35.225262)","0","5007",,"UC High School Kaleen Baldwin Dr","-35.225262","149.100475",,,"0","0"
"POINT (149.137537 -35.319444)","0","2329",,"Giles St before Canberra Av","-35.319444","149.137537",,,"0","0"
"POINT (149.124469 -35.251412)","0","3347",,"Brigalow St opp Lyneham Shops","-35.251412","149.124469",,,"0","0"
"POINT (149.114285 -35.425238)","0","1495",,"Heagney Cr before 2nd Mclorinan St","-35.425238","149.114285",,,"0","0"
"POINT (149.05388100000002 -35.192384999999994)","0","4887",,"Bingley Cr before Bazley St","-35.192385","149.053881",,,"0","0"
"POINT (149.06376300000002 -35.205053)","0","4081",,"Baddeley Cr after Broadby Cl","-35.205053","149.063763",,,"0","0"
"POINT (149.109273 -35.172226)","0","4694",,"Wanganeen Av after Jabanungga Av","-35.172226","149.109273",,,"0","0"
"POINT (149.016593 -35.205839000000005)","0","4379",,"Archdall St opp Barrett St","-35.205839","149.016593",,,"0","0"
"POINT (149.013652 -35.219837)","0","4953",,"Beaurepaire Cr after Southern Cross Dr","-35.219837","149.013652",,,"0","0"
"POINT (149.05236599999998 -35.240287)","0","4476",,"Petterd St opp Page Shops","-35.240287","149.052366",,,"0","0"
"POINT (149.100512 -35.466561)","0","1261",,"Tom Roberts Av after Wiburd St","-35.466561","149.100512",,,"0","0"
"POINT (149.09179699999999 -35.402094)","0","1468",,"Wheeler Cr before Sternberg Cr","-35.402094","149.091797",,,"0","0"
"POINT (149.12873000000002 -35.340313)","0","3283",,"La Perouse St before Nuyts St","-35.340313","149.12873",,,"0","0"
"POINT (149.10351 -35.42265)","0","1841",,"Ashley Dr after Isabella Dr","-35.42265","149.10351",,,"0","0"
"POINT (149.131802 -35.169542)","0","6032",,"Katherine Av before Cooloola St","-35.169542","149.131802",,,"0","0"
"POINT (149.129568 -35.162708)","0","6128",,"Horse Park Dr before Roden Cutler Dr","-35.162708","149.129568",,,"0","0"
"POINT (149.109677 -35.205259000000005)","0","6148",,"Langtree Cr opp 1st Cocoparra Cr","-35.205259","149.109677",,,"0","0"
"POINT (149.128794 -35.429424)","0","1127",,"Deamer Cr opp 1st Nina Jones Cr","-35.429424","149.128794",,,"0","0"
"POINT (149.015742 -35.231953000000004)","0","4943",,"Drake Brockman Dr opp Macnaughton St","-35.231953","149.015742",,,"0","0"
"POINT (149.029989 -35.298937)","0","2834",,"Holborow Av after Greenwood St","-35.298937","149.029989",,,"0","0"
"POINT (149.04538700000003 -35.225891)","0","4422",,"Krefft St opp 1st Ennor Cr","-35.225891","149.045387",,,"0","0"
"POINT (149.034027 -35.250389)","0","4455",,"Erldunda Cct opp Hawker PS","-35.250389","149.034027",,,"0","0"
"POINT (149.05659 -35.34057700000001)","0","2201",,"Namatjira Dr before Conder St","-35.340577","149.05659",,,"0","0"
"POINT (149.123068 -35.271669)","0","4615",,"McCaughey St after Masson St","-35.271669","149.123068",,,"0","0"
"POINT (149.13443 -35.251121000000005)","0","946",,"Dickson Interchange Plt 2","-35.251121","149.13443",,"https://www.transport.act.gov.au/__data/assets/pdf_file/0011/1244198/TC_station_dickson.pdf","0","0"
"POINT (149.02991699999998 -35.223073)","0","4907",,"Southern Cross Dr after 1st Starke St","-35.223073","149.029917",,,"0","0"
"POINT (149.090131 -35.249345)","0","4819",,"CIT Bruce Haydon Dr","-35.249345","149.090131",,,"0","0"
"POINT (149.031995 -35.24377)","0","4294",,"Murranji St after Delamere St","-35.24377","149.031995",,,"0","0"
"POINT (149.036667 -35.320403000000006)","0","2806",,"Steve Irwin Av after John Gorton Dr","-35.320403","149.036667",,,"0","0"
"POINT (149.038717 -35.22153)","0","4416",,"O'Loghlen St before 2nd Milford St","-35.22153","149.038717",,,"0","0"
"POINT (149.041594 -35.352503999999996)","0","2299",,"Streeton Dr after Darwinia Tce","-35.352504","149.041594",,,"0","0"
"POINT (149.182785 -35.338688)","0","2824",,"Fyshwick Park & Ride Iron Knob St","-35.338688","149.182785",,,"0","0"
"POINT (149.120285 -35.272365)","0","3101",,"Boldrewood St before Barry Dr","-35.272365","149.120285",,,"0","0"
"POINT (149.141326 -35.276275)","0","3235",,"Gooreen St after Batman St","-35.276275","149.141326",,,"0","0"
"POINT (149.056882 -35.373045)","0","1417",,"Tuggeranong Pkwy after Sulwood Dr","-35.373045","149.056882",,,"0","0"
"POINT (149.139544 -35.204822)","0","6081",,"Hoskins St before Daniels St","-35.204822","149.139544",,,"0","0"
"POINT (149.190282 -35.313168)","0","3469",,"8 Brindabella Cct","-35.313168","149.190282",,,"0","0"
"POINT (149.076287 -35.2026)","0","4669",,"Owen Dixon Dr after Badenoch Cr","-35.2026","149.076287",,,"0","0"
"POINT (149.029101 -35.219426)","0","4402",,"Dalley Cr before 1st Gurner St","-35.219426","149.029101",,,"0","0"
"POINT (149.11602 -35.373262)","0","2465",,"Julia Flynn Av after Huffer Cl","-35.373262","149.11602",,,"0","0"
"POINT (149.042233 -35.350883)","0","2523",,"Streeton Dr opp Bangalay Cr","-35.350883","149.042233",,,"0","0"
"POINT (149.16526200000004 -35.239647)","0","3176",,"Antill St opp Old Watson Terminus","-35.239647","149.165262",,,"0","0"
"POINT (149.149166 -35.326259)","0","2444",,"Kootara Cr before McMillan Cr","-35.326259","149.149166",,,"0","0"
"POINT (149.145545 -35.317088)","0","2235",,"Wentworth Av before Dawes St","-35.317088","149.145545",,,"0","0"
"POINT (149.134189 -35.2851)","0","3005",,"National Convention Centre Constitution Av","-35.2851","149.134189",,,"0","0"
"POINT (149.15841799999998 -35.333006)","0","2346",,"Kootara Cr after Deeban Pl","-35.333006","149.158418",,,"0","0"
"POINT (149.147373 -35.319203)","0","3360",,"Canberra Railway Stn Wentworth Av","-35.319203","149.147373",,,"0","0"
"POINT (149.160208 -35.196452)","0","6057",,"Cultivation St opp Granites St","-35.196452","149.160208",,,"0","0"
"POINT (149.039023 -35.333656)","0","2676",,"Dixon Dr before Blackwood Tce","-35.333656","149.039023",,,"0","0"
"POINT (149.09831 -35.319342999999996)","0","2279",,"Kent St opp Canberra Private Hospital","-35.319343","149.09831",,,"0","0"
"POINT (149.098298 -35.317013)","0","2730",,"Kent St after Macartney Cr","-35.317013","149.098298",,,"0","0"
"POINT (149.048917 -35.33265000000001)","0","2513",,"Mulley St opp Canberra Montessori School","-35.33265","149.048917",,,"0","0"
"POINT (149.035209 -35.205979)","0","4148",,"Tillyard Dr opp Charnwood Shops","-35.205979","149.035209",,,"0","0"
"POINT (149.13734 -35.275804)","0","3389",,"Doonkuna St after Donaldson St","-35.275804","149.13734",,,"0","0"
"POINT (149.03524199999998 -35.196034000000004)","0","4216",,"Lhotsky St after Sly Pl","-35.196034","149.035242",,,"0","0"
"POINT (149.114931 -35.154709999999994)","0","6106",,"Mirrabei Dr after O'Keefe Av","-35.15471","149.114931",,,"0","0"
"POINT (149.149623 -35.256821)","0","3216",,"Officer Cr after Beeby St","-35.256821","149.149623",,,"0","0"
"POINT (149.09368500000002 -35.392174)","0","1362",,"Langdon Av before Billson Pl","-35.392174","149.093685",,,"0","0"
"POINT (149.068207 -35.392579)","0","1300",,"Namadgi School O'Halloran Cct","-35.392579","149.068207",,,"0","0"
"POINT (149.166842 -35.295108)","0","3061",,"General Bridges Dr after Harrison Rd","-35.295108","149.166842",,,"0","0"
"POINT (149.046473 -35.335625)","0","2397",,"Blackwood Tce after Pearson St","-35.335625","149.046473",,,"0","0"
"POINT (149.082409 -35.41809)","0","1448",,"Charleston St after Hallstrom Cct","-35.41809","149.082409",,,"0","0"
"POINT (149.032498 -35.205488)","0","4206",,"Charnwood Shops Lhotsky St","-35.205488","149.032498",,,"0","0"
"POINT (149.115522 -35.257307)","0","3112",,"Miller St after Quandong St","-35.257307","149.115522",,,"0","0"
"POINT (149.100907 -35.441602)","0","1029",,"Duggan St before 1st Pennington Cr","-35.441602","149.100907",,,"0","0"
"POINT (149.030829 -35.230222999999995)","0","4343",,"Castieau St after Dethridge St","-35.230223","149.030829",,,"0","0"
"POINT (148.99811 -35.232887)","0","5039",,"Pro Hart Av opp Stockdill Dr","-35.232887","148.99811",,,"0","0"
"POINT (149.086149 -35.434802000000005)","0","1044",,"Hurtle Av after 1st Noarlunga Cr","-35.434802","149.086149",,,"0","0"
"POINT (149.15868600000002 -35.242584)","0","3170",,"Knox St after 1st Higinbotham St","-35.242584","149.158686",,,"0","0"
"POINT (149.07530500000001 -35.35215)","0","2062",,"Eggleston Cr opp Chifley Shops","-35.35215","149.075305",,,"0","0"
"POINT (149.095371 -35.189887)","0","5068",,"Temperley St before Krantzcke Cct","-35.189887","149.095371",,,"0","0"
"POINT (149.086118 -35.458121000000006)","0","1191",,"Knoke Av opp Gordon PS","-35.458121","149.086118",,,"0","0"
"POINT (149.07388400000002 -35.217428000000005)","0","4131",,"McKellar Shops Dumas St","-35.217428","149.073884",,,"0","0"
"POINT (149.05184 -35.253673)","0","4438",,"Shumack St before 2nd Abernethy St","-35.253673","149.05184",,,"0","0"
"POINT (149.152926 -35.336754)","0","2341",,"Goyder St after Kyeema St","-35.336754","149.152926",,,"0","0"
"POINT (149.081591 -35.320926)","0","2020",,"McCulloch St after Reynolds St","-35.320926","149.081591",,,"0","0"
"POINT (149.01606600000002 -35.219386)","0","4329",,"Southern Cross Dr before 1st Starke St","-35.219386","149.016066",,,"0","0"
"POINT (149.10488600000002 -35.409963)","0","1508",,"Castleton Cr before Easterbrook Pl","-35.409963","149.104886",,,"0","0"
"POINT (149.06875 -35.197841)","0","4098",,"Clarey Cr before Scattergood Pl","-35.197841","149.06875",,,"0","0"
"POINT (149.075039 -35.387624)","0","1357",,"Summerland Cct after 2nd Lee-Steere Cr","-35.387624","149.075039",,,"0","0"
"POINT (149.104675 -35.436062)","0","1081",,"Outtrim Av after 2nd Carter Cr","-35.436062","149.104675",,,"0","0"
"POINT (149.11579200000003 -35.427259)","0","1556",,"Richardson Shops Clift Cr","-35.427259","149.115792",,,"0","0"
"POINT (149.095269 -35.46759)","0","1225",,"Pockett Av before 2nd Tregellas Cr","-35.46759","149.095269",,,"0","0"
"POINT (149.117961 -35.416911999999996)","0","1538",,"Norriss St opp 2nd Woodburn St","-35.416912","149.117961",,,"0","0"
"POINT (149.06088799999998 -35.360351)","0","2172",,"Kalgoorlie Cr before 2nd Jarrahdale St","-35.360351","149.060888",,,"0","0"
"POINT (149.10908700000002 -35.359623)","0","2106",,"Ngunawal Dr after Kareelah Vsta","-35.359623","149.109087",,,"0","0"
"POINT (149.13726 -35.4176)","0","1561",,"Louisa Lawson Cr after 1st May Maxwell Cr","-35.4176","149.13726",,,"0","0"
"POINT (149.125783 -35.276452)","0","4529",,"ANU Rimmer St","-35.276452","149.125783",,,"0","0"
"POINT (149.09281000000001 -35.402386)","0","1335",,"Sternberg Cr opp Houston St","-35.402386","149.09281",,,"0","0"
"POINT (149.059737 -35.356553000000005)","0","2289",,"Yambina Cr after Nemarang Cr","-35.356553","149.059737",,,"0","0"
"POINT (149.102838 -35.428922)","0","1016",,"Ellerston Av after Ashley Dr","-35.428922","149.102838",,,"0","0"
"POINT (149.050959 -35.213177)","0","4262",,"Melba HS Verbrugghen St","-35.213177","149.050959",,,"0","0"
"POINT (149.095276 -35.189759)","0","5071",,"Temperley St before 2nd McRitchie Cct","-35.189759","149.095276",,,"0","0"
"POINT (149.163207 -35.292651)","0","3424",,"Milne Bay Rd before Tobruk Rd","-35.292651","149.163207",,,"0","0"
"POINT (149.107483 -35.40265)","0","1166",,"Bugden Av after Sternberg Cr","-35.40265","149.107483",,,"0","0"
"POINT (149.10297 -35.169557)","0","4871",,"Jabanungga Av after 1st Mundang Cr","-35.169557","149.10297",,,"0","0"
"POINT (149.081737 -35.460035999999995)","0","1196",,"39 Callaway Cr","-35.460036","149.081737",,,"0","0"
"POINT (149.142414 -35.341372)","0","2334",,"Jindalee Aged Care Goyder St","-35.341372","149.142414",,,"0","0"
"POINT (148.99938 -35.23252)","0","5038",,"Pro Hart Av after Stockdill Dr","-35.23252","148.99938",,,"0","0"
"POINT (149.120628 -35.311169)","0","2218",,"State Cir after Melbourne Av","-35.311169","149.120628",,,"0","0"
"POINT (149.12448700000002 -35.447346)","0","1034",,"Theodore PS Lawrence Wackett Cr","-35.447346","149.124487",,,"0","0"
"POINT (149.162957 -35.247096)","0","3199",,"Madigan St opp Hackett Shops","-35.247096","149.162957",,,"0","0"
"POINT (149.100921 -35.159636)","0","4844",,"Whitrod Av after McGovern St","-35.159636","149.100921",,,"0","0"
"POINT (149.06901000000002 -35.261414)","0","4642",,"Lyttleton Cr after Wybalena Gr","-35.261414","149.06901",,,"0","0"
"POINT (149.042245 -35.219065)","0","4196",,"Kingsford Smith Dr after Ginninderra Dr","-35.219065","149.042245",,,"0","0"
"POINT (149.118429 -35.43325)","0","1117",,"Clift Cr before Johnson Dr","-35.43325","149.118429",,,"0","0"
"POINT (149.10512600000004 -35.218604)","0","4034",,"Maribyrnong Av before 2nd Staaten Cr","-35.218604","149.105126",,,"0","0"
"POINT (149.10714099999998 -35.378992)","0","2471",,"Farrer PS Lambrigg St","-35.378992","149.107141",,,"0","0"
"POINT (149.088592 -35.421359)","0","1671",,"Clive Steele Av opp Falconer St","-35.421359","149.088592",,,"0","0"
"POINT (149.122031 -35.168405)","0","4718",,"Burdekin Av before Reeve Cl","-35.168405","149.122031",,,"0","0"
"POINT (149.04765700000002 -35.360443)","0","1270",,"Namatjira Dr before Perry Dr","-35.360443","149.047657",,,"0","0"
"POINT (149.142874 -35.311627)","0","2374",,"Old Bus Depot Markets Wentworth Av","-35.311627","149.142874",,,"0","0"
"POINT (149.07565400000001 -35.324712)","0","2025",,"Carruthers St opp Jennings St","-35.324712","149.075654",,,"0","0"
"POINT (149.10949399999998 -35.46275100000001)","0","1690",,"Templestowe Av opp 2nd Barringer St","-35.462751","149.109494",,,"0","0"
"POINT (149.091331 -35.454626)","0","2698",,"Tharwa Dr before Box Hill Av","-35.454626","149.091331",,,"0","0"
"POINT (149.059255 -35.395621999999996)","0","1293",,"O'Halloran Cct before 1st Snodgrass Cr","-35.395622","149.059255",,,"0","0"
"POINT (149.13131 -35.248015)","0","4550",,"Mouat St opp Southwell Park","-35.248015","149.13131",,,"0","0"
"POINT (149.05271399999998 -35.190442)","0","4239",,"Bingley Cr at Vercoe Pl","-35.190442","149.052714",,,"0","0"
"POINT (149.088898 -35.470765)","0","1230",,"Knoke Av after Minnett Cl","-35.470765","149.088898",,,"0","0"
"POINT (149.09088300000002 -35.410765000000005)","0","1461",,"Harricks Cr after 1st Michell St","-35.410765","149.090883",,,"0","0"
"POINT (149.130619 -35.277767)","0","3410",,"City Interchange Plt 6","-35.277767","149.130619",,"https://www.transport.act.gov.au/__data/assets/pdf_file/0008/1244195/TC_station_city.pdf","0","0"
"POINT (149.094651 -35.433781)","0","1076",,"Ellerston Av before Johnson Dr","-35.433781","149.094651",,,"0","0"
"POINT (149.112208 -35.168029)","0","4699",,"Unaipon Av opp Ngunnawal PS","-35.168029","149.112208",,,"0","0"
"POINT (149.10726699999998 -35.35546)","0","2101",,"Kareelah Vsta after Mialli Pl","-35.35546","149.107267",,,"0","0"
"POINT (149.139177 -35.215059000000004)","0","4760",,"Lysaght St opp Grimwade St","-35.215059","149.139177",,,"0","0"
"POINT (149.049215 -35.352453000000004)","0","2425",,"Fremantle Dr after 2nd Mackie Cr","-35.352453","149.049215",,,"0","0"
"POINT (149.094758 -35.341134000000004)","0","2380",,"Yamba Dr opp Justinian St","-35.341134","149.094758",,,"0","0"
"POINT (149.036328 -35.225773000000004)","0","4191",,"Kingsford Smith Dr after Southern Cross Dr","-35.225773","149.036328",,,"0","0"
"POINT (149.162 -35.187478999999996)","0","6201",,"Bettong Av opp Shingleback St","-35.187479","149.162",,,"0","0"
"POINT (149.135104 -35.412578)","0","1567",,"Louisa Lawson Cr after 1st Aronson Cr","-35.412578","149.135104",,,"0","0"
"POINT (149.12094199999999 -35.429355)","0","1122",,"Deamer Cr before Clift Cr","-35.429355","149.120942",,,"0","0"
"POINT (149.06246399999998 -35.400089)","0","1412",,"Vansittart Cr after 1st Ragless Cct","-35.400089","149.062464",,,"0","0"
"POINT (149.11818799999998 -35.251058)","0","3116",,"Miller St after Merrit Pl","-35.251058","149.118188",,,"0","0"
"POINT (149.1074 -35.172969)","0","4733",,"Jabanungga Av after Ngunnawal Shops","-35.172969","149.1074",,,"0","0"
"POINT (149.074936 -35.26051)","0","4647",,"Bandjalong Cr after Bindubi St","-35.26051","149.074936",,,"0","0"
"POINT (149.130378 -35.314057)","0","3262",,"National Cct before Canberra Av","-35.314057","149.130378",,,"0","0"
"POINT (149.033719 -35.340785)","0","2143",,"Wyangala St opp 1st Burdekin St","-35.340785","149.033719",,,"0","0"
"POINT (149.033044 -35.226572999999995)","0","4358",,"Southern Cross Dr after O'Loghlen St","-35.226573","149.033044",,,"0","0"
"POINT (149.054338 -35.221539)","0","4068",,"John Cleland Cr before Ginninderra Dr","-35.221539","149.054338",,,"0","0"
"POINT (149.13788300000002 -35.213924)","0","4918",,"Hoskins St before Lysaght St","-35.213924","149.137883",,,"0","0"
"POINT (149.082128 -35.25736)","0","4524",,"Bandjalong Cr opp Nungara St","-35.25736","149.082128",,,"0","0"
"POINT (149.056242 -35.246719)","0","4269",,"Coulter Dr before Lachlan St","-35.246719","149.056242",,,"0","0"
"POINT (149.09768799999998 -35.368165000000005)","0","2042",,"Heard St after Wilkins St","-35.368165","149.097688",,,"0","0"
"POINT (149.069006 -35.239792)","0","5518",,"Belconnen Interchange Arrivals","-35.239792","149.069006",,,"0","0"
"POINT (149.063313 -35.412279)","0","1810",,"Anketell St opp Lakeside Leisure Centre","-35.412279","149.063313",,,"0","0"
"POINT (149.152186 -35.331173)","0","2352",,"Kootara Cr before Bundeela St","-35.331173","149.152186",,,"0","0"
"POINT (149.043047 -35.344015999999996)","0","2435",,"Carbeen St opp 2nd Gungurra Cr","-35.344016","149.043047",,,"0","0"
"POINT (149.091887 -35.18226)","0","5137",,"Curran Dr after McClelland Av","-35.18226","149.091887",,,"0","0"
"POINT (149.14256899999998 -35.282014000000004)","0","3097",,"Euree St after Elimatta St","-35.282014","149.142569",,,"0","0"
"POINT (149.074816 -35.430812)","0","1661",,"Barr Smith Av before 2nd Derrington Cr","-35.430812","149.074816",,,"0","0"
"POINT (149.13149099999998 -35.247904999999996)","0","4549",,"Southwell Park Mouat St","-35.247905","149.131491",,,"0","0"
"POINT (149.05968500000003 -35.240120000000005)","0","4480",,"Cohen St Interchange Plt 5","-35.24012","149.059685",,"https://www.transport.act.gov.au/__data/assets/pdf_file/0009/1244196/TC_station_cohen.pdf","0","0"
"POINT (149.09663500000002 -35.246526)","0","5168",,"CIT Bruce Battye St","-35.246526","149.096635",,,"0","0"
"POINT (149.130596 -35.278552000000005)","0","1723",,"City Interchange Arrivals","-35.278552","149.130596",,"https://www.transport.act.gov.au/__data/assets/pdf_file/0008/1244195/TC_station_city.pdf","0","0"
"POINT (149.139492 -35.252617)","0","3163",,"Cowper St opp Daramalan College","-35.252617","149.139492",,,"0","0"
"POINT (149.011084 -35.22498)","0","4316",,"Holt Shops Beaurepaire Cr","-35.22498","149.011084",,,"0","0"
"POINT (149.087276 -35.344530999999996)","0","2916",,"Woden Interchange Arrivals","-35.344531","149.087276",,"https://www.transport.act.gov.au/__data/assets/pdf_file/0016/1244203/TC_station_woden.pdf","0","0"
"POINT (149.09131299999999 -35.354038)","0","2688",,"Athllon Dr after Parramatta St","-35.354038","149.091313",,,"0","0"
"POINT (149.15143899999998 -35.201177)","0","6189",,"Nullarbor Av after Wimmera St","-35.201177","149.151439",,,"0","0"
"POINT (149.13443 -35.169912)","0","6001",,"Katherine Av opp Clarendon St","-35.169912","149.13443",,,"0","0"
"POINT (149.133216 -35.309925)","0","2257",,"National Cct after Darling St","-35.309925","149.133216",,,"0","0"
"POINT (149.148516 -35.171813)","0","6313",,"Zakharov Av after Alice Berry St","-35.171813","149.148516",,,"0","0"
"POINT (149.04038300000002 -35.356077)","0","2161",,"Chapman Shops Perry Dr","-35.356077","149.040383",,,"0","0"
"POINT (149.134919 -35.267979)","0","3139",,"Torrens St before Ipima St","-35.267979","149.134919",,,"0","0"
"POINT (149.122458 -35.178271)","0","5999",,"Paul Coe Cr after Kardang St","-35.178271","149.122458",,,"0","0"
"POINT (149.107894 -35.232415)","0","4018",,"Maribyrnong Av opp Daintree Cr","-35.232415","149.107894",,,"0","0"
"POINT (149.14883799999998 -35.171357)","0","6312",,"Zakharov Av after Justice Kelly St","-35.171357","149.148838",,,"0","0"
"POINT (149.113904 -35.205044)","0","6157",,"Langtree Cr after Geegeela St","-35.205044","149.113904",,,"0","0"
"POINT (149.07703899999998 -35.319388000000004)","0","2010",,"Throssell St opp Prendergast St","-35.319388","149.077039",,,"0","0"
"POINT (149.165019 -35.299781)","0","3066",,"Parnell St before Plant Rd","-35.299781","149.165019",,,"0","0"
"POINT (149.14306000000002 -35.243787)","0","3242",,"Melba St after Bradfield St","-35.243787","149.14306",,,"0","0"
"POINT (149.03232 -35.246336)","0","4292",,"Hawker College Murranji St","-35.246336","149.03232",,,"0","0"
"POINT (149.120969 -35.282188)","0","3486",,"Liversidge St before Ellery Cr","-35.282188","149.120969",,,"0","0"
"POINT (149.135592 -35.180153000000004)","0","6028",,"Gundaroo Dr before Nellie Hamilton Av","-35.180153","149.135592",,,"0","0"
"POINT (149.028441 -35.230096)","0","4990",,"Castieau St before Fullagar Cr","-35.230096","149.028441",,,"0","0"
"POINT (149.153228 -35.232347999999995)","0","3253",,"Knox St after Molesworth St","-35.232348","149.153228",,,"0","0"
"POINT (149.05565 -35.336841)","0","2197",,"Hilder St after Gritten St","-35.336841","149.05565",,,"0","0"
"POINT (149.096259 -35.416332000000004)","0","1642",,"Barraclough Cr opp Goodwin Village","-35.416332","149.096259",,,"0","0"
"POINT (149.051219 -35.225876)","0","4426",,"Krefft St opp Florey PS","-35.225876","149.051219",,,"0","0"
"POINT (149.087397 -35.18114)","0","4679",,"McClelland Av before Fitzsimmons St","-35.18114","149.087397",,,"0","0"
"POINT (149.137787 -35.323676)","0","2369",,"Stuart St after Hann St","-35.323676","149.137787",,,"0","0"
"POINT (149.078626 -35.413294)","0","1407",,"Newman-Morris Cct before 2nd Maconochie Cr","-35.413294","149.078626",,,"0","0"
"POINT (149.02716 -35.201018)","0","4209",,"Lhotsky St before Sport Way","-35.201018","149.02716",,,"0","0"
"POINT (149.02963 -35.331036)","0","2565",,"Warragamba Av before Eucumbene Dr","-35.331036","149.02963",,,"0","0"
"POINT (149.100719 -35.371151)","0","2654",,"Beasley St after Marshall St","-35.371151","149.100719",,,"0","0"
"POINT (149.06063600000002 -35.377833)","0","1345",,"Marconi Cr before 2nd Harrington Cct","-35.377833","149.060636",,,"0","0"
"POINT (149.047806 -35.360591)","0","1265",,"Namatjira Dr before Kapunda St","-35.360591","149.047806",,,"0","0"
"POINT (149.149903 -35.297129999999996)","0","3029",,"Russell Dr opp Russell Offices","-35.29713","149.149903",,,"0","0"
"POINT (149.096721 -35.230176)","0","4013",,"Maribyrnong Av before Baldwin Dr","-35.230176","149.096721",,,"0","0"
"POINT (149.0997 -35.2447)","0","3403",,"Braybrooke St before Battye St","-35.2447","149.0997",,,"0","0"
"POINT (149.15793200000002 -35.200681)","0","6053",,"Cultivation St after Dimby St","-35.200681","149.157932",,,"0","0"
"POINT (149.16192 -35.2302)","0","3384",,"Watson Terminus Aspinall St","-35.2302","149.16192",,,"0","0"
"POINT (149.122373 -35.173328000000005)","0","4715",,"Shoalhaven Av after Roderick St","-35.173328","149.122373",,,"0","0"
"POINT (149.06538799999998 -35.414615999999995)","0","1807",,"Tuggeranong Interchange Plt 7","-35.414616","149.065388",,"https://www.transport.act.gov.au/__data/assets/pdf_file/0013/1244200/TC_station_tuggeranong.pdf","0","0"
"POINT (149.040272 -35.193692)","0","4229",,"Kerrigan St after Shakespeare Cr","-35.193692","149.040272",,,"0","0"
"POINT (149.103817 -35.304428)","0","2231",,"Schlich St before Musgrave St","-35.304428","149.103817",,,"0","0"
"POINT (149.12658000000002 -35.186475)","0","6132",,"The Valley Av after Warwick St","-35.186475","149.12658",,,"0","0"
"POINT (149.095493 -35.371865)","0","2037",,"Beasley St after Athllon Dr","-35.371865","149.095493",,,"0","0"
"POINT (149.06278799999998 -35.345983000000004)","0","2184",,"McInnes St after Hindmarsh Dr","-35.345983","149.062788",,,"0","0"
"POINT (149.13185900000002 -35.281562)","0","3003",,"London Cct opp Legislative Assembly","-35.281562","149.131859",,,"0","0"
"POINT (149.155931 -35.246415999999996)","0","3195",,"Antill St after Phillip Av","-35.246416","149.155931",,,"0","0"
"POINT (149.063445 -35.215011)","0","4172",,"Moynihan St after Fitzhardinge Cr","-35.215011","149.063445",,,"0","0"
"POINT (149.114747 -35.192223)","0","4787",,"Kosciuszko Av before 2nd Freeling Cct","-35.192223","149.114747",,,"0","0"
"POINT (149.060384 -35.355402000000005)","0","2418",,"Nemarang Cr opp Arawang PS","-35.355402","149.060384",,,"0","0"
"POINT (149.100057 -35.190697)","0","5078",,"Temperley St after Wendy Ey Pl","-35.190697","149.100057",,,"0","0"
"POINT (149.158165 -35.289438)","0","3081",,"100 Vasey Cr","-35.289438","149.158165",,,"0","0"
"POINT (149.044452 -35.229382)","0","5003",,"Southern Cross Dr before Ratcliffe Cr","-35.229382","149.044452",,,"0","0"
"POINT (149.040876 -35.245262)","0","4449",,"Beetaloo St after Bonrook St","-35.245262","149.040876",,,"0","0"
"POINT (149.0916 -35.240219)","0","4971",,"Eardley St after Haydon Dr","-35.240219","149.0916",,,"0","0"
"POINT (149.143544 -35.272643)","0","3231",,"Chisholm St after Howe Cr","-35.272643","149.143544",,,"0","0"
"POINT (149.150258 -35.247842)","0","4591",,"Antill St before Cadell St","-35.247842","149.150258",,,"0","0"
"POINT (149.04252 -35.233485)","0","4465",,"McGinness St after Ross Smith Cr","-35.233485","149.04252",,,"0","0"
"POINT (149.14727299999998 -35.261568)","0","3220",,"Ebden St after Wakefield Av","-35.261568","149.147273",,,"0","0"
"POINT (149.0757 -35.407481)","0","1400",,"Newman-Morris Cct opp 2nd Connibere Cr","-35.407481","149.0757",,,"0","0"
"POINT (149.127372 -35.288746)","0","8889",,"Commonwealth Av opp Regatta Point","-35.288746","149.127372",,,"0","0"
"POINT (149.03227900000002 -35.334199)","0","2128",,"Burrinjuck Cr opp Duffy PS","-35.334199","149.032279",,,"0","0"
"POINT (149.03491200000002 -35.330566)","0","2507",,"Warragamba Av before Jindabyne St","-35.330566","149.034912",,,"0","0"
"POINT (149.054466 -35.206658000000004)","0","4163",,"Alfred Hill Dr after Bishop Pl","-35.206658","149.054466",,,"0","0"
"POINT (149.041469 -35.195157)","0","4488",,"Tillyard Dr before Kerrigan St","-35.195157","149.041469",,,"0","0"
"POINT (149.093789 -35.352021)","0","2672",,"Ainsworth St before Horbury St","-35.352021","149.093789",,,"0","0"
"POINT (149.105174 -35.171657)","0","4735",,"Jabanungga Av after 1st Bimbiang Cr","-35.171657","149.105174",,,"0","0"
"POINT (149.060081 -35.253309)","0","4507",,"Bennelong Cr after Roberts St","-35.253309","149.060081",,,"0","0"
"POINT (149.08383999999998 -35.447089)","0","1187",,"Clare Dennis Av before Preddey Way","-35.447089","149.08384",,,"0","0"
"POINT (149.088575 -35.341081)","0","2091",,"Canberra College Launceston St","-35.341081","149.088575",,,"0","0"
"POINT (149.14863799999998 -35.319524)","0","3318",,"Canberra Railway Stn Burke Cr","-35.319524","149.148638",,,"0","0"
"POINT (149.13693 -35.160540000000005)","0","6328",,"Mobourne St before Mallett St","-35.16054","149.13693",,,"0","0"
"POINT (149.122367 -35.27281)","0","3431",,"McCaughey St after Barry Dr","-35.27281","149.122367",,,"0","0"
"POINT (149.140757 -35.277577)","0","3056",,"Ainslie Av before Elimatta St","-35.277577","149.140757",,,"0","0"
"POINT (149.021974 -35.299141)","0","2831",,"Felstead Vista opp Denman Prospect Shops","-35.299141","149.021974",,,"0","0"
"POINT (149.13351 -35.284859999999995)","0","3035",,"Constitution Av opp National Convention Centre","-35.28486","149.13351",,,"0","0"
"POINT (149.12519 -35.194948)","0","4774",,"Kosciuszko Av opp Redcliffe St","-35.194948","149.12519",,,"0","0"
"POINT (149.125213 -35.251267)","0","3184",,"Lyneham PS School Grounds SSO","-35.251267","149.125213",,,"0","0"
"POINT (149.15223300000002 -35.243173999999996)","0","4596",,"Phillip Av opp Shirley St","-35.243174","149.152233",,,"0","0"
"POINT (149.055247 -35.330333)","0","2213",,"Heysen St before Preston St","-35.330333","149.055247",,,"0","0"
"POINT (149.12742 -35.24929)","0","2581",,"Brindabella Christian College Brigalow St","-35.24929","149.12742",,,"0","0"
"POINT (149.107856 -35.417955)","0","1534",,"Bugden Av before 1st Ingram St","-35.417955","149.107856",,,"0","0"
"POINT (149.07960900000003 -35.207408)","0","4115",,"Heydon Cr before Owen Dixon Dr","-35.207408","149.079609",,,"0","0"
"POINT (149.08607000000003 -35.192143)","0","0601",,"O'Hanlon Pl before Gold Creek Rd","-35.192143","149.08607",,,"0","0"
"POINT (149.03884299999999 -35.188971)","0","4224",,"Shakespeare Cr opp 1st Dunbar St","-35.188971","149.038843",,,"0","0"
"POINT (149.102956 -35.219446999999995)","0","4036",,"Kaleen Village Maribyrnong Av","-35.219447","149.102956",,,"0","0"
"POINT (149.15026699999999 -35.297298)","0","3011",,"Russell Offices Russell Dr","-35.297298","149.150267",,,"0","0"
"POINT (149.10181 -35.461296999999995)","0","1220",,"Tom Roberts Av before Altson Cct","-35.461297","149.10181",,,"0","0"
"POINT (149.02849300000003 -35.228202)","0","4339",,"Fullagar Cr after Northmore Cr","-35.228202","149.028493",,,"0","0"
"POINT (149.06178 -35.214546)","0","4171",,"Moynihan St after 1st Deffell St","-35.214546","149.06178",,,"0","0"
"POINT (149.057165 -35.347112)","0","2646",,"Namatjira Dr after Hindmarsh Dr","-35.347112","149.057165",,,"0","0"
"POINT (149.109327 -35.41387)","0","1504",,"Gowrie Shops Castleton Cr","-35.41387","149.109327",,,"0","0"
"POINT (149.05621100000002 -35.256614)","0","4637",,"Redfern St after Coulter Dr","-35.256614","149.056211",,,"0","0"
"POINT (149.069227 -35.421808)","0","1064",,"Scollay St opp Tuggeranong Bus Depot","-35.421808","149.069227",,,"0","0"
"POINT (149.152764 -35.290634999999995)","0","3076",,"Blamey Cr opp Chauvel St","-35.290635","149.152764",,,"0","0"
"POINT (149.025176 -35.220645000000005)","0","4398",,"Southern Cross Dr after Chave St","-35.220645","149.025176",,,"0","0"
"POINT (149.088975 -35.414787)","0","1456",,"Corlette Cr opp Monash PS","-35.414787","149.088975",,,"0","0"
"POINT (149.087641 -35.467259000000006)","0","1200",,"Knoke Av after 2nd Harry Hopman Cct","-35.467259","149.087641",,,"0","0"
"POINT (149.077995 -35.361305)","0","2057",,"Macfarland Cr after Collings St","-35.361305","149.077995",,,"0","0"
"POINT (149.100575 -35.401941)","0","1171",,"Sternberg Cr after Ashley Dr","-35.401941","149.100575",,,"0","0"
"POINT (149.03733799999998 -35.332888)","0","2409",,"Burrinjuck Cr after 1st Serpentine St","-35.332888","149.037338",,,"0","0"
"POINT (149.086631 -35.373089)","0","2074",,"Torrens Shops Beasley St","-35.373089","149.086631",,,"0","0"
"POINT (149.049599 -35.249385000000004)","0","4442",,"Shumack St opp Weetangera Shops","-35.249385","149.049599",,,"0","0"
"POINT (149.105658 -35.316323)","0","2284",,"Macgregor St before Stradbroke St","-35.316323","149.105658",,,"0","0"
"POINT (149.121332 -35.424252)","0","1552",,"Heagney Cr after Goldstein Cr","-35.424252","149.121332",,,"0","0"
"POINT (149.138127 -35.278104)","0","3053",,"Ainslie Av after Currong St","-35.278104","149.138127",,,"0","0"
"POINT (149.14439199999998 -35.166789)","0","6091",,"Amy Ackman St after Helen Leonard Cr","-35.166789","149.144392",,,"0","0"
"POINT (149.086534 -35.234349)","0","1738",,"Pantowora St before Allawoona St","-35.234349","149.086534",,,"0","0"
"POINT (149.117423 -35.316413)","0","2595",,"Melbourne Av at Empire Cct","-35.316413","149.117423",,,"0","0"
"POINT (149.17963999999998 -35.322294)","0","2391",,"86 Gladstone St","-35.322294","149.17964",,,"0","0"
"POINT (149.090972 -35.237834)","0","4008",,"Haydon Dr opp University Dr","-35.237834","149.090972",,,"0","0"
"POINT (149.133027 -35.424695)","0","1134",,"Heagney Cr before Enid Lorimer Cct","-35.424695","149.133027",,,"0","0"
"POINT (149.062603 -35.400156)","0","1411",,"Vansittart Cr after 1st Stieglitz Cct","-35.400156","149.062603",,,"0","0"
"POINT (149.039325 -35.208812)","0","4203",,"Companion Cr at Homann Pl","-35.208812","149.039325",,,"0","0"
"POINT (149.099793 -35.476552000000005)","0","1677",,"Forsythe St after 2nd Olive Pink Cr","-35.476552","149.099793",,,"0","0"
"POINT (149.065924 -35.394099)","0","1297",,"O'Halloran Cct before Ashby Cct","-35.394099","149.065924",,,"0","0"
"POINT (149.072709 -35.200283)","0","4105",,"Copland Dr before Owen Dixon Dr","-35.200283","149.072709",,,"0","0"
"POINT (149.03696499999998 -35.231926)","0","4350",,"Wirraway Cr opp Southern Cross Early Childhood Sch","-35.231926","149.036965",,,"0","0"
"POINT (149.036661 -35.349009)","0","2430",,"Bangalay Cr opp Casuarina St","-35.349009","149.036661",,,"0","0"
"POINT (149.038165 -35.318909000000005)","0","3319",,"Fred Daly Av after John Gorton Dr","-35.318909","149.038165",,,"0","0"
"POINT (149.119452 -35.271943)","0","3098",,"Boldrewood St after Barry Dr","-35.271943","149.119452",,,"0","0"
"POINT (149.05469399999998 -35.339349)","0","2690",,"Namatjira Dr before Macnally St","-35.339349","149.054694",,,"0","0"
"POINT (149.126543 -35.315571000000006)","0","2926",,"National Cct opp Forrest PS","-35.315571","149.126543",,,"0","0"
"POINT (149.102925 -35.170097999999996)","0","4852",,"Jabanungga Av opp 2nd Mundang Av","-35.170098","149.102925",,,"0","0"
"POINT (149.075074 -35.430952000000005)","0","1697",,"Barr Smith Av opp 1st Derrington Cr","-35.430952","149.075074",,,"0","0"
"POINT (149.13050900000002 -35.278735)","0","3404",,"City Interchange Plt 12","-35.278735","149.130509",,"https://www.transport.act.gov.au/__data/assets/pdf_file/0008/1244195/TC_station_city.pdf","0","0"
"POINT (149.12043300000002 -35.406964)","0","1153",,"Bugden Av before 2nd Larcombe Cr","-35.406964","149.120433",,,"0","0"
"POINT (149.142702 -35.221084000000005)","0","4754",,"Sandford St after Flemington Rd","-35.221084","149.142702",,,"0","0"
"POINT (149.119676 -35.176243)","0","4723",,"Paul Coe Cr after Noongale Cct","-35.176243","149.119676",,,"0","0"
"POINT (149.04971899999998 -35.363484)","0","1266",,"Namatjira Dr opp 204","-35.363484","149.049719",,,"0","0"
"POINT (149.006015 -35.222436)","0","4322",,"Spofforth St before Messenger St","-35.222436","149.006015",,,"0","0"
"POINT (149.143548 -35.189996)","0","6185",,"Manning Clark Cr after Barbara Jefferis St","-35.189996","149.143548",,,"0","0"
"POINT (149.099366 -35.412884999999996)","0","1438",,"Clive Steele Av before 2nd Brain St","-35.412885","149.099366",,,"0","0"
"POINT (149.12926700000003 -35.297957000000004)","0","3258",,"National Library King Edward Tce","-35.297957","149.129267",,,"0","0"
"POINT (149.09724 -35.344604)","0","2488",,"Kitchener St before Ainsworth St","-35.344604","149.09724",,,"0","0"
"POINT (149.11323300000004 -35.439958000000004)","0","1090",,"Casey Cr opp O'Connor Cct","-35.439958","149.113233",,,"0","0"
"POINT (149.082576 -35.323188)","0","2013",,"McCulloch St after 2nd Morgan Cr","-35.323188","149.082576",,,"0","0"
"POINT (149.06715400000002 -35.352526)","0","2251",,"Nemarang Cr after Yiman St","-35.352526","149.067154",,,"0","0"
"POINT (149.122514 -35.247823)","0","3120",,"Mackennal St before Earle St","-35.247823","149.122514",,,"0","0"
"POINT (149.051412 -35.225887)","0","4425",,"Florey PS Krefft St","-35.225887","149.051412",,,"0","0"
"POINT (149.097662 -35.470394)","0","1226",,"Pockett Av opp Wiburd St","-35.470394","149.097662",,,"0","0"
"POINT (149.0607 -35.21243)","0","4072",,"Copland College Copland Dr","-35.21243","149.0607",,,"0","0"
"POINT (149.086784 -35.391052)","0","1905",,"Wanniassa Shops Langdon Av","-35.391052","149.086784",,,"0","0"
"POINT (149.02871399999998 -35.346607)","0","2148",,"Darwinia Tce opp Kathner St","-35.346607","149.028714",,,"0","0"
"POINT (149.11032600000004 -35.364222)","0","2454",,"Julia Flynn Av before 1st Ellwood Cr","-35.364222","149.110326",,,"0","0"
"POINT (149.044375 -35.359309)","0","2165",,"Perry Dr opp Bertel Cr","-35.359309","149.044375",,,"0","0"
"POINT (149.044733 -35.324315999999996)","0","2843",,"Harold White Av before Woodberry Av","-35.324316","149.044733",,,"0","0"
"POINT (149.103104 -35.472405)","0","1682",,"Paperbark St after Troughton St","-35.472405","149.103104",,,"0","0"
"POINT (149.10525900000002 -35.218432)","0","4035",,"Maribyrnong Av before 1st Onkaparinga Cr","-35.218432","149.105259",,,"0","0"
"POINT (149.11316399999998 -35.224637)","0","6156",,"Kaleen PS School Grounds SSO","-35.224637","149.113164",,,"0","0"
"POINT (149.07868 -35.233616)","0","4938",,"Aikman Dr after Joy Cummings Pl","-35.233616","149.07868",,,"0","0"
"POINT (149.04643900000002 -35.329561)","0","2118",,"Dixon Dr after Twynam St","-35.329561","149.046439",,,"0","0"
"POINT (149.111269 -35.227108)","0","4025",,"Maribyrnong Av after Greenough Cct","-35.227108","149.111269",,,"0","0"
"POINT (149.021747 -35.220998)","0","4895",,"Moyes Cr after Postle Cct","-35.220998","149.021747",,,"0","0"
"POINT (149.068407 -35.239813)","0","5513",,"Belconnen Interchange Plt 3","-35.239813","149.068407",,"https://www.transport.act.gov.au/__data/assets/pdf_file/0010/1244197/TC_station_community.pdf","0","0"
"POINT (149.127872 -35.167853)","0","6048",,"Katherine Av before Shoalhaven Av","-35.167853","149.127872",,,"0","0"
"POINT (149.074735 -35.428804)","0","1816",,"Barr Smith Av after Coombe St","-35.428804","149.074735",,,"0","0"
"POINT (149.121735 -35.259702000000004)","0","4578",,"MacArthur Av before Macpherson St","-35.259702","149.121735",,,"0","0"
"POINT (149.051045 -35.335615000000004)","0","2113",,"Mulley St opp St Judes PS","-35.335615","149.051045",,,"0","0"
"POINT (149.033089 -35.193224)","0","4220",,"Shakespeare Cr after Pettifer Pl","-35.193224","149.033089",,,"0","0"
"POINT (149.010649 -35.210952)","0","4371",,"Osburn Dr opp Macgregor Shops","-35.210952","149.010649",,,"0","0"
"POINT (149.118399 -35.410042)","0","1698",,"Bugden Av opp Holy Family PS","-35.410042","149.118399",,,"0","0"
"POINT (149.12028600000002 -35.170246)","0","4716",,"Burdekin Av before Wanderer Ct","-35.170246","149.120286",,,"0","0"
"POINT (149.068373 -35.255824)","0","4513",,"Redfern St after Allman St","-35.255824","149.068373",,,"0","0"
"POINT (149.020448 -35.198246000000005)","0","4485",,"Lance Hill Av after 2nd Alarmon Cr","-35.198246","149.020448",,,"0","0"
"POINT (149.1881 -35.299033)","0","5103",,"Catalina Dr before Lancaster Pl","-35.299033","149.1881",,,"0","0"
"POINT (149.153594 -35.239161)","0","3167",,"Watson Shops Windeyer St","-35.239161","149.153594",,,"0","0"
"POINT (149.151483 -35.159351)","0","6318",,"Handbury St before Amy Ackman St","-35.159351","149.151483",,,"0","0"
"POINT (149.09158100000002 -35.240351000000004)","0","4982",,"Eardley St after Thynne St","-35.240351","149.091581",,,"0","0"
"POINT (149.106348 -35.184022999999996)","0","4877",,"Lexcen Av after Anne Clark Av","-35.184023","149.106348",,,"0","0"
"POINT (149.094748 -35.212941)","0","4057",,"Giralang PS Canopus Cr","-35.212941","149.094748",,,"0","0"
"POINT (149.09401 -35.352035)","0","2671",,"Ainsworth St opp Hobury St","-35.352035","149.09401",,,"0","0"
"POINT (149.140126 -35.257815)","0","3159",,"Cowper St after Sherbrooke St","-35.257815","149.140126",,,"0","0"
"POINT (149.082327 -35.366215999999994)","0","2054",,"Hodgson Cr after Brinsmead St","-35.366216","149.082327",,,"0","0"
"POINT (149.011581 -35.230854)","0","4945",,"Drake Brockman Dr opp Trickett St","-35.230854","149.011581",,,"0","0"
"POINT (149.075636 -35.258317)","0","4648",,"Bandjalong Cr after Barada Cr","-35.258317","149.075636",,,"0","0"
"POINT (149.025549 -35.233218)","0","4304",,"The Henry Fullagar Cr","-35.233218","149.025549",,,"0","0"
"POINT (149.048956 -35.20662000000001)","0","4255",,"Kingsford Smith Dr after Alfred Hill Dr","-35.20662","149.048956",,,"0","0"
"POINT (149.036443 -35.356882)","0","2158",,"Perry Dr before Musgrove St","-35.356882","149.036443",,,"0","0"
"POINT (149.086941 -35.344446000000005)","0","2716",,"Woden Interchange Plt 11","-35.344446","149.086941",,"https://www.transport.act.gov.au/__data/assets/pdf_file/0016/1244203/TC_station_woden.pdf","0","0"
"POINT (149.116575 -35.316638)","0","2556",,"Melbourne Av before Empire Cct","-35.316638","149.116575",,,"0","0"
"POINT (149.130674 -35.16514)","0","6175",,"Amaroo Shops Katherine Av","-35.16514","149.130674",,,"0","0"
"POINT (149.14811699999998 -35.285511)","0","3093",,"Blamey Cr after Creswell St","-35.285511","149.148117",,,"0","0"
"POINT (149.07558799999998 -35.327662)","0","2006",,"Carruthers St after 2nd McCormack St","-35.327662","149.075588",,,"0","0"
"POINT (149.05593100000002 -35.227691)","0","4430",,"Ratcliffe Cr opp Connah St","-35.227691","149.055931",,,"0","0"
"POINT (149.04703600000002 -35.344613)","0","1249",,"Streeton Dr before Hindmarsh Dr","-35.344613","149.047036",,,"0","0"
"POINT (149.05953 -35.338414)","0","2193",,"McInnes St before Ironside St","-35.338414","149.05953",,,"0","0"
"POINT (149.12143899999998 -35.429241)","0","1121",,"Deamer Cr before Meeson St","-35.429241","149.121439",,,"0","0"
"POINT (149.110871 -35.218999)","0","4030",,"Maribyrnong Av opp 2nd Yarra St","-35.218999","149.110871",,,"0","0"
"POINT (149.104555 -35.352339)","0","2098",,"Culgoa Cct before Bulwarra Cl","-35.352339","149.104555",,,"0","0"
"POINT (149.143406 -35.330178000000004)","0","2364",,"Stuart St before Strzelecki Cr","-35.330178","149.143406",,,"0","0"
"POINT (149.12639 -35.277219)","0","4530",,"Marcus Clarke St before Rimmer St","-35.277219","149.12639",,,"0","0"
"POINT (149.134687 -35.329003)","0","3296",,"Bremer St before Hodgkinson St","-35.329003","149.134687",,,"0","0"
"POINT (149.114724 -35.150882)","0","6114",,"Sutherland Cr opp Margaret Hendry School","-35.150882","149.114724",,,"0","0"
"POINT (149.104967 -35.410090000000004)","0","1509",,"Castleton Cr opp Easterbrook Pl","-35.41009","149.104967",,,"0","0"
"POINT (149.127036 -35.278251000000004)","0","3042",,"City West Alinga St","-35.278251","149.127036",,,"0","0"
"POINT (149.041878 -35.329947)","0","2123",,"Dixon Dr after Warragamba Av","-35.329947","149.041878",,,"0","0"
"POINT (149.04200600000001 -35.238229)","0","4469",,"Chewings St before Petterd St","-35.238229","149.042006",,,"0","0"
"POINT (149.143528 -35.263771000000006)","0","3224",,"Campbell St before Cox St","-35.263771","149.143528",,,"0","0"
"POINT (149.1729 -35.3232)","0","2613",,"Gladstone St before Cessnock St","-35.3232","149.1729",,,"0","0"
"POINT (149.03446100000002 -35.231947)","0","5022",,"Kingsford Smith Dr after Wirraway Cr","-35.231947","149.034461",,,"0","0"
"POINT (149.041677 -35.189508000000004)","0","4225",,"Shakespeare Cr opp 41","-35.189508","149.041677",,,"0","0"
"POINT (149.09404200000003 -35.32186)","0","3018",,"Denison St after Napier Cl","-35.32186","149.094042",,,"0","0"
"POINT (149.057398 -35.343053999999995)","0","2591",,"Namatjira Dr after Parkinson St","-35.343054","149.057398",,,"0","0"
"POINT (149.059143 -35.343242)","0","2188",,"McInnes St after 2nd Chevalier St","-35.343242","149.059143",,,"0","0"
"POINT (149.13516 -35.18535)","0","1801",,"Gungahlin Place Plt 3 Arrivals","-35.18535","149.13516",,,"0","0"
"POINT (149.152245 -35.286949)","0","3088",,"Blamey Cr opp Edmondson St","-35.286949","149.152245",,,"0","0"
"POINT (149.06059800000003 -35.197790000000005)","0","4089",,"Kingsford Smith Dr after Magrath Cr","-35.19779","149.060598",,,"0","0"
"POINT (149.15430100000003 -35.251411)","0","3210",,"Officer Cr before Majura Av","-35.251411","149.154301",,,"0","0"
"POINT (149.13056799999998 -35.313804)","0","3263",,"National Cct opp Fitzroy St","-35.313804","149.130568",,,"0","0"
"POINT (149.05816000000002 -35.226217)","0","4062",,"John Cleland Cr opp 1st Tattersall Cr","-35.226217","149.05816",,,"0","0"
"POINT (149.106565 -35.307424)","0","2227",,"Hopetoun Cct before 1st Hampton Cct","-35.307424","149.106565",,,"0","0"
"POINT (149.145652 -35.185027000000005)","0","6141",,"Anthony Rolfe Av after Eva West St","-35.185027","149.145652",,,"0","0"
"POINT (149.050291 -35.203272)","0","4159",,"Spalding St before Kingsford Smith Dr","-35.203272","149.050291",,,"0","0"
"POINT (149.059094 -35.206296)","0","4168",,"Alfred Hill Dr after Levey Pl","-35.206296","149.059094",,,"0","0"
"POINT (149.05501700000002 -35.222747)","0","4067",,"John Cleland Cr before 1st Twelvetrees Cr","-35.222747","149.055017",,,"0","0"
"POINT (149.021797 -35.196799)","0","3443",,"Lance Hill Av after Santry Pl","-35.196799","149.021797",,,"0","0"
"POINT (149.14441599999998 -35.268477000000004)","0","3227",,"Campbell St after 2nd Baker Gdns","-35.268477","149.144416",,,"0","0"
"POINT (149.10147 -35.188621000000005)","0","5074",,"Lexcen Av after Temperley St","-35.188621","149.10147",,,"0","0"
"POINT (149.073678 -35.248249)","0","4537",,"Hennessy St after Buik Pl","-35.248249","149.073678",,,"0","0"
"POINT (149.12264199999998 -35.256129)","0","3188",,"Scrivener St after Karri St","-35.256129","149.122642",,,"0","0"
"POINT (149.162591 -35.301419)","0","3069",,"Morrison Cct after Bruche Rd","-35.301419","149.162591",,,"0","0"
"POINT (149.037223 -35.333022)","0","2132",,"Burrinjuck Cr after 1st Blowering St","-35.333022","149.037223",,,"0","0"
"POINT (149.017274 -35.221451)","0","4331",,"YMCA Starke St","-35.221451","149.017274",,,"0","0"
"POINT (149.12336000000002 -35.197849)","0","4778",,"Kosciuszko Av after Bollard St","-35.197849","149.12336",,,"0","0"
"POINT (149.09007 -35.24136)","0","4188",,"Haydon Dr after College St","-35.24136","149.09007",,,"0","0"
"POINT (149.156548 -35.201965)","0","6051",,"Nullarbor Av after Katoomba St","-35.201965","149.156548",,,"0","0"
"POINT (149.13994499999998 -35.153971000000006)","0","6324",,"Essie Coffey St before Roy Marika St","-35.153971","149.139945",,,"0","0"
