"the_geom","id","stop_id","stop_code","stop_name","stop_lat","stop_lon","zone_id","stop_url","loc_type","wheelchair"
"POINT (149.156139 -35.22263)","0","6155",,"Bimberi Centre","-35.22263","149.156139",,,"0","0"
"POINT (149.028441 -35.230096)","0","4990",,"Castieau St before Fullagar Cr","-35.230096","149.028441",,,"0","0"
"POINT (149.107132 -35.355484999999994)","0","2102",,"Kareelah Vsta after Gerogery Pl","-35.355485","149.107132",,,"0","0"
"POINT (149.060234 -35.35548300000001)","0","2417",,"Arawang PS Nemerang Cr","-35.355483","149.060234",,,"0","0"
"POINT (149.102015 -35.435899)","0","1079",,"Outtrim Av before 2nd Carter Cr","-35.435899","149.102015",,,"0","0"
"POINT (149.094157 -35.188026)","0","5066",,"Temperley St before Vine Pl","-35.188026","149.094157",,,"0","0"
"POINT (149.128904 -35.297867)","0","3259",,"The Treasury Building King Edward Tce","-35.297867","149.128904",,,"0","0"
"POINT (149.054195 -35.213576)","0","4264",,"Verbrugghen St before Brownlee Pl","-35.213576","149.054195",,,"0","0"
"POINT (149.173424 -35.38624300000001)","0","2663",,"Sheppard St before Arnott St","-35.386243","149.173424",,,"0","0"
"POINT (149.06458899999998 -35.214853000000005)","0","4173",,"Moynihan St before 2nd Ligertwood St","-35.214853","149.064589",,,"0","0"
"POINT (149.064694 -35.206257)","0","4079",,"Alpen St after Baddeley Cr","-35.206257","149.064694",,,"0","0"
"POINT (149.097904 -35.322115000000004)","0","2291",,"Kent St opp Royal Life Saving House","-35.322115","149.097904",,,"0","0"
"POINT (149.127426 -35.245721)","0","4548",,"Mouat St opp National Hockey Centre","-35.245721","149.127426",,,"0","0"
"POINT (149.129512 -35.340634)","0","3280",,"La Perouse St before Cygnet Cr","-35.340634","149.129512",,,"0","0"
"POINT (149.02778 -35.23135800000001)","0","4341",,"Fullagar Cr opp Higgins Shops","-35.231358","149.02778",,,"0","0"
"POINT (149.026142 -35.237959000000004)","0","4883",,"Kinsella St after Drake Brockman Dr","-35.237959","149.026142",,,"0","0"
"POINT (149.09571599999998 -35.250052000000004)","0","3440",,"Vowles Cr opp CIT Solutions","-35.250052","149.095716",,,"0","0"
"POINT (149.086631 -35.373089)","0","2074",,"Torrens Shops Beasley St","-35.373089","149.086631",,,"0","0"
"POINT (149.108831 -35.314271000000005)","0","2642",,"Gawler Cr before Deakin Shops","-35.314271","149.108831",,,"0","0"
"POINT (149.101899 -35.211217)","0","4047",,"Chuculba Cr opp 1st Antares Cr","-35.211217","149.101899",,,"0","0"
"POINT (149.092679 -35.408807)","0","1462",,"Harricks Cr after 1st Cracknell St","-35.408807","149.092679",,,"0","0"
"POINT (149.162296 -35.294171999999996)","0","3351",,"Milne Bay Rd after General Bridges Rd","-35.294172","149.162296",,,"0","0"
"POINT (149.107483 -35.40265)","0","1166",,"Bugden Av after Sternberg Cr","-35.40265","149.107483",,,"0","0"
"POINT (149.044929 -35.239286)","0","4472",,"Petterd St after 2nd Hannaford St","-35.239286","149.044929",,,"0","0"
"POINT (149.142543 -35.278386)","0","3099",,"Gooreen St after Allambee St","-35.278386","149.142543",,,"0","0"
"POINT (149.15298700000005 -35.290421)","0","3077",,"Blamey Cr after Chauvel St","-35.290421","149.152987",,,"0","0"
"POINT (149.129446 -35.169272)","0","6049",,"Katherine Av before Timboram St","-35.169272","149.129446",,,"0","0"
"POINT (149.159278 -35.194806)","0","6060",,"Mapleton Av opp Nimbera St","-35.194806","149.159278",,,"0","0"
"POINT (149.10630100000003 -35.304595)","0","2230",,"Schlich St before Hopetoun Cct","-35.304595","149.106301",,,"0","0"
"POINT (149.096054 -35.174791)","0","6110",,"Kingslande Pde opp Casey Market Town","-35.174791","149.096054",,,"0","0"
"POINT (149.127065 -35.431494)","0","1125",,"69 Deamer Cr","-35.431494","149.127065",,,"0","0"
"POINT (149.11438 -35.155803000000006)","0","6105",,"Mirrabei Dr after Yamma Way","-35.155803","149.11438",,,"0","0"
"POINT (149.065303 -35.414225)","0","49",,"Tuggeranong Interchange Plt 5","-35.414225","149.065303",,"https://www.transport.act.gov.au/__data/assets/pdf_file/0013/1244200/TC_station_tuggeranong.pdf","0","0"
"POINT (149.07868 -35.233616)","0","4938",,"Aikman Dr after Joy Cummings Pl","-35.233616","149.07868",,,"0","0"
"POINT (149.109135 -35.217719)","0","4032",,"80 Maribyrnong Av","-35.217719","149.109135",,,"0","0"
"POINT (149.114444 -35.193962)","0","4784",,"Kosciuszko Av after Bimberi Cr","-35.193962","149.114444",,,"0","0"
"POINT (149.041553 -35.189532)","0","4226",,"41 Shakespeare Cr","-35.189532","149.041553",,,"0","0"
"POINT (149.114044 -35.171819)","0","4850",,"Gurrang Av after Deumonga Ct","-35.171819","149.114044",,,"0","0"
"POINT (149.029101 -35.219426)","0","4402",,"Dalley Cr before 1st Gurner St","-35.219426","149.029101",,,"0","0"
"POINT (149.10634 -35.184149)","0","4729",,"Lexcen Av opp Anne Clark Av","-35.184149","149.10634",,,"0","0"
"POINT (149.122262 -35.177876)","0","5996",,"Paul Coe Cr after Nona Pl","-35.177876","149.122262",,,"0","0"
"POINT (149.08623899999998 -35.458172)","0","1666",,"Gordon PS Knoke Av","-35.458172","149.086239",,,"0","0"
"POINT (149.076927 -35.237504)","0","4144",,"Aikman Dr before Townsend Pl","-35.237504","149.076927",,,"0","0"
"POINT (149.031926 -35.311997999999996)","0","2845",,"John Gorton Dr after Opperman Av","-35.311998","149.031926",,,"0","0"
"POINT (149.097304 -35.419885)","0","1443",,"Cockcroft Av before Kneeshaw St","-35.419885","149.097304",,,"0","0"
"POINT (149.039301 -35.233359)","0","4352",,"Scullin Shops Ross Smith Cr","-35.233359","149.039301",,,"0","0"
"POINT (149.14668600000002 -35.157497)","0","6321",,"Henry Williams after Mabo Bvd","-35.157497","149.146686",,,"0","0"
"POINT (149.138945 -35.254402)","0","3161",,"Cowper St after Hope St","-35.254402","149.138945",,,"0","0"
"POINT (149.156621 -35.332972999999996)","0","2348",,"Kootara Cr before Boolimba Cr","-35.332973","149.156621",,,"0","0"
"POINT (149.04298899999998 -35.34412800000001)","0","2436",,"Carbeen St after 1st Gungurra Cr","-35.344128","149.042989",,,"0","0"
"POINT (149.063357 -35.403181)","0","1413",,"Learmonth Dr after Athllon Dr","-35.403181","149.063357",,,"0","0"
"POINT (149.084696 -35.368643)","0","2073",,"Beasley St opp Gepp Pl","-35.368643","149.084696",,,"0","0"
"POINT (149.09321 -35.375775)","0","2653",,"Athllon Dr 2nd after Beasley St","-35.375775","149.09321",,,"0","0"
"POINT (149.05903600000002 -35.390376)","0","1289",,"O'Halloran Cct opp Boddington Cr","-35.390376","149.059036",,,"0","0"
"POINT (149.15344 -35.244403999999996)","0","4594",,"Phillip Av before Antill St","-35.244404","149.15344",,,"0","0"
"POINT (149.060384 -35.355402000000005)","0","2418",,"Nemarang Cr opp Arawang PS","-35.355402","149.060384",,,"0","0"
"POINT (149.04286299999998 -35.197113)","0","4490",,"Tillyard Dr opp Barber Cr","-35.197113","149.042863",,,"0","0"
"POINT (149.153647 -35.23798)","0","3248",,"Majura PS Knox St","-35.23798","149.153647",,,"0","0"
"POINT (149.075921 -35.420123)","0","1740",,"Drakeford Dr after Athllon Dr","-35.420123","149.075921",,,"0","0"
"POINT (149.063071 -35.253648)","0","4509",,"Bennelong Cr after Goulburn St","-35.253648","149.063071",,,"0","0"
"POINT (149.144723 -35.178853000000004)","0","6338",,"David Walsh Av opp Max Purnell St","-35.178853","149.144723",,,"0","0"
"POINT (149.05393 -35.32918)","0","2820",,"Streeton Drive after Unwin Pl","-35.32918","149.05393",,,"0","0"
"POINT (149.072025 -35.334276)","0","2502",,"Devonport St opp 1st Derwent St","-35.334276","149.072025",,,"0","0"
"POINT (149.122136 -35.17329)","0","4714",,"Shoalhaven Av before Roderick St","-35.17329","149.122136",,,"0","0"
"POINT (149.084323 -35.40687)","0","1631",,"Laurens St after McBryde Cr","-35.40687","149.084323",,,"0","0"
"POINT (149.048365 -35.377990999999994)","0","1274",,"Barritt St after Kambah Pool Rd","-35.377991","149.048365",,,"0","0"
"POINT (149.10171100000002 -35.373633)","0","2477",,"Marshall St opp Goodwin Village Farrer","-35.373633","149.101711",,,"0","0"
"POINT (149.047943 -35.347043)","0","0201",,"Fremantle Dr after 1st McKail Cr","-35.347043","149.047943",,,"0","0"
"POINT (149.152245 -35.286949)","0","3088",,"Blamey Cr opp Edmondson St","-35.286949","149.152245",,,"0","0"
"POINT (149.106943 -35.201944000000005)","0","6100",,"Redruth St opp Crace Shops","-35.201944","149.106943",,,"0","0"
"POINT (149.133149 -35.306076000000004)","0","2258",,"Barton Bus Stn Plt 1","-35.306076","149.133149",,,"0","0"
"POINT (149.08317399999999 -35.463902000000004)","0","1904",,"Knoke Av after 1st Mina Wylie Cr","-35.463902","149.083174",,,"0","0"
"POINT (149.041878 -35.329947)","0","2123",,"Dixon Dr after Warragamba Av","-35.329947","149.041878",,,"0","0"
"POINT (149.04380700000002 -35.236429)","0","4467",,"Chewings St opp McGinness St","-35.236429","149.043807",,,"0","0"
"POINT (149.144453 -35.268758)","0","3228",,"Campbell St after Leslie St","-35.268758","149.144453",,,"0","0"
"POINT (149.087314 -35.181039)","0","4678",,"McClelland Av after Donnan St","-35.181039","149.087314",,,"0","0"
"POINT (149.081423 -35.206115999999994)","0","4672",,"Owen Dixon Dr opp Heydon Cr","-35.206116","149.081423",,,"0","0"
"POINT (149.114891 -35.446523)","0","1112",,"Louis Loder St opp 1st Hartung Cr","-35.446523","149.114891",,,"0","0"
"POINT (149.072074 -35.219424)","0","4134",,"Dumas St before 2nd Buggy Cr","-35.219424","149.072074",,,"0","0"
"POINT (149.138532 -35.180638)","0","6026",,"Gundaroo Dr before Hollingsworth St","-35.180638","149.138532",,,"0","0"
"POINT (149.076077 -35.220806)","0","4139",,"Dumas St after 1st Slessor Cr","-35.220806","149.076077",,,"0","0"
"POINT (149.126899 -35.315401)","0","2925",,"Forrest PS National Cct","-35.315401","149.126899",,,"0","0"
"POINT (149.02827 -35.23388)","0","4302",,"Findlay St after Cantor Cr","-35.23388","149.02827",,,"0","0"
"POINT (149.0982 -35.439074)","0","1668",,"Duggan St before Pennington Cr","-35.439074","149.0982",,,"0","0"
"POINT (149.082409 -35.41809)","0","1448",,"Charleston St after Hallstrom Cct","-35.41809","149.082409",,,"0","0"
"POINT (149.068407 -35.239813)","0","5513",,"Belconnen Interchange Plt 3","-35.239813","149.068407",,"https://www.transport.act.gov.au/__data/assets/pdf_file/0010/1244197/TC_station_community.pdf","0","0"
"POINT (149.14538100000001 -35.185289000000004)","0","6140",,"Anthony Rolfe Av at Hammer St","-35.185289","149.145381",,,"0","0"
"POINT (149.068224 -35.256002)","0","4514",,"Redfern St after Dexter St","-35.256002","149.068224",,,"0","0"
"POINT (149.11453799999998 -35.264157000000004)","0","3109",,"Miller St before Faunce Cr","-35.264157","149.114538",,,"0","0"
"POINT (149.09559299999998 -35.168134)","0","4857",,"Plimsoll Dr before David Miller Cr","-35.168134","149.095593",,,"0","0"
"POINT (149.017472 -35.208915000000005)","0","4377",,"19 Archdall St","-35.208915","149.017472",,,"0","0"
"POINT (149.105556 -35.411981)","0","1507",,"Castleton Cr opp 1st Wheatley St","-35.411981","149.105556",,,"0","0"
"POINT (149.103561 -35.339495)","0","2530",,"Gilmore Cr at 1st Ingamells St","-35.339495","149.103561",,,"0","0"
"POINT (149.087641 -35.467259000000006)","0","1200",,"Knoke Av after 2nd Harry Hopman Cct","-35.467259","149.087641",,,"0","0"
"POINT (149.122514 -35.247823)","0","3120",,"Mackennal St before Earle St","-35.247823","149.122514",,,"0","0"
"POINT (149.16751299999999 -35.326234)","0","1766",,"Barrier St before Ipswich St","-35.326234","149.167513",,,"0","0"
"POINT (149.164438 -35.300218)","0","3067",,"Parnell St after Plant Rd","-35.300218","149.164438",,,"0","0"
"POINT (149.161435 -35.200872)","0","6070",,"Nullarbor Av opp Phantom St","-35.200872","149.161435",,,"0","0"
"POINT (149.076987 -35.31947900000001)","0","2022",,"Throssell St after Prendergast St","-35.319479","149.076987",,,"0","0"
"POINT (149.143959 -35.31544)","0","2232",,"Eyre St after Howitt St","-35.31544","149.143959",,,"0","0"
"POINT (149.056409 -35.256659)","0","4636",,"Redfern St after Templeton St","-35.256659","149.056409",,,"0","0"
"POINT (149.057398 -35.343053999999995)","0","2591",,"Namatjira Dr after Parkinson St","-35.343054","149.057398",,,"0","0"
"POINT (149.09845900000002 -35.192271999999996)","0","5077",,"Temperley St after 2nd Whitfield Cct","-35.192272","149.098459",,,"0","0"
"POINT (149.099937 -35.169051)","0","4913",,"Horse Park Dr 2nd after Newlop St","-35.169051","149.099937",,,"0","0"
"POINT (149.09007 -35.24136)","0","4188",,"Haydon Dr after College St","-35.24136","149.09007",,,"0","0"
"POINT (149.122367 -35.27281)","0","3431",,"McCaughey St after Barry Dr","-35.27281","149.122367",,,"0","0"
"POINT (149.136097 -35.419229)","0","1139",,"Heagney Cr opp Gilmore PS","-35.419229","149.136097",,,"0","0"
"POINT (149.021747 -35.220998)","0","4895",,"Moyes Cr after Postle Cct","-35.220998","149.021747",,,"0","0"
"POINT (149.03308700000002 -35.341375)","0","2142",,"Wyangala St after 2nd Burdekin St","-35.341375","149.033087",,,"0","0"
"POINT (149.053869 -35.335566)","0","2198",,"Hilder St at McCubbin St","-35.335566","149.053869",,,"0","0"
"POINT (149.143947 -35.263591999999996)","0","3223",,"Cox St before Campbell St","-35.263592","149.143947",,,"0","0"
"POINT (149.133404 -35.250884)","0","4552",,"Northbourne Av opp Dickson Interchange","-35.250884","149.133404",,"http://www.transport.act.gov.au/__data/assets/pdf_file/0015/1111047/TC_station_dickson.pdf","0","0"
"POINT (149.048194 -35.347359999999995)","0","1253",,"Fremantle Dr opp 1st McKail Cr","-35.34736","149.048194",,,"0","0"
"POINT (149.09281000000001 -35.402386)","0","1335",,"Sternberg Cr opp Houston St","-35.402386","149.09281",,,"0","0"
"POINT (149.162578 -35.330884999999995)","0","5127",,"Canberra Av after Ipswich St","-35.330885","149.162578",,,"0","0"
"POINT (149.067557 -35.418993)","0","2719",,"Soward Way before Scollay St","-35.418993","149.067557",,,"0","0"
"POINT (149.070649 -35.197244)","0","4101",,"Owen Dixon Dr before Clarey Cr","-35.197244","149.070649",,,"0","0"
"POINT (149.14597 -35.193042)","0","6183",,"Manning Clark Cr before Alice Crist St","-35.193042","149.14597",,,"0","0"
"POINT (149.159248 -35.183203000000006)","0","6204",,"Bettong Av after Pipistrelle St","-35.183203","149.159248",,,"0","0"
"POINT (149.047783 -35.212405)","0","4839",,"Kingsford Smith Dr opp Companion Cr","-35.212405","149.047783",,,"0","0"
"POINT (149.110518 -35.231113)","0","4021",,"Maribyrnong Av after Ellenborough St","-35.231113","149.110518",,,"0","0"
"POINT (149.040575 -35.250075)","0","4451",,"Erldunda Cctbefore 2nd Woolner Cct","-35.250075","149.040575",,,"0","0"
"POINT (149.02729399999998 -35.201274)","0","4210",,"Lhotsky St before Cartwright St","-35.201274","149.027294",,,"0","0"
"POINT (149.02963 -35.331036)","0","2565",,"Warragamba Av before Eucumbene Dr","-35.331036","149.02963",,,"0","0"
"POINT (149.163207 -35.292651)","0","3424",,"Milne Bay Rd before Tobruk Rd","-35.292651","149.163207",,,"0","0"
"POINT (149.16551 -35.229009999999995)","0","3475",,"Aspinall St before Antill St","-35.22901","149.16551",,,"0","0"
"POINT (149.09741699999998 -35.397873)","0","1367",,"Langdon Av before 2nd Brunton St","-35.397873","149.097417",,,"0","0"
"POINT (149.043279 -35.200398)","0","4154",,"Tillyard Dr after Spalding St","-35.200398","149.043279",,,"0","0"
"POINT (149.144801 -35.27776)","0","4661",,"Campbell HS Limestone Av","-35.27776","149.144801",,,"0","0"
"POINT (149.06978600000002 -35.239758)","0","5511",,"Belconnen Interchange Plt 1","-35.239758","149.069786",,"https://www.transport.act.gov.au/__data/assets/pdf_file/0010/1244197/TC_station_community.pdf","0","0"
"POINT (149.041154 -35.336096999999995)","0","2209",,"Blackwood Tce after Tyers St","-35.336097","149.041154",,,"0","0"
"POINT (149.036357 -35.324558)","0","2805",,"Steve Irwin Av before David Fleay St","-35.324558","149.036357",,,"0","0"
"POINT (149.07324599999998 -35.214687)","0","4129",,"Dumas St after 1st Baume Cr","-35.214687","149.073246",,,"0","0"
"POINT (149.141145 -35.22065)","0","4755",,"Sandford St before 1st Winchombe Ct","-35.22065","149.141145",,,"0","0"
"POINT (149.003141 -35.2162)","0","0404",,"MacFarlane Burnet Av before De Gruchy Pl","-35.2162","149.003141",,,"0","0"
"POINT (149.03929 -35.233197)","0","4351",,"Ross Smith Cr opp Scullin Shops","-35.233197","149.03929",,,"0","0"
"POINT (149.163029 -35.329128999999995)","0","2387",,"Ipswich St after Wiluna St","-35.329129","149.163029",,,"0","0"
"POINT (149.116123 -35.253415999999994)","0","3114",,"Miller St after Nardoo Cr","-35.253416","149.116123",,,"0","0"
"POINT (149.137509 -35.412316)","0","1564",,"Louisa Lawson Cr before 1st Aronson Cr","-35.412316","149.137509",,,"0","0"
"POINT (149.129233 -35.414484)","0","1148",,"Benham St opp Chisholm Shops","-35.414484","149.129233",,,"0","0"
"POINT (149.04556100000002 -35.190819)","0","4888",,"Tillyard opp Fraser East Terminus","-35.190819","149.045561",,,"0","0"
"POINT (149.135592 -35.180153000000004)","0","6028",,"Gundaroo Dr before Nellie Hamilton Av","-35.180153","149.135592",,,"0","0"
"POINT (149.053797 -35.390316000000006)","0","1287",,"Boddington Cr after McLeod Pl","-35.390316","149.053797",,,"0","0"
"POINT (149.070536 -35.214789)","0","4178",,"Moynihan St after William Webb Dr","-35.214789","149.070536",,,"0","0"
"POINT (149.027741 -35.221410999999996)","0","4909",,"Southern Cross Dr after Dalley Cr","-35.221411","149.027741",,,"0","0"
"POINT (149.125992 -35.280645)","0","3037",,"London Cct opp City Police Station","-35.280645","149.125992",,,"0","0"
"POINT (149.094785 -35.397269)","0","1476",,"Kirkton St after 2nd Holden Cr","-35.397269","149.094785",,,"0","0"
"POINT (149.163872 -35.249874)","0","3202",,"Blue Gum PS Madigan St","-35.249874","149.163872",,,"0","0"
"POINT (149.049059 -35.331921)","0","2394",,"Canberra Montessori School Mulley St","-35.331921","149.049059",,,"0","0"
"POINT (149.117209 -35.4242)","0","1555",,"Heagney Cr opp 2nd McLorinan St","-35.4242","149.117209",,,"0","0"
"POINT (149.05109099999999 -35.335532)","0","2112",,"St Judes PS Mulley St","-35.335532","149.051091",,,"0","0"
"POINT (149.14306200000001 -35.227940000000004)","0","1726",,"Randwick Rd after Flemington Rd","-35.22794","149.143062",,,"0","0"
"POINT (149.14573000000001 -35.193133)","0","6182",,"Manning Clark Cr before Whitington St","-35.193133","149.14573",,,"0","0"
"POINT (149.111503 -35.164066999999996)","0","4703",,"Unaipon Av after Len Waters St","-35.164067","149.111503",,,"0","0"
"POINT (149.054235 -35.233517)","0","4435",,"Ratcliffe Cr after Southern Cross Dr","-35.233517","149.054235",,,"0","0"
"POINT (149.07996699999998 -35.207518)","0","4116",,"Heydon Cr after Owen Dixon Dr","-35.207518","149.079967",,,"0","0"
"POINT (149.075247 -35.355623)","0","2059",,"Macfarland Cr after Waldock St","-35.355623","149.075247",,,"0","0"
"POINT (149.019671 -35.233035)","0","4308",,"Drake Brockman Dr before Cussen St","-35.233035","149.019671",,,"0","0"
"POINT (149.079947 -35.394982)","0","1322",,"Wheeler Cr opp St Anthonys PS","-35.394982","149.079947",,,"0","0"
"POINT (149.030462 -35.338454)","0","2136",,"Renmark St after Eungella St","-35.338454","149.030462",,,"0","0"
"POINT (149.14242 -35.247712)","0","3238",,"Melba St at Allport St","-35.247712","149.14242",,,"0","0"
"POINT (149.08364699999998 -35.461984)","0","1234",,"Knoke Av opp Jim Pike Av","-35.461984","149.083647",,,"0","0"
"POINT (149.095493 -35.371865)","0","2037",,"Beasley St after Athllon Dr","-35.371865","149.095493",,,"0","0"
"POINT (149.0994 -35.232132)","0","4015",,"Maribyrnong Av before 2nd Alberga St","-35.232132","149.0994",,,"0","0"
"POINT (149.093063 -35.372591)","0","2673",,"Athllon Dr at Beasley St","-35.372591","149.093063",,,"0","0"
"POINT (149.137787 -35.323676)","0","2369",,"Stuart St after Hann St","-35.323676","149.137787",,,"0","0"
"POINT (149.157936 -35.286984999999994)","0","3082",,"White St after Vasey Cr","-35.286985","149.157936",,,"0","0"
"POINT (149.055 -35.224726000000004)","0","4064",,"Florey Shops John Cleland Cr","-35.224726","149.055",,,"0","0"
"POINT (149.061362 -35.209734999999995)","0","4075",,"Copland Dr at Keenan St","-35.209735","149.061362",,,"0","0"
"POINT (149.091607 -35.426111999999996)","0","1001",,"Drumston St opp MacKillop College","-35.426112","149.091607",,,"0","0"
"POINT (149.110857 -35.193861)","0","5054",,"Gundaroo Dr after Burrowa St","-35.193861","149.110857",,,"0","0"
"POINT (149.007119 -35.220240000000004)","0","4324",,"Spofforth St after Southern Cross Dr","-35.22024","149.007119",,,"0","0"
"POINT (149.044625 -35.325386)","0","2812",,"Cotter Rd after Harold White Av","-35.325386","149.044625",,,"0","0"
"POINT (149.05593100000002 -35.227691)","0","4430",,"Ratcliffe Cr opp Connah St","-35.227691","149.055931",,,"0","0"
"POINT (149.12088899999998 -35.282472)","0","3487",,"Liversidge St after Ellery Cr","-35.282472","149.120889",,,"0","0"
"POINT (149.055616 -35.24929)","0","4272",,"Coulter Dr opp Lachlan St","-35.24929","149.055616",,,"0","0"
"POINT (149.043421 -35.211981)","0","4200",,"Companion Cr opp 1st Vickers Cr","-35.211981","149.043421",,,"0","0"
"POINT (149.098876 -35.390588)","0","1482",,"Gaunson Cr after Longmore Cr","-35.390588","149.098876",,,"0","0"
"POINT (149.09937 -35.392723)","0","1481",,"Gaunson Cr opp 2nd Sullivan Cr","-35.392723","149.09937",,,"0","0"
"POINT (149.07387 -35.423711)","0","1066",,"Anketell St before Athllon Dr","-35.423711","149.07387",,,"0","0"
"POINT (149.05148 -35.203485)","0","4254",,"Kingsford Smith Dr after Spalding St","-35.203485","149.05148",,,"0","0"
"POINT (149.14260900000002 -35.290290999999996)","0","3032",,"Anzac Park East Constitution Av","-35.290291","149.142609",,,"0","0"
"POINT (149.02504199999998 -35.212398)","0","4391",,"Florey Dr after Dalley Cr","-35.212398","149.025042",,,"0","0"
"POINT (149.145499 -35.24344)","0","3243",,"Bradfield St opp Frencham St","-35.24344","149.145499",,,"0","0"
"POINT (149.073249 -35.385438)","0","1792",,"Summerland Cct after Mason St","-35.385438","149.073249",,,"0","0"
"POINT (149.118015 -35.190581)","0","4788",,"Kosciuszko Av after 2nd Sentry Cr","-35.190581","149.118015",,,"0","0"
"POINT (149.10235800000004 -35.413342)","0","1838",,"Ashley Dr opp Bugden Av","-35.413342","149.102358",,,"0","0"
"POINT (149.100575 -35.401941)","0","1171",,"Sternberg Cr after Ashley Dr","-35.401941","149.100575",,,"0","0"
"POINT (149.028369 -35.225918)","0","4362",,"Cranleigh School Starke St","-35.225918","149.028369",,,"0","0"
"POINT (149.11901699999999 -35.272968)","0","4528",,"ANU Barry Dr","-35.272968","149.119017",,,"0","0"
"POINT (149.109789 -35.462639)","0","1689",,"Templestowe Av after 2nd Barringer St","-35.462639","149.109789",,,"0","0"
"POINT (149.090168 -35.20968)","0","5032",,"Chuculba Cr after 2nd Canopus Cr","-35.20968","149.090168",,,"0","0"
"POINT (149.151106 -35.298741)","0","3073",,"Russell Dr before Vivian Bullwinkel Way","-35.298741","149.151106",,,"0","0"
"POINT (149.10734399999998 -35.172779999999996)","0","4734",,"Jabanungga Av after Manity Cr","-35.17278","149.107344",,,"0","0"
"POINT (149.09831 -35.319342999999996)","0","2279",,"Kent St opp Canberra Private Hospital","-35.319343","149.09831",,,"0","0"
"POINT (149.139847 -35.202451)","0","6079",,"Hoskins St before Oodgeroo Av","-35.202451","149.139847",,,"0","0"
"POINT (149.067994 -35.349777)","0","2183",,"Badimara St before Hindmarsh Dr","-35.349777","149.067994",,,"0","0"
"POINT (149.15674099999998 -35.251153)","0","3208",,"Phillip Av after Stott St","-35.251153","149.156741",,,"0","0"
"POINT (149.00626499999998 -35.226982)","0","4950",,"26 Spofforth St","-35.226982","149.006265",,,"0","0"
"POINT (149.13516 -35.18535)","0","7011",,"Gungahlin Place Plt 3","-35.18535","149.13516",,"https://www.transport.act.gov.au/__data/assets/pdf_file/0003/1244199/TC_station_gungahlin.pdf","0","0"
"POINT (149.071482 -35.246351000000004)","0","4534",,"Hennessy St after Strong Pl","-35.246351","149.071482",,,"0","0"
"POINT (149.092291 -35.45616)","0","1641",,"Lanyon Marketplace Terminus","-35.45616","149.092291",,,"0","0"
"POINT (149.141977 -35.261475)","0","3148",,"Cowper St at Wakefield Av","-35.261475","149.141977",,,"0","0"
"POINT (149.097686 -35.356095)","0","2296",,"Canberra Christian School Ainsworth St","-35.356095","149.097686",,,"0","0"
"POINT (149.12818600000003 -35.329658)","0","3270",,"Monaro Cr before Flinders Way","-35.329658","149.128186",,,"0","0"
"POINT (149.100203 -35.221828)","0","5005",,"Baldwin Dr opp 2nd Maribyrnong Av","-35.221828","149.100203",,,"0","0"
"POINT (149.121414 -35.254284000000006)","0","3189",,"Brigalow St after Scrivener St","-35.254284","149.121414",,,"0","0"
"POINT (149.036443 -35.356882)","0","2158",,"Perry Dr before Musgrove St","-35.356882","149.036443",,,"0","0"
"POINT (149.117059 -35.28778)","0","4631",,"Constables Cottage Lennox Crossing","-35.28778","149.117059",,,"0","0"
"POINT (149.119521 -35.176311)","0","4722",,"Paul Coe Cr after Mulleun Cl","-35.176311","149.119521",,,"0","0"
"POINT (149.019225 -35.218318)","0","4396",,"Florey Dr after Southern Cross Dr","-35.218318","149.019225",,,"0","0"
"POINT (149.131012 -35.340646)","0","3285",,"La Perouse St opp Red Hill Shops","-35.340646","149.131012",,,"0","0"
"POINT (149.120541 -35.312177)","0","2217",,"Melbourne Av after Canterbury Cr","-35.312177","149.120541",,,"0","0"
"POINT (149.149166 -35.326259)","0","2444",,"Kootara Cr before McMillan Cr","-35.326259","149.149166",,,"0","0"
"POINT (149.044157 -35.192678)","0","4233",,"Daley Cr opp Fraser Shops","-35.192678","149.044157",,,"0","0"
"POINT (149.09558 -35.35342)","0","2481",,"Ainsworth St before Power St","-35.35342","149.09558",,,"0","0"
"POINT (149.08762099999998 -35.344002)","0","2712",,"Woden Interchange Plt 8","-35.344002","149.087621",,"https://www.transport.act.gov.au/__data/assets/pdf_file/0016/1244203/TC_station_woden.pdf","0","0"
"POINT (149.084194 -35.18456)","0","4676",,"McClelland Av opp Moriarty St","-35.18456","149.084194",,,"0","0"
"POINT (149.100719 -35.410892)","0","1436",,"Clive Steele Av opp 1st Priddle St","-35.410892","149.100719",,,"0","0"
"POINT (149.086738 -35.253253)","0","4804",,"Calvary Hospital Haydon Dr","-35.253253","149.086738",,,"0","0"
"POINT (149.06538799999998 -35.414615999999995)","0","1807",,"Tuggeranong Interchange Plt 7","-35.414616","149.065388",,"https://www.transport.act.gov.au/__data/assets/pdf_file/0013/1244200/TC_station_tuggeranong.pdf","0","0"
"POINT (149.145476 -35.339475)","0","3297",,"Caley Cr before Goyder St","-35.339475","149.145476",,,"0","0"
"POINT (149.086154 -35.441691999999996)","0","1183",,"Woodcock Dr opp Clare Dennis Av","-35.441692","149.086154",,,"0","0"
"POINT (149.012001 -35.222167)","0","4955",,"Beaurepaire Cr after 1st Pickworth St","-35.222167","149.012001",,,"0","0"
"POINT (149.065821 -35.200136)","0","4085",,"Baddeley Cr before Edmunds Pl","-35.200136","149.065821",,,"0","0"
"POINT (149.14058899999998 -35.250482)","0","3132",,"Dickson Shops Cowper St","-35.250482","149.140589",,,"0","0"
"POINT (149.11589 -35.373338000000004)","0","2466",,"Julia Flynn Av opp Rooney Pl","-35.373338","149.11589",,,"0","0"
"POINT (149.12658000000002 -35.186475)","0","6132",,"The Valley Av after Warwick St","-35.186475","149.12658",,,"0","0"
"POINT (149.102956 -35.219446999999995)","0","4036",,"Kaleen Village Maribyrnong Av","-35.219447","149.102956",,,"0","0"
"POINT (149.03190700000002 -35.334854)","0","2129",,"Duffy PS Burrinjuck Cr","-35.334854","149.031907",,,"0","0"
"POINT (149.137537 -35.319444)","0","2329",,"Giles St before Canberra Av","-35.319444","149.137537",,,"0","0"
"POINT (149.097634 -35.469475)","0","1204",,"Pockett Av after 2nd Ironbark Cr","-35.469475","149.097634",,,"0","0"
"POINT (149.026815 -35.298894)","0","2833",,"Holborow Av after Eureka Way","-35.298894","149.026815",,,"0","0"
"POINT (149.115219 -35.418601)","0","1501",,"Beattie Cr after 2nd Longman St","-35.418601","149.115219",,,"0","0"
"POINT (149.115556 -35.269496000000004)","0","3105",,"Boldrewood St before Spencer St","-35.269496","149.115556",,,"0","0"
"POINT (149.013038 -35.209733)","0","4373",,"Osburn Dr after Cannan Cr","-35.209733","149.013038",,,"0","0"
"POINT (149.049215 -35.352453000000004)","0","2425",,"Fremantle Dr after 2nd Mackie Cr","-35.352453","149.049215",,,"0","0"
"POINT (149.097362 -35.457716)","0","1216",,"Box Hill Av opp St Clare of Assisi PS","-35.457716","149.097362",,,"0","0"
"POINT (149.020448 -35.198246000000005)","0","4485",,"Lance Hill Av after 2nd Alarmon Cr","-35.198246","149.020448",,,"0","0"
"POINT (149.124061 -35.186933)","0","5083",,"The Valley Av opp Burgmann School Valley Campus","-35.186933","149.124061",,,"0","0"
"POINT (149.108768 -35.149293)","0","6117",,"Sutherland Cr opp Bischoff St","-35.149293","149.108768",,,"0","0"
"POINT (149.048641 -35.355708)","0","2582",,"Streeton Dr after Namatjira Dr","-35.355708","149.048641",,,"0","0"
"POINT (149.124277 -35.177467)","0","4808",,"Mirrabei Dr after 2nd Paul Coe Cr","-35.177467","149.124277",,,"0","0"
"POINT (149.14218 -35.18837)","0","7009",,"The Valley Av before Manning Clark Cr","-35.18837","149.14218",,,"0","0"
"POINT (149.123228 -35.270140000000005)","0","4614",,"McCaughey St at Masson St","-35.27014","149.123228",,,"0","0"
"POINT (149.153594 -35.239161)","0","3167",,"Watson Shops Windeyer St","-35.239161","149.153594",,,"0","0"
"POINT (149.09409399999998 -35.318962000000006)","0","3017",,"John James Hospital Denison St","-35.318962","149.094094",,,"0","0"
"POINT (149.048444 -35.225543)","0","4424",,"Krefft St before 2nd Boswell Cr","-35.225543","149.048444",,,"0","0"
"POINT (149.074185 -35.426899)","0","1047",,"Barr Smith Av after Don Dunstan Dr","-35.426899","149.074185",,,"0","0"
"POINT (149.054357 -35.355019)","0","5105",,"Mt Stromlo HS School Grounds SSO","-35.355019","149.054357",,,"0","0"
"POINT (149.13050900000002 -35.278735)","0","3404",,"City Interchange Plt 12","-35.278735","149.130509",,"https://www.transport.act.gov.au/__data/assets/pdf_file/0008/1244195/TC_station_city.pdf","0","0"
"POINT (149.052108 -35.206616)","0","4161",,"Alfred Hill Dr opp Henslowe Pl","-35.206616","149.052108",,,"0","0"
"POINT (149.101423 -35.343983)","0","2264",,"Gilmore Cr opp Garran PS","-35.343983","149.101423",,,"0","0"
"POINT (149.10777500000003 -35.232568)","0","4019",,"Maribyrnong Av after Daintree Cr","-35.232568","149.107775",,,"0","0"
"POINT (149.05648 -35.362054)","0","2169",,"Kalgoorlie Cr opp Fisher Shops","-35.362054","149.05648",,,"0","0"
"POINT (149.126941 -35.19375300000001)","0","4773",,"Kosciuszko Av before Gungahlin Dr","-35.193753","149.126941",,,"0","0"
"POINT (149.15651200000002 -35.337125)","0","2343",,"Goyder St opp 128","-35.337125","149.156512",,,"0","0"
"POINT (149.10485500000001 -35.417136)","0","1531",,"Bugden Av after 1st Dalziel St","-35.417136","149.104855",,,"0","0"
"POINT (149.05488300000002 -35.379387)","0","1018",,"Boddington Cr after Bacchus Cct","-35.379387","149.054883",,,"0","0"
"POINT (149.08710600000003 -35.373643)","0","2520",,"Beasley St opp Torrens Shops","-35.373643","149.087106",,,"0","0"
"POINT (149.1812 -35.327405999999996)","0","2406",,"Albany St before Collie St","-35.327406","149.1812",,,"0","0"
"POINT (149.15551100000002 -35.326703)","0","2678",,"Canberra Av before Mildura St","-35.326703","149.155511",,,"0","0"
"POINT (149.064032 -35.377614)","0","1347",,"Marconi Cr opp Taylor PS","-35.377614","149.064032",,,"0","0"
"POINT (149.033043 -35.205867)","0","4205",,"Lhotsky St opp Charnwood Shops","-35.205867","149.033043",,,"0","0"
"POINT (149.142902 -35.236714)","0","4749",,"Federal Hwy after Phillip Av","-35.236714","149.142902",,,"0","0"
"POINT (149.074936 -35.26051)","0","4647",,"Bandjalong Cr after Bindubi St","-35.26051","149.074936",,,"0","0"
"POINT (149.05893799999998 -35.203487)","0","4249",,"Kingsford Smith Dr after Alpen St","-35.203487","149.058938",,,"0","0"
"POINT (149.050176 -35.190512)","0","4238",,"Bingley Cr after 2nd Foskett St","-35.190512","149.050176",,,"0","0"
"POINT (149.125235 -35.283462)","0","4633",,"Edinburgh Av after London Cct","-35.283462","149.125235",,,"0","0"
"POINT (149.149085 -35.32007)","0","3320",,"Canberra Railway Station","-35.32007","149.149085",,,"0","0"
"POINT (149.037957 -35.224266)","0","4193",,"Kingsford Smith Dr opp St Francis Xavier College","-35.224266","149.037957",,,"0","0"
"POINT (149.137212 -35.275786)","0","3390",,"Doonkuna St before Donaldson St","-35.275786","149.137212",,,"0","0"
"POINT (149.089323 -35.392319)","0","1360",,"Langdon Av after Macbain St","-35.392319","149.089323",,,"0","0"
"POINT (149.11211100000003 -35.168834000000004)","0","4867",,"Ngunnawal PS Unaipon Av","-35.168834","149.112111",,,"0","0"
"POINT (149.03533100000004 -35.230911)","0","4347",,"Wirraway Cr after Kingsford Smith Dr","-35.230911","149.035331",,,"0","0"
"POINT (149.093469 -35.209857)","0","4053",,"Chuculba Cr before 2nd Centaurus St","-35.209857","149.093469",,,"0","0"
"POINT (149.0757 -35.407481)","0","1400",,"Newman-Morris Cct opp 2nd Connibere Cr","-35.407481","149.0757",,,"0","0"
"POINT (149.09828000000005 -35.228101)","0","5011",,"Baldwin Dr before 2nd Maribyrnong Av","-35.228101","149.09828",,,"0","0"
"POINT (149.077728 -35.33051)","0","2005",,"Carruthers St opp Curtin PS","-35.33051","149.077728",,,"0","0"
"POINT (149.162081 -35.230039)","0","3345",,"Aspinall St opp Watson Terminus","-35.230039","149.162081",,,"0","0"
"POINT (149.09071200000002 -35.175938)","0","6308",,"Overall Av after Powley St","-35.175938","149.090712",,,"0","0"
"POINT (149.11252 -35.180862)","0","4845",,"Amagula Av before 1st Murrung Cr","-35.180862","149.11252",,,"0","0"
"POINT (149.07318700000002 -35.209266)","0","4112",,"Clancy St opp Evatt Shops","-35.209266","149.073187",,,"0","0"
"POINT (149.112208 -35.168029)","0","4699",,"Unaipon Av opp Ngunnawal PS","-35.168029","149.112208",,,"0","0"
"POINT (149.123683 -35.424407)","0","1551",,"Heagney Cr after 1st Muntz St","-35.424407","149.123683",,,"0","0"
"POINT (149.04503 -35.245379)","0","4446",,"Gillespie St before 1st Morton St","-35.245379","149.04503",,,"0","0"
"POINT (149.011581 -35.230854)","0","4945",,"Drake Brockman Dr opp Trickett St","-35.230854","149.011581",,,"0","0"
"POINT (149.120097 -35.450823)","0","1037",,"Chippindall Cct opp Goldfinch Cct","-35.450823","149.120097",,,"0","0"
"POINT (149.134663 -35.243388)","0","4604",,"Yowani Country Club Northbourne Av","-35.243388","149.134663",,,"0","0"
"POINT (149.06582 -35.19666)","0","4096",,"Clarey Cr at Dunkley Pl","-35.19666","149.06582",,,"0","0"
"POINT (149.15989400000004 -35.244689)","0","3198",,"Madigan St before Antill St","-35.244689","149.159894",,,"0","0"
"POINT (149.006015 -35.222436)","0","4322",,"Spofforth St before Messenger St","-35.222436","149.006015",,,"0","0"
"POINT (149.148516 -35.171813)","0","6313",,"Zakharov Av after Alice Berry St","-35.171813","149.148516",,,"0","0"
"POINT (149.13851 -35.265386)","0","3143",,"Cowper St after Limestone Av","-35.265386","149.13851",,,"0","0"
"POINT (149.035246 -35.195777)","0","4215",,"Lhotsky St after 2nd Townson Cr","-35.195777","149.035246",,,"0","0"
"POINT (149.09814 -35.215971)","0","4060",,"Canopus Cr after Hirst Pl","-35.215971","149.09814",,,"0","0"
"POINT (149.11129 -35.436661)","0","1019",,"Casey Cr before Carpenter Cl","-35.436661","149.11129",,,"0","0"
"POINT (149.166875 -35.230936)","0","3178",,"Antill St opp Kilduff St","-35.230936","149.166875",,,"0","0"
"POINT (149.121735 -35.259702000000004)","0","4578",,"MacArthur Av before Macpherson St","-35.259702","149.121735",,,"0","0"
"POINT (149.107125 -35.36208)","0","2108",,"Bromby St opp Cobbadah St","-35.36208","149.107125",,,"0","0"
"POINT (149.065924 -35.394099)","0","1297",,"O'Halloran Cct before Ashby Cct","-35.394099","149.065924",,,"0","0"
"POINT (149.104019 -35.424738)","0","1486",,"Clift Cr after Ashley Dr","-35.424738","149.104019",,,"0","0"
"POINT (149.033089 -35.193224)","0","4220",,"Shakespeare Cr after Pettifer Pl","-35.193224","149.033089",,,"0","0"
"POINT (149.070745 -35.417379)","0","1062",,"Soward Way before Anketell St","-35.417379","149.070745",,,"0","0"
"POINT (149.093261 -35.445199)","0","2697",,"Tharwa Dr before Drakeford Dr","-35.445199","149.093261",,,"0","0"
"POINT (149.015919 -35.202291)","0","3438",,"Archdall St before Jonsson Ct","-35.202291","149.015919",,,"0","0"
"POINT (149.059434 -35.338539000000004)","0","2192",,"McInnes St before Gritten St","-35.338539","149.059434",,,"0","0"
"POINT (149.14727299999998 -35.261568)","0","3220",,"Ebden St after Wakefield Av","-35.261568","149.147273",,,"0","0"
"POINT (149.09142 -35.427477)","0","1008",,"Isabella Plains Shops Ellerston Av","-35.427477","149.09142",,,"0","0"
"POINT (149.01140800000002 -35.218777)","0","4328",,"Southern Cross Dr opp O'Reilly St","-35.218777","149.011408",,,"0","0"
"POINT (149.098535 -35.146514)","0","6097",,"137 Robin Boyd Cr","-35.146514","149.098535",,,"0","0"
"POINT (149.07703899999998 -35.319388000000004)","0","2010",,"Throssell St opp Prendergast St","-35.319388","149.077039",,,"0","0"
"POINT (149.054488 -35.231848)","0","4434",,"Ratcliffe Cr before 2nd Challinor Cr","-35.231848","149.054488",,,"0","0"
"POINT (149.090972 -35.237834)","0","4008",,"Haydon Dr opp University Dr","-35.237834","149.090972",,,"0","0"
"POINT (149.122031 -35.168405)","0","4718",,"Burdekin Av before Reeve Cl","-35.168405","149.122031",,,"0","0"
"POINT (149.087964 -35.209901)","0","4792",,"William Slim Dr after Chuculba Cr","-35.209901","149.087964",,,"0","0"
"POINT (149.09249499999999 -35.456171000000005)","0","1215",,"Box Hill Av opp Lanyon Marketplace","-35.456171","149.092495",,,"0","0"
"POINT (149.01938 -35.21836)","0","4395",,"Florey Dr before Southern Cross Dr","-35.21836","149.01938",,,"0","0"
"POINT (149.050246 -35.211506)","0","4259",,"Verbrugghen St after 1st Grainger Cct","-35.211506","149.050246",,,"0","0"
"POINT (149.143544 -35.272643)","0","3231",,"Chisholm St after Howe Cr","-35.272643","149.143544",,,"0","0"
"POINT (149.061492 -35.343856)","0","2187",,"40 McInnes St","-35.343856","149.061492",,,"0","0"
"POINT (149.11326 -35.158955)","0","6108",,"Mirrabei Dr before Len Waters St","-35.158955","149.11326",,,"0","0"
"POINT (149.102228 -35.338147)","0","2267",,"Kitchener St before Lynch St","-35.338147","149.102228",,,"0","0"
"POINT (149.155529 -35.20962)","0","6006",,"Well Station Dr before Kings Canyon St","-35.20962","149.155529",,,"0","0"
"POINT (149.089292 -35.400409)","0","1469",,"Wheeler Cr opp Hanna St","-35.400409","149.089292",,,"0","0"
"POINT (149.076794 -35.432179999999995)","0","1696",,"Barr Smith Av opp 2nd Derrington Cr","-35.43218","149.076794",,,"0","0"
"POINT (149.071975 -35.244045)","0","4533",,"Hennessy St at Osborne Pl","-35.244045","149.071975",,,"0","0"
"POINT (149.133027 -35.424695)","0","1134",,"Heagney Cr before Enid Lorimer Cct","-35.424695","149.133027",,,"0","0"
"POINT (149.120793 -35.261765000000004)","0","4607",,"Macpherson St after Lilley St","-35.261765","149.120793",,,"0","0"
"POINT (149.128542 -35.331882)","0","3273",,"Golden Gr opp Canberra Senior Grammar School","-35.331882","149.128542",,,"0","0"
"POINT (149.060265 -35.239985)","0","956",,"Cohen St Interchange Arrivals","-35.239985","149.060265",,"https://www.transport.act.gov.au/__data/assets/pdf_file/0009/1244196/TC_station_cohen.pdf","0","0"
"POINT (149.079656 -35.256204)","0","4521",,"Aranda PS Bandjalong Cr","-35.256204","149.079656",,,"0","0"
"POINT (149.160068 -35.244645)","0","3197",,"Madigan St after Antill St","-35.244645","149.160068",,,"0","0"
"POINT (149.12331 -35.187759)","0","5084",,"Burgmann Anglican School Valley Campus","-35.187759","149.12331",,,"0","0"
"POINT (149.077684 -35.330288)","0","2027",,"Carruthers St before Curtin PS","-35.330288","149.077684",,,"0","0"
"POINT (149.133879 -35.301184)","0","3260",,"John Gorton Building Parkes Pl","-35.301184","149.133879",,,"0","0"
"POINT (149.076187 -35.34967600000001)","0","2064",,"Eggleston Cr after Plunkett St","-35.349676","149.076187",,,"0","0"
"POINT (149.153516 -35.336696)","0","2340",,"Goyder St opp Kyeema St","-35.336696","149.153516",,,"0","0"
"POINT (149.06059800000003 -35.197790000000005)","0","4089",,"Kingsford Smith Dr after Magrath Cr","-35.19779","149.060598",,,"0","0"
"POINT (149.111085 -35.465765999999995)","0","6014",,"Templestowe Av after Jane Sutherland St","-35.465766","149.111085",,,"0","0"
"POINT (149.09873000000002 -35.303827000000005)","0","2451",,"Schlich St before Novar St","-35.303827","149.09873",,,"0","0"
"POINT (149.04243500000004 -35.356885999999996)","0","2162",,"Perry Dr opp Chapman PS","-35.356886","149.042435",,,"0","0"
"POINT (149.110472 -35.31442)","0","2221",,"Gawler Cr before Robe St","-35.31442","149.110472",,,"0","0"
"POINT (149.105658 -35.316323)","0","2284",,"Macgregor St before Stradbroke St","-35.316323","149.105658",,,"0","0"
"POINT (149.12043300000002 -35.406964)","0","1153",,"Bugden Av before 2nd Larcombe Cr","-35.406964","149.120433",,,"0","0"
"POINT (149.09674 -35.414441)","0","1440",,"Clive Steele Av before 2nd Coode St","-35.414441","149.09674",,,"0","0"
"POINT (149.052355 -35.240111999999996)","0","4475",,"Page Shops Petterd St","-35.240112","149.052355",,,"0","0"
"POINT (149.14828500000002 -35.242366000000004)","0","3246",,"Bradfield St after Burn St","-35.242366","149.148285",,,"0","0"
"POINT (149.15444499999998 -35.253737)","0","3212",,"Officer Cr after 2nd Hannan Cr","-35.253737","149.154445",,,"0","0"
"POINT (148.99938 -35.23252)","0","5038",,"Pro Hart Av after Stockdill Dr","-35.23252","148.99938",,,"0","0"
"POINT (149.051974 -35.20671)","0","4162",,"Alfred Hill Dr after Henslowe Pl","-35.20671","149.051974",,,"0","0"
"POINT (149.108824 -35.21755)","0","4033",,"Maribyrnong Av before 2nd Onkaparinga Cr","-35.21755","149.108824",,,"0","0"
"POINT (149.019576 -35.199308)","0","4482",,"Lance Hill Av before 2nd Evelyn Owen Cr","-35.199308","149.019576",,,"0","0"
"POINT (149.10911000000004 -35.376729)","0","2470",,"Dookie St after Longerenong St","-35.376729","149.10911",,,"0","0"
"POINT (149.08956899999998 -35.41534)","0","1453",,"Monash PS Corlette Cr","-35.41534","149.089569",,,"0","0"
"POINT (149.117849 -35.270967999999996)","0","3100",,"Boldrewood St after Froggatt St","-35.270968","149.117849",,,"0","0"
"POINT (149.114787 -35.188416)","0","4726",,"Gungahlin Lakes Club Gundaroo Dr","-35.188416","149.114787",,,"0","0"
"POINT (149.03554 -35.19084)","0","4932",,"Shakespeare Cr opp Fraser West Terminus","-35.19084","149.03554",,,"0","0"
"POINT (149.091731 -35.473496999999995)","0","1228",,"Pockett Av before Brockway Cct","-35.473497","149.091731",,,"0","0"
"POINT (149.098034 -35.218505)","0","4040",,"Chuculba Cr before Baldwin Dr","-35.218505","149.098034",,,"0","0"
"POINT (149.08737 -35.344481)","0","2705",,"Woden Interchange Plt 3","-35.344481","149.08737",,"https://www.transport.act.gov.au/__data/assets/pdf_file/0016/1244203/TC_station_woden.pdf","0","0"
"POINT (149.093972 -35.318826)","0","3022",,"Royal Australian Mint Denison St","-35.318826","149.093972",,,"0","0"
"POINT (149.096768 -35.346014000000004)","0","2485",,"Ainsworth St after Kitchener St","-35.346014","149.096768",,,"0","0"
"POINT (149.129568 -35.162708)","0","6128",,"Horse Park Dr before Roden Cutler Dr","-35.162708","149.129568",,,"0","0"
"POINT (149.118563 -35.453058)","0","1811",,"Theodore Terminus Chippindall Cct","-35.453058","149.118563",,,"0","0"
"POINT (149.086841 -35.407527)","0","1600",,"Trinity Christian School McBryde Cr","-35.407527","149.086841",,,"0","0"
"POINT (149.08383999999998 -35.447089)","0","1187",,"Clare Dennis Av before Preddey Way","-35.447089","149.08384",,,"0","0"
"POINT (149.07343999999998 -35.215084999999995)","0","4130",,"Dumas St before 2nd Vagabond Cr","-35.215085","149.07344",,,"0","0"
"POINT (149.137 -35.16044)","0","6329",,"Mobourne St before Ben Blakeney St","-35.16044","149.137",,,"0","0"
"POINT (149.022064 -35.189139000000004)","0","4634",,"Kerrigan St before Douglas Waterhouse Dr","-35.189139","149.022064",,,"0","0"
"POINT (149.041594 -35.352503999999996)","0","2299",,"Streeton Dr after Darwinia Tce","-35.352504","149.041594",,,"0","0"
"POINT (149.036425 -35.349006)","0","2429",,"Bangalay Cr after Casuarina St","-35.349006","149.036425",,,"0","0"
"POINT (149.084686 -35.389589)","0","1908",,"Wanniassa Park & Ride","-35.389589","149.084686",,,"0","0"
"POINT (149.047228 -35.247203000000006)","0","4443",,"Gillespie St before Southwell St","-35.247203","149.047228",,,"0","0"
"POINT (149.09958 -35.3467)","0","2095",,"Yamba Dr opp Canberra Hospital","-35.3467","149.09958",,,"0","0"
"POINT (149.145318 -35.33147)","0","2361",,"McIntyre St after Stuart St","-35.33147","149.145318",,,"0","0"
"POINT (149.144652 -35.248495)","0","4587",,"Antill St opp Rosevear Pl","-35.248495","149.144652",,,"0","0"
"POINT (149.12551399999998 -35.23766)","0","3383",,"Ellenborough St opp Cossington Smith St","-35.23766","149.125514",,,"0","0"
"POINT (149.100475 -35.225262)","0","5007",,"UC High School Kaleen Baldwin Dr","-35.225262","149.100475",,,"0","0"
"POINT (149.146299 -35.17581)","0","6311",,"David Walsh Av before Desmond Ln","-35.17581","149.146299",,,"0","0"
"POINT (149.172779 -35.335951)","0","2825",,"Canberra Av after Whyalla St","-35.335951","149.172779",,,"0","0"
"POINT (149.060724 -35.194955)","0","4092",,"Spence Shops Kingsford Smith Dr","-35.194955","149.060724",,,"0","0"
"POINT (149.10181 -35.461296999999995)","0","1220",,"Tom Roberts Av before Altson Cct","-35.461297","149.10181",,,"0","0"
"POINT (149.10036000000002 -35.428391)","0","1014",,"Ellerston Av before 2nd Groveland Cr","-35.428391","149.10036",,,"0","0"
"POINT (149.138127 -35.278104)","0","3053",,"Ainslie Av after Currong St","-35.278104","149.138127",,,"0","0"
"POINT (149.158503 -35.242297)","0","3171",,"Knox St after 2nd Irvine St","-35.242297","149.158503",,,"0","0"
"POINT (149.033008 -35.241894)","0","4811",,"Murranji St before Alexandria St","-35.241894","149.033008",,,"0","0"
"POINT (149.153198 -35.232521000000006)","0","3252",,"Knox St before Piddington St","-35.232521","149.153198",,,"0","0"
"POINT (149.006943 -35.220376)","0","4323",,"Spofforth St before Southern Cross Dr","-35.220376","149.006943",,,"0","0"
"POINT (149.10984 -35.415811)","0","1535",,"Bugden Av after Beardsmore Pl","-35.415811","149.10984",,,"0","0"
"POINT (149.09690400000002 -35.342462)","0","2379",,"Yamba Dr before Kitchener St","-35.342462","149.096904",,,"0","0"
"POINT (149.13962800000002 -35.24868800000001)","0","4585",,"Antill St opp Dickson Shops","-35.248688","149.139628",,,"0","0"
"POINT (149.094748 -35.212941)","0","4057",,"Giralang PS Canopus Cr","-35.212941","149.094748",,,"0","0"
"POINT (149.08288100000001 -35.433937)","0","1055",,"Hurtle Av after Ebenezer St","-35.433937","149.082881",,,"0","0"
"POINT (149.042157 -35.20844)","0","4201",,"Companion Cr before Noble Pl","-35.20844","149.042157",,,"0","0"
"POINT (149.03634200000002 -35.339542)","0","2509",,"Burrinjuck Cr after 2nd Tantangara St","-35.339542","149.036342",,,"0","0"
"POINT (149.118429 -35.43325)","0","1117",,"Clift Cr before Johnson Dr","-35.43325","149.118429",,,"0","0"
"POINT (149.113904 -35.205044)","0","6157",,"Langtree Cr after Geegeela St","-35.205044","149.113904",,,"0","0"
"POINT (149.081353 -35.362987)","0","2050",,"Pearce Shops Macfarland Cr","-35.362987","149.081353",,,"0","0"
"POINT (149.14365800000002 -35.33753)","0","3290",,"Caley Cr before Sprent St","-35.33753","149.143658",,,"0","0"
"POINT (149.049653 -35.201365)","0","4157",,"Spalding St after Schwartz Pl","-35.201365","149.049653",,,"0","0"
"POINT (149.101786 -35.346322)","0","2601",,"Canberra Hospital Hospital Rd","-35.346322","149.101786",,,"0","0"
"POINT (149.057634 -35.378927000000004)","0","1343",,"Marconi Cr opp Kambah Village","-35.378927","149.057634",,,"0","0"
"POINT (149.125878 -35.297776000000006)","0","2248",,"Albert Hall Commonwealth Av","-35.297776","149.125878",,,"0","0"
"POINT (149.010708 -35.215744)","0","4368",,"Osburn Dr opp O'Reilly St","-35.215744","149.010708",,,"0","0"
"POINT (149.128729 -35.278255)","0","3418",,"City Interchange Plt 2","-35.278255","149.128729",,,"0","0"
"POINT (149.046473 -35.335625)","0","2397",,"Blackwood Tce after Pearson St","-35.335625","149.046473",,,"0","0"
"POINT (149.10460600000002 -35.414685)","0","1530",,"Bugden Av opp Denehy Pl","-35.414685","149.104606",,,"0","0"
"POINT (149.179587 -35.336290999999996)","0","2948",,"Canberra Outlet Centre Iron Knob St","-35.336291","149.179587",,,"0","0"
"POINT (149.076332 -35.413534999999996)","0","1405",,"Newman-Morris Cct opp 2nd Collocott Cr","-35.413535","149.076332",,,"0","0"
"POINT (149.06809099999998 -35.261531)","0","4643",,"Lyttleton Cr before 2nd Cambridge St","-35.261531","149.068091",,,"0","0"
"POINT (149.086183 -35.441863)","0","1182",,"Woodcock Dr before Clare Dennis Av","-35.441863","149.086183",,,"0","0"
"POINT (149.043039 -35.20046)","0","4153",,"Tillyard Dr after Sadleir Pl","-35.20046","149.043039",,,"0","0"
"POINT (149.051368 -35.366007)","0","1268",,"Namatjira Dr opp 241","-35.366007","149.051368",,,"0","0"
"POINT (149.028468 -35.191696)","0","4981",,"Kerrigan St after Branson St","-35.191696","149.028468",,,"0","0"
"POINT (149.12432900000002 -35.196258)","0","4777",,"Kosciuszko Av before Redcliffe St","-35.196258","149.124329",,,"0","0"
"POINT (149.044005 -35.192710999999996)","0","4234",,"Fraser Shops Daley Cr","-35.192711","149.044005",,,"0","0"
"POINT (149.06406 -35.377741)","0","1348",,"Taylor PS Marconi Cr","-35.377741","149.06406",,,"0","0"
"POINT (149.03731200000001 -35.220292)","0","4415",,"O'Loghlen St after 1st Stretton Cr","-35.220292","149.037312",,,"0","0"
"POINT (149.13935800000002 -35.416088)","0","1563",,"Louisa Lawson Cr opp Fenston Pl","-35.416088","149.139358",,,"0","0"
"POINT (149.15941999999998 -35.19852)","0","6055",,"Cultivation St after Tanami St","-35.19852","149.15942",,,"0","0"
"POINT (149.032296 -35.248457)","0","4458",,"Erldunda Cct after Tobermorey Pl","-35.248457","149.032296",,,"0","0"
"POINT (149.0607 -35.21243)","0","4072",,"Copland College Copland Dr","-35.21243","149.0607",,,"0","0"
"POINT (149.070847 -35.419798)","0","1067",,"Anketell St opp Tuggeranong Square","-35.419798","149.070847",,,"0","0"
"POINT (149.064405 -35.418158)","0","1375",,"Athllon Dr before Reed St","-35.418158","149.064405",,,"0","0"
"POINT (149.181764 -35.327073)","0","3323",,"Albany St before Townsville St","-35.327073","149.181764",,,"0","0"
"POINT (149.109396 -35.172233)","0","4695",,"Wanganeen Av before Arabanoo Cr","-35.172233","149.109396",,,"0","0"
"POINT (149.11323300000004 -35.439958000000004)","0","1090",,"Casey Cr opp O'Connor Cct","-35.439958","149.113233",,,"0","0"
"POINT (149.073678 -35.248249)","0","4537",,"Hennessy St after Buik Pl","-35.248249","149.073678",,,"0","0"
"POINT (149.043542 -35.224792)","0","4420",,"Krefft St before Barnard Cct","-35.224792","149.043542",,,"0","0"
"POINT (149.113881 -35.411696)","0","6190",,"Castleton Cr before Finlay Pl","-35.411696","149.113881",,,"0","0"
"POINT (149.034225 -35.299656)","0","2839",,"John Gorton Dr after Holborow Av","-35.299656","149.034225",,,"0","0"
"POINT (149.068207 -35.392579)","0","1300",,"Namadgi School O'Halloran Cct","-35.392579","149.068207",,,"0","0"
"POINT (149.141816 -35.262013)","0","3147",,"Cowper St before Wakefield Av","-35.262013","149.141816",,,"0","0"
"POINT (149.058626 -35.251092)","0","4506",,"Bennelong Cr opp Macquarie PS","-35.251092","149.058626",,,"0","0"
"POINT (149.100907 -35.441602)","0","1029",,"Duggan St before 1st Pennington Cr","-35.441602","149.100907",,,"0","0"
"POINT (149.11453600000002 -35.178653000000004)","0","4746",,"Amagula Av after Taggerty St","-35.178653","149.114536",,,"0","0"
"POINT (149.046512 -35.23041)","0","5024",,"Southern Cross Dr before Ross Smith Cr","-35.23041","149.046512",,,"0","0"
"POINT (149.021842 -35.197162)","0","5098",,"Lance Hill Av before 1st Evelyn Owen Cr","-35.197162","149.021842",,,"0","0"
"POINT (149.049235 -35.348284)","0","1252",,"Fremantle Dr before Bunbury St","-35.348284","149.049235",,,"0","0"
"POINT (149.05501700000002 -35.222747)","0","4067",,"John Cleland Cr before 1st Twelvetrees Cr","-35.222747","149.055017",,,"0","0"
"POINT (149.101379 -35.175981)","0","5170",,"Gungahlin Dr opp John Paul College","-35.175981","149.101379",,,"0","0"
"POINT (149.020259 -35.195212)","0","3444",,"Lance Hill Av before Fairlight St","-35.195212","149.020259",,,"0","0"
"POINT (149.122792 -35.442652)","0","1650",,"Lawrence Wackett Cr after Scantlebury Cr","-35.442652","149.122792",,,"0","0"
"POINT (149.112619 -35.367296)","0","2460",,"Isaacs Shops Julia Flynn Av","-35.367296","149.112619",,,"0","0"
"POINT (149.076355 -35.202507000000004)","0","4668",,"Owen Dixon Dr opp Badenoch Cr","-35.202507","149.076355",,,"0","0"
"POINT (149.103205 -35.472398999999996)","0","1681",,"Paperbark St after Galbraith Cl","-35.472399","149.103205",,,"0","0"
"POINT (149.079911 -35.462016)","0","1194",,"Jim Pike Av before Clem Hill St","-35.462016","149.079911",,,"0","0"
"POINT (149.099776 -35.215996999999994)","0","4043",,"Chuculba Cr after 1st Canopus Cr","-35.215997","149.099776",,,"0","0"
"POINT (149.141326 -35.276275)","0","3235",,"Gooreen St after Batman St","-35.276275","149.141326",,,"0","0"
"POINT (149.106482 -35.307367)","0","2226",,"Hopetoun Cct before Loftus St","-35.307367","149.106482",,,"0","0"
"POINT (149.05436699999998 -35.213493)","0","4263",,"67 Verbrugghen St","-35.213493","149.054367",,,"0","0"
"POINT (149.148755 -35.208847999999996)","0","6093",,"Well Station Dr before Flemington Rd","-35.208848","149.148755",,,"0","0"
"POINT (149.019477 -35.222429999999996)","0","4333",,"Kippax Interchange","-35.22243","149.019477",,,"0","0"
"POINT (149.121715 -35.197829)","0","4780",,"Palmerston PS Koscuiszko Av","-35.197829","149.121715",,,"0","0"
"POINT (149.09786699999998 -35.333877)","0","2271",,"Kitchener St opp Goble St","-35.333877","149.097867",,,"0","0"
"POINT (149.019679 -35.228402)","0","4896",,"Starke St opp Kingsford Smith School","-35.228402","149.019679",,,"0","0"
"POINT (149.037729 -35.251096000000004)","0","4454",,"Erldunda Cct before 2nd Kulgera St","-35.251096","149.037729",,,"0","0"
"POINT (149.10560700000002 -35.46630300000001)","0","1210",,"Tom Roberts Av before Jane Sutherland St","-35.466303","149.105607",,,"0","0"
"POINT (149.111161 -35.221239000000004)","0","4028",,"Maribyrnong Av before 1st Staaten Cr","-35.221239","149.111161",,,"0","0"
"POINT (149.108917 -35.183516999999995)","0","4878",,"Lexcen Av after Arthaldo Ct","-35.183517","149.108917",,,"0","0"
"POINT (149.084709 -35.34066500000001)","0","2031",,"Launceston St after Irving St","-35.340665","149.084709",,,"0","0"
"POINT (149.147373 -35.319203)","0","3360",,"Canberra Railway Stn Wentworth Av","-35.319203","149.147373",,,"0","0"
"POINT (149.11858 -35.428604)","0","1558",,"Clift Cr before Meeson St","-35.428604","149.11858",,,"0","0"
"POINT (149.123083 -35.266044)","0","4611",,"McCaughey St before Condamine St","-35.266044","149.123083",,,"0","0"
"POINT (149.093789 -35.352021)","0","2672",,"Ainsworth St before Horbury St","-35.352021","149.093789",,,"0","0"
"POINT (149.16279699999998 -35.329094)","0","2919",,"Ipswich St before Canberra Av","-35.329094","149.162797",,,"0","0"
"POINT (149.041677 -35.189508000000004)","0","4225",,"Shakespeare Cr opp 41","-35.189508","149.041677",,,"0","0"
"POINT (149.07569 -35.407218)","0","1401",,"Newman-Morris Cct before 1st Connibere Cr","-35.407218","149.07569",,,"0","0"
"POINT (149.08659400000002 -35.394653000000005)","0","1473",,"Wheeler Cr opp Wanniassa HS","-35.394653","149.086594",,,"0","0"
"POINT (149.122128 -35.168446)","0","5903",,"Burdekin Av before Traine Ct","-35.168446","149.122128",,,"0","0"
"POINT (149.190329 -35.316348)","0","3467",,"Brindabella Business Park Molonglo Dr","-35.316348","149.190329",,,"0","0"
"POINT (149.101172 -35.176092)","0","5169",,"John Paul College Gungahlin Dr","-35.176092","149.101172",,,"0","0"
"POINT (149.07467 -35.342863)","0","2068",,"Launceston St after Port Arthur St","-35.342863","149.07467",,,"0","0"
"POINT (149.125852 -35.336672)","0","3277",,"Golden Gr before Quiros St","-35.336672","149.125852",,,"0","0"
"POINT (149.05234099999998 -35.340842)","0","1246",,"Cooleman Court Terminus","-35.340842","149.052341",,,"0","0"
"POINT (149.107688 -35.357431)","0","2103",,"Kareelah Vsta before Numeralla St","-35.357431","149.107688",,,"0","0"
"POINT (149.059255 -35.395621999999996)","0","1293",,"O'Halloran Cct before 1st Snodgrass Cr","-35.395622","149.059255",,,"0","0"
"POINT (149.035761 -35.241071999999996)","0","4296",,"Belconnen Way before Murranji St","-35.241072","149.035761",,,"0","0"
"POINT (149.08875 -35.421377)","0","1672",,"Clive Steele Av after Falconer St","-35.421377","149.08875",,,"0","0"
"POINT (149.145157 -35.291779999999996)","0","3031",,"Constitution Av after Russell Dr","-35.29178","149.145157",,,"0","0"
"POINT (149.142414 -35.341372)","0","2334",,"Jindalee Aged Care Goyder St","-35.341372","149.142414",,,"0","0"
"POINT (149.07279 -35.252528999999996)","0","4517",,"Bowman St opp Jamison Centre","-35.252529","149.07279",,,"0","0"
"POINT (149.084678 -35.259004)","0","4525",,"Bandjalong Cr before Banambila St","-35.259004","149.084678",,,"0","0"
"POINT (149.141357 -35.216695)","0","4923",,"Brookes St after Lysaght St","-35.216695","149.141357",,,"0","0"
"POINT (149.12961299999998 -35.427189)","0","1130",,"Deamer Cr before Heagney Cr","-35.427189","149.129613",,,"0","0"
"POINT (149.05177700000002 -35.381211)","0","1278",,"Boddington Cr before Barritt St","-35.381211","149.051777",,,"0","0"
"POINT (149.05473999999998 -35.23874)","0","4477",,"Ogilby Cr before Burkitt St","-35.23874","149.05474",,,"0","0"
"POINT (149.116687 -35.170604)","0","4710",,"Mirrabei Dr after Wanganeen Av Southbound","-35.170604","149.116687",,,"0","0"
"POINT (149.127953 -35.409005)","0","1149",,"Coyne St before Carson St","-35.409005","149.127953",,,"0","0"
"POINT (149.08193899999998 -35.233663)","0","1736",,"UC Public Hospital Thirriwirri St","-35.233663","149.081939",,,"0","0"
"POINT (149.166573 -35.295156)","0","3060",,"General Bridges Dr before Gallipoli Rd","-35.295156","149.166573",,,"0","0"
"POINT (149.10394399999998 -35.377864)","0","2473",,"Lambrigg St opp Prescott St","-35.377864","149.103944",,,"0","0"
"POINT (149.139805 -35.174589000000005)","0","6039",,"Horse Park Dr before David Walsh Av","-35.174589","149.139805",,,"0","0"
"POINT (149.135821 -35.27147)","0","3387",,"Fawkner St after Girrahween St","-35.27147","149.135821",,,"0","0"
"POINT (149.183654 -35.325374)","0","2616",,"Gladstone St opp Albany St","-35.325374","149.183654",,,"0","0"
"POINT (149.097043 -35.419751)","0","1444",,"Goodwin Aged Care Cockcroft Av","-35.419751","149.097043",,,"0","0"
"POINT (149.082777 -35.324606)","0","2014",,"Carruthers St opp Curtin Shops","-35.324606","149.082777",,,"0","0"
"POINT (149.069006 -35.239792)","0","5518",,"Belconnen Interchange Arrivals","-35.239792","149.069006",,,"0","0"
"POINT (149.032273 -35.246438000000005)","0","4291",,"Murranji St opp Hawker College","-35.246438","149.032273",,,"0","0"
"POINT (149.114747 -35.192223)","0","4787",,"Kosciuszko Av before 2nd Freeling Cct","-35.192223","149.114747",,,"0","0"
"POINT (149.10205900000003 -35.18031)","0","4686",,"Holy Spirit PS Kelleway Av","-35.18031","149.102059",,,"0","0"
"POINT (149.11117 -35.314785)","0","2288",,"Gawler Cr opp Robe St","-35.314785","149.11117",,,"0","0"
"POINT (149.120676 -35.440535)","0","1096",,"Were St after Tharwa Dr","-35.440535","149.120676",,,"0","0"
"POINT (149.056928 -35.208490000000005)","0","4166",,"Mount Rogers PS Alfred Hill Dr","-35.20849","149.056928",,,"0","0"
"POINT (149.086218 -35.416677)","0","1449",,"Clive Steele Av before 1st Balsillie Cr","-35.416677","149.086218",,,"0","0"
"POINT (149.117899 -35.15752)","0","6104",,"Bernard Heinze Av before Crackajack Way","-35.15752","149.117899",,,"0","0"
"POINT (149.048483 -35.330708)","0","2506",,"Mulley St after Dixon Dr","-35.330708","149.048483",,,"0","0"
"POINT (149.14379499999998 -35.284318)","0","3092",,"Currong St after Anzac Park West","-35.284318","149.143795",,,"0","0"
"POINT (149.149623 -35.256821)","0","3216",,"Officer Cr after Beeby St","-35.256821","149.149623",,,"0","0"
"POINT (149.111795 -35.171149)","0","4851",,"Gurrang Av before Wellington St","-35.171149","149.111795",,,"0","0"
"POINT (149.09131299999999 -35.354038)","0","2688",,"Athllon Dr after Parramatta St","-35.354038","149.091313",,,"0","0"
"POINT (149.104937 -35.345865)","0","2303",,"Gilmore Cr before Esson Pl","-35.345865","149.104937",,,"0","0"
"POINT (149.137108 -35.216571)","0","4758",,"Hoskins St opp Lysaght St","-35.216571","149.137108",,,"0","0"
"POINT (149.036029 -35.34703400000001)","0","2432",,"Rivett Shops Bangalay Cr","-35.347034","149.036029",,,"0","0"
"POINT (149.098285 -35.438992)","0","1667",,"Duggan St before Downard St","-35.438992","149.098285",,,"0","0"
"POINT (149.09768799999998 -35.368165000000005)","0","2042",,"Heard St after Wilkins St","-35.368165","149.097688",,,"0","0"
"POINT (149.108792 -35.342045)","0","2534",,"Garran Shops Gilmore Cr","-35.342045","149.108792",,,"0","0"
"POINT (149.063966 -35.351929999999996)","0","2240",,"Nemarang Cr opp Larakia St","-35.35193","149.063966",,,"0","0"
"POINT (149.096148 -35.404224)","0","1177",,"McBryde Cr opp Erindale College","-35.404224","149.096148",,,"0","0"
"POINT (149.075043 -35.251789)","0","4494",,"Canberra HS Bindubi St","-35.251789","149.075043",,,"0","0"
"POINT (149.017684 -35.229774)","0","4827",,"Macnaughton St before Gore St","-35.229774","149.017684",,,"0","0"
"POINT (149.155031 -35.290636)","0","3078",,"Campbell PS Chauvel St","-35.290636","149.155031",,,"0","0"
"POINT (149.114077 -35.425383000000004)","0","1494",,"Heagney Cr before Beattie Cr","-35.425383","149.114077",,,"0","0"
"POINT (149.030307 -35.343913)","0","2147",,"Hindmarsh Dr before Darwinia Tce","-35.343913","149.030307",,,"0","0"
"POINT (149.109677 -35.205259000000005)","0","6148",,"Langtree Cr opp 1st Cocoparra Cr","-35.205259","149.109677",,,"0","0"
"POINT (149.127372 -35.288746)","0","8889",,"Commonwealth Av opp Regatta Point","-35.288746","149.127372",,,"0","0"
"POINT (149.063703 -35.259745)","0","4640",,"Templeton St opp Cook Shops","-35.259745","149.063703",,,"0","0"
"POINT (149.12348 -35.252171999999995)","0","3379",,"Brigalow St after Lyneham Shops","-35.252172","149.12348",,,"0","0"
"POINT (149.098251 -35.401439)","0","1339",,"Sternberg Cr after Langdon Av","-35.401439","149.098251",,,"0","0"
"POINT (149.138466 -35.180792)","0","6027",,"Gundaroo Dr after Pallin St","-35.180792","149.138466",,,"0","0"
"POINT (149.125022 -35.245087)","0","3124",,"Archibald St opp Ashton St","-35.245087","149.125022",,,"0","0"
"POINT (149.088799 -35.431594)","0","1071",,"Ellerston Av after Keverstone Cct","-35.431594","149.088799",,,"0","0"
"POINT (149.088575 -35.341081)","0","2091",,"Canberra College Launceston St","-35.341081","149.088575",,,"0","0"
"POINT (149.150258 -35.247842)","0","4591",,"Antill St before Cadell St","-35.247842","149.150258",,,"0","0"
"POINT (149.18220300000002 -35.32397)","0","2392",,"120 Gladstone St","-35.32397","149.182203",,,"0","0"
"POINT (149.03216 -35.351417)","0","2152",,"Darwinia Tce opp Rafferty St","-35.351417","149.03216",,,"0","0"
"POINT (149.08456999999999 -35.211995)","0","5044",,"Owen Dixon Dr after Walkley Pl","-35.211995","149.08457",,,"0","0"
"POINT (149.05726299999998 -35.342273999999996)","0","2202",,"Namatjira Dr after Conder St","-35.342274","149.057263",,,"0","0"
"POINT (149.100512 -35.466561)","0","1261",,"Tom Roberts Av after Wiburd St","-35.466561","149.100512",,,"0","0"
"POINT (149.111269 -35.227108)","0","4025",,"Maribyrnong Av after Greenough Cct","-35.227108","149.111269",,,"0","0"
"POINT (149.065583 -35.381402)","0","1352",,"Marconi Cr after Hutchison Cr","-35.381402","149.065583",,,"0","0"
"POINT (149.053334 -35.357755)","0","2495",,"Kalgoorlie Cr before 2nd Bendigo St","-35.357755","149.053334",,,"0","0"
"POINT (149.142874 -35.311627)","0","2374",,"Old Bus Depot Markets Wentworth Av","-35.311627","149.142874",,,"0","0"
"POINT (149.121718 -35.259345)","0","4577",,"Macarthur Av before Coolibah Cr","-35.259345","149.121718",,,"0","0"
"POINT (149.048951 -35.250834999999995)","0","4439",,"Weetangera PS Shumack St","-35.250835","149.048951",,,"0","0"
"POINT (149.08695600000001 -35.344539000000005)","0","2804",,"Woden Interchange Plt 2","-35.344539","149.086956",,"https://www.transport.act.gov.au/__data/assets/pdf_file/0016/1244203/TC_station_woden.pdf","0","0"
"POINT (149.133002 -35.413875)","0","1568",,"Louisa Lawson Cr before 2nd Aronson Cr","-35.413875","149.133002",,,"0","0"
"POINT (149.13208999999998 -35.28228)","0","3004",,"London Cct after Akuna St","-35.28228","149.13209",,,"0","0"
"POINT (149.12225700000002 -35.398621)","0","1160",,"Bugden Av opp 309","-35.398621","149.122257",,,"0","0"
"POINT (149.033634 -35.197261)","0","4214",,"Lhotsky St before 2nd Bettington Cct","-35.197261","149.033634",,,"0","0"
"POINT (149.11330900000002 -35.200609)","0","6333",,"Langtree Cr opp Jellicoe St","-35.200609","149.113309",,,"0","0"
"POINT (149.132407 -35.312135)","0","2255",,"National Cct before Sydney Av","-35.312135","149.132407",,,"0","0"
"POINT (149.130382 -35.278449)","0","3409",,"City Interchange Plt 4","-35.278449","149.130382",,"https://www.transport.act.gov.au/__data/assets/pdf_file/0008/1244195/TC_station_city.pdf","0","0"
"POINT (149.112478 -35.426308)","0","1493",,"Clift Cr opp Heagney Cr","-35.426308","149.112478",,,"0","0"
"POINT (149.072709 -35.200283)","0","4105",,"Copland Dr before Owen Dixon Dr","-35.200283","149.072709",,,"0","0"
"POINT (149.01169199999998 -35.230740999999995)","0","4946",,"Drake Brockman Dr after Trickett St","-35.230741","149.011692",,,"0","0"
"POINT (149.115224 -35.44801)","0","1113",,"Louis Loder St after 1st Cochrane Cr","-35.44801","149.115224",,,"0","0"
"POINT (149.135261 -35.32578)","0","3294",,"Captain Cook Cr before Barrallier St","-35.32578","149.135261",,,"0","0"
"POINT (149.115685 -35.400242)","0","1161",,"Bugden Av after 1st Dash Cr","-35.400242","149.115685",,,"0","0"
"POINT (149.060689 -35.333324)","0","2117",,"Heysen St after Bunny St","-35.333324","149.060689",,,"0","0"
"POINT (149.104016 -35.171014)","0","4737",,"Jabanungga Av before 2nd Bimbiang Cr","-35.171014","149.104016",,,"0","0"
"POINT (149.108981 -35.223607)","0","2572",,"St Michaels PS Tyrell Cct","-35.223607","149.108981",,,"0","0"
"POINT (149.098434 -35.192137)","0","5175",,"Temperley St before Wendy Ey Pl","-35.192137","149.098434",,,"0","0"
"POINT (149.10646599999998 -35.407348999999996)","0","1510",,"Castleton Cr after Farcomb Pl","-35.407349","149.106466",,,"0","0"
"POINT (149.14066200000002 -35.336901)","0","3288",,"Carnegie Cr after Scott St","-35.336901","149.140662",,,"0","0"
"POINT (149.100659 -35.18152)","0","2553",,"Gold Creek PS Kelleway Av","-35.18152","149.100659",,,"0","0"
"POINT (149.131802 -35.169542)","0","6032",,"Katherine Av before Cooloola St","-35.169542","149.131802",,,"0","0"
"POINT (149.096648 -35.229859000000005)","0","4011",,"Maribyrnong Av after Baldwin Dr","-35.229859","149.096648",,,"0","0"
"POINT (149.135985 -35.419093)","0","1140",,"Gilmore PS Heagney Cr","-35.419093","149.135985",,,"0","0"
"POINT (149.021638 -35.220778)","0","4894",,"Moyes Cr before Southern Cross Dr","-35.220778","149.021638",,,"0","0"
"POINT (149.051643 -35.389283)","0","1283",,"Boddington Cr after 2nd Castley Cct","-35.389283","149.051643",,,"0","0"
"POINT (149.15774199999998 -35.230573)","0","3430",,"Aspinall St after Mary Kitson St","-35.230573","149.157742",,,"0","0"
"POINT (149.154778 -35.283097)","0","4665",,"Fairbairn Av after Treloar Cr","-35.283097","149.154778",,,"0","0"
"POINT (149.12721200000001 -35.418268)","0","1543",,"Hambidge Cr opp 64","-35.418268","149.127212",,,"0","0"
"POINT (149.114941 -35.260928)","0","3110",,"Miller St before Hack St","-35.260928","149.114941",,,"0","0"
"POINT (149.140829 -35.27362)","0","0300",,"Ainslie PS Donaldson St","-35.27362","149.140829",,,"0","0"
"POINT (149.036183 -35.226321)","0","4192",,"Kingsford Smith Dr before Southern Cross Dr","-35.226321","149.036183",,,"0","0"
"POINT (149.044733 -35.324315999999996)","0","2843",,"Harold White Av before Woodberry Av","-35.324316","149.044733",,,"0","0"
"POINT (149.013275 -35.226707)","0","4313",,"Beaurepaire Cr before Trickett St","-35.226707","149.013275",,,"0","0"
"POINT (149.153783 -35.239291)","0","3166",,"Windeyer St opp Watson Shops","-35.239291","149.153783",,,"0","0"
"POINT (149.073483 -35.390173)","0","1304",,"Summerland Cct after Livingston Av","-35.390173","149.073483",,,"0","0"
"POINT (149.152186 -35.331173)","0","2352",,"Kootara Cr before Bundeela St","-35.331173","149.152186",,,"0","0"
"POINT (149.162 -35.187478999999996)","0","6201",,"Bettong Av opp Shingleback St","-35.187479","149.162",,,"0","0"
"POINT (149.09108999999998 -35.252838)","0","4975",,"Calvary Private Hospital Mary Potter Cct","-35.252838","149.09109",,,"0","0"
"POINT (149.070549 -35.197089)","0","4099",,"Owen Dixon Dr opp Clarey Cr","-35.197089","149.070549",,,"0","0"
"POINT (149.118277 -35.410011)","0","1699",,"Holy Family PS Bugden Av","-35.410011","149.118277",,,"0","0"
"POINT (149.17259099999998 -35.325413)","0","1772",,"Newcastle St after Isa St","-35.325413","149.172591",,,"0","0"
"POINT (149.074423 -35.402577)","0","1371",,"Drakeford Dr after Mortimer Lewis Dr","-35.402577","149.074423",,,"0","0"
"POINT (149.109488 -35.435705)","0","1084",,"Outtrim Av after Mountain Cct","-35.435705","149.109488",,,"0","0"
"POINT (149.099538 -35.183399)","0","5072",,"Kelleway Av before Lexcen Av","-35.183399","149.099538",,,"0","0"
"POINT (149.01601399999998 -35.226774)","0","4312",,"Beaurepaire Cr before Starke St","-35.226774","149.016014",,,"0","0"
"POINT (149.087143 -35.448733000000004)","0","1239",,"61 Lewis Luxton Av","-35.448733","149.087143",,,"0","0"
"POINT (149.11395 -35.163109000000006)","0","4707",,"Mirrabei Dr opp Crackajack Way","-35.163109","149.11395",,,"0","0"
"POINT (149.038184 -35.204621)","0","4149",,"Tillyard Dr after Geeves Ct","-35.204621","149.038184",,,"0","0"
"POINT (149.082128 -35.25736)","0","4524",,"Bandjalong Cr opp Nungara St","-35.25736","149.082128",,,"0","0"
"POINT (149.09623100000002 -35.396096)","0","1366",,"Langdon Av after Kirkton St","-35.396096","149.096231",,,"0","0"
"POINT (149.057523 -35.203008000000004)","0","4250",,"Kingsford Smith Dr after Le Gallienne St","-35.203008","149.057523",,,"0","0"
"POINT (149.036667 -35.320403000000006)","0","2806",,"Steve Irwin Av after John Gorton Dr","-35.320403","149.036667",,,"0","0"
"POINT (149.042245 -35.219065)","0","4196",,"Kingsford Smith Dr after Ginninderra Dr","-35.219065","149.042245",,,"0","0"
"POINT (149.14385900000002 -35.235662)","0","4750",,"Federal Hwy opp Phillip Av","-35.235662","149.143859",,,"0","0"
"POINT (149.065314 -35.381701)","0","1351",,"Marconi Cr after 1st Lascelles Cct","-35.381701","149.065314",,,"0","0"
"POINT (149.116079 -35.253724)","0","3115",,"Miller St after Scrivener St","-35.253724","149.116079",,,"0","0"
"POINT (149.04861499999998 -35.37534)","0","1273",,"Kambah Pool Rd after Barritt St","-35.37534","149.048615",,,"0","0"
"POINT (149.135104 -35.412578)","0","1567",,"Louisa Lawson Cr after 1st Aronson Cr","-35.412578","149.135104",,,"0","0"
"POINT (149.00322 -35.209343)","0","0405",,"MacFarlane Burnet Av after Constance Stone St","-35.209343","149.00322",,,"0","0"
"POINT (149.11032600000004 -35.364222)","0","2454",,"Julia Flynn Av before 1st Ellwood Cr","-35.364222","149.110326",,,"0","0"
"POINT (149.05715800000002 -35.389395)","0","1288",,"Boddington Cr before Broad Pl","-35.389395","149.057158",,,"0","0"
"POINT (149.088257 -35.430127)","0","1070",,"Ellerston Av opp Noorooma St","-35.430127","149.088257",,,"0","0"
"POINT (149.09419499999998 -35.397309)","0","1477",,"Kirkton St after Embling St","-35.397309","149.094195",,,"0","0"
"POINT (149.12515 -35.415211)","0","1143",,"Proctor St opp Maclean St","-35.415211","149.12515",,,"0","0"
"POINT (149.154597 -35.18502)","0","1729",,"Anthony Rolfe Av after Waghorn St","-35.18502","149.154597",,,"0","0"
"POINT (149.101828 -35.372818)","0","2478",,"Goodwin Village Farrer Marshall St","-35.372818","149.101828",,,"0","0"
"POINT (149.11744199999998 -35.424314)","0","1554",,"Heagney Cr after 2nd Mofflin St","-35.424314","149.117442",,,"0","0"
"POINT (149.095276 -35.189759)","0","5071",,"Temperley St before 2nd McRitchie Cct","-35.189759","149.095276",,,"0","0"
"POINT (149.027533 -35.341042)","0","2137",,"Eucumbene Dr opp 22","-35.341042","149.027533",,,"0","0"
"POINT (149.078911 -35.396159999999995)","0","1323",,"Fincham Cr after Morrissey St","-35.39616","149.078911",,,"0","0"
"POINT (149.127197 -35.298929)","0","1777",,"Langton Cr before King Edward Tce","-35.298929","149.127197",,,"0","0"
"POINT (149.019524 -35.233087)","0","4307",,"Drake Brockman Dr opp Cussen St","-35.233087","149.019524",,,"0","0"
"POINT (149.10286599999998 -35.233508)","0","4016",,"Maribyrnong Av opp Gwydir Square","-35.233508","149.102866",,,"0","0"
"POINT (149.04643900000002 -35.329561)","0","2118",,"Dixon Dr after Twynam St","-35.329561","149.046439",,,"0","0"
"POINT (149.125561 -35.279102)","0","1821",,"City West Marcus Clarke St","-35.279102","149.125561",,,"0","0"
"POINT (149.096393 -35.325357000000004)","0","2275",,"Kent St opp Alfred Deakin HS","-35.325357","149.096393",,,"0","0"
"POINT (149.111467 -35.370031)","0","2461",,"Julia Flynn Av after Dorsch St","-35.370031","149.111467",,,"0","0"
"POINT (149.116782 -35.445646)","0","1109",,"Louis Loder St at 1st Vonwiller Cr","-35.445646","149.116782",,,"0","0"
"POINT (149.142635 -35.245492)","0","3239",,"Melba St after Legge St","-35.245492","149.142635",,,"0","0"
"POINT (149.085585 -35.46567)","0","1233",,"Knoke Av before Matson St","-35.46567","149.085585",,,"0","0"
"POINT (149.114329 -35.264695)","0","3108",,"Miller St at Cockle St","-35.264695","149.114329",,,"0","0"
"POINT (149.145652 -35.185027000000005)","0","6141",,"Anthony Rolfe Av after Eva West St","-35.185027","149.145652",,,"0","0"
"POINT (149.034161 -35.231838)","0","4991",,"Kingsford Smith Dr before Castieau St","-35.231838","149.034161",,,"0","0"
"POINT (149.168646 -35.296523)","0","3062",,"Robert Campbell Rd opp Miles Rd","-35.296523","149.168646",,,"0","0"
"POINT (149.103817 -35.304428)","0","2231",,"Schlich St before Musgrave St","-35.304428","149.103817",,,"0","0"
"POINT (149.099436 -35.169891)","0","4914",,"Horse Park Dr before Newlop St","-35.169891","149.099436",,,"0","0"
"POINT (149.059626 -35.356549)","0","2292",,"Yambina Cr after Wirangu Pl","-35.356549","149.059626",,,"0","0"
"POINT (149.127017 -35.339791)","0","3281",,"La Perouse St after Golden Gr","-35.339791","149.127017",,,"0","0"
"POINT (149.098434 -35.395237)","0","1478",,"Gaunson Cr at Harbison Cr","-35.395237","149.098434",,,"0","0"
"POINT (149.01265 -35.213215000000005)","0","4809",,"Hirschfeld Cr Macgregor PS SSO","-35.213215","149.01265",,,"0","0"
"POINT (149.099516 -35.210207000000004)","0","4048",,"Chuculba Cr after Nyawi Pl","-35.210207","149.099516",,,"0","0"
"POINT (149.123068 -35.271669)","0","4615",,"McCaughey St after Masson St","-35.271669","149.123068",,,"0","0"
"POINT (149.011601 -35.218685)","0","4327",,"Southern Cross Dr after O'Reilly St","-35.218685","149.011601",,,"0","0"
"POINT (149.026385 -35.237903)","0","4882",,"Kinsella St before 2nd Nicholas St","-35.237903","149.026385",,,"0","0"
"POINT (149.051412 -35.225887)","0","4425",,"Florey PS Krefft St","-35.225887","149.051412",,,"0","0"
"POINT (149.05415 -35.351921999999995)","0","1260",,"St John Vianney Namatjira Dr","-35.351922","149.05415",,,"0","0"
"POINT (149.09244900000002 -35.408936)","0","1463",,"Harricks Cr opp 2nd Cracknell St","-35.408936","149.092449",,,"0","0"
"POINT (149.144497 -35.243437)","0","3244",,"Bradfield St after Frencham St","-35.243437","149.144497",,,"0","0"
"POINT (149.13516 -35.18535)","0","1801",,"Gungahlin Place Plt 3 Arrivals","-35.18535","149.13516",,,"0","0"
"POINT (149.093537 -35.324106)","0","5128",,"Alfred Deakin High School Grounds SSO","-35.324106","149.093537",,,"0","0"
"POINT (149.156836 -35.20205)","0","6050",,"Nullarbor Av after Adder St","-35.20205","149.156836",,,"0","0"
"POINT (149.159307 -35.1947)","0","6061",,"Mapleton Av after Nimbera St","-35.1947","149.159307",,,"0","0"
"POINT (149.126983 -35.431723999999996)","0","1126",,"Deamer Cr opp 69","-35.431724","149.126983",,,"0","0"
"POINT (149.10297 -35.169557)","0","4871",,"Jabanungga Av after 1st Mundang Cr","-35.169557","149.10297",,,"0","0"
"POINT (149.066372 -35.419474)","0","2718",,"Soward Way after Athllon Dr","-35.419474","149.066372",,,"0","0"
"POINT (149.024459 -35.228004)","0","4363",,"Starke St opp Hardwick Cr","-35.228004","149.024459",,,"0","0"
"POINT (149.03193000000002 -35.219237)","0","4410",,"Onslow St opp Latham Shops","-35.219237","149.03193",,,"0","0"
"POINT (149.068161 -35.349921)","0","2182",,"Badimara St after Hindmarsh Dr","-35.349921","149.068161",,,"0","0"
"POINT (149.125783 -35.276452)","0","4529",,"ANU Rimmer St","-35.276452","149.125783",,,"0","0"
"POINT (149.143399 -35.189994)","0","6184",,"Manning Clark Cr opp Barbara Jefferis St","-35.189994","149.143399",,,"0","0"
"POINT (149.129582 -35.182714000000004)","0","4836",,"Anthony Rolfe Av before Gundaroo Rd","-35.182714","149.129582",,,"0","0"
"POINT (149.105174 -35.171657)","0","4735",,"Jabanungga Av after 1st Bimbiang Cr","-35.171657","149.105174",,,"0","0"
"POINT (149.040272 -35.193692)","0","4229",,"Kerrigan St after Shakespeare Cr","-35.193692","149.040272",,,"0","0"
"POINT (149.084212 -35.345915999999995)","0","2679",,"Westfield Woden Corinna St","-35.345916","149.084212",,,"0","0"
"POINT (149.032838 -35.226771)","0","4357",,"Southern Cross Dr after Kingsford Smith Dr","-35.226771","149.032838",,,"0","0"
"POINT (149.09885400000002 -35.318473)","0","2280",,"Strickland Cr before Kent St","-35.318473","149.098854",,,"0","0"
"POINT (149.090981 -35.454625)","0","2699",,"Tharwa Dr after Box Hill Av","-35.454625","149.090981",,,"0","0"
"POINT (149.150857 -35.298778999999996)","0","3072",,"Russell Dr before Kings Av","-35.298779","149.150857",,,"0","0"
"POINT (149.156883 -35.251424)","0","3207",,"Phillip Av before Majura Av","-35.251424","149.156883",,,"0","0"
"POINT (149.06022 -35.2396)","0","942",,"Cohen St Interchange Plt 2","-35.2396","149.06022",,"https://www.transport.act.gov.au/__data/assets/pdf_file/0009/1244196/TC_station_cohen.pdf","0","0"
"POINT (149.06351999999998 -35.403084)","0","1414",,"Learmonth Dr before Athllon Dr","-35.403084","149.06352",,,"0","0"
"POINT (149.124589 -35.166072)","0","5997",,"Good Shepherd PS Burdekin Av","-35.166072","149.124589",,,"0","0"
"POINT (149.151483 -35.159351)","0","6318",,"Handbury St before Amy Ackman St","-35.159351","149.151483",,,"0","0"
"POINT (149.152391 -35.237021)","0","3391",,"Knox St after Dickinson St","-35.237021","149.152391",,,"0","0"
"POINT (149.151633 -35.242984)","0","4595",,"Phillip Av after Shirley St","-35.242984","149.151633",,,"0","0"
"POINT (149.03341899999998 -35.229966999999995)","0","4346",,"Castieau St after Kingsford Smith Dr","-35.229967","149.033419",,,"0","0"
"POINT (149.04568999999998 -35.342446)","0","2437",,"Carbeen St before Tristania St","-35.342446","149.04569",,,"0","0"
"POINT (149.054441 -35.355702)","0","2496",,"Mt Stromlo HS Badimara St","-35.355702","149.054441",,,"0","0"
"POINT (149.134598 -35.26996)","0","3137",,"Torrens St after Girrahween St","-35.26996","149.134598",,,"0","0"
"POINT (149.059464 -35.357395000000004)","0","2419",,"Yambina Cr before Wirangu Pl","-35.357395","149.059464",,,"0","0"
"POINT (149.119077 -35.313832)","0","2216",,"Melbourne Av after National Cct","-35.313832","149.119077",,,"0","0"
"POINT (149.02135 -35.30523)","0","2829",,"Kondelea Way before Eggins St","-35.30523","149.02135",,,"0","0"
"POINT (149.144269 -35.178909999999995)","0","6339",,"David Walsh Av before Max Purnell St","-35.17891","149.144269",,,"0","0"
"POINT (149.098205 -35.310115)","0","2307",,"Novar St before Weston St","-35.310115","149.098205",,,"0","0"
"POINT (149.136597 -35.337016999999996)","0","3286",,"Carnegie Cr after Finniss Cr","-35.337017","149.136597",,,"0","0"
"POINT (149.069179 -35.239779)","0","5512",,"Belconnen Interchange Plt 2","-35.239779","149.069179",,"https://www.transport.act.gov.au/__data/assets/pdf_file/0010/1244197/TC_station_community.pdf","0","0"
"POINT (149.10280600000002 -35.348599)","0","2617",,"Bateson Rd after Canberra Hospital","-35.348599","149.102806",,,"0","0"
"POINT (149.133041 -35.305591)","0","2259",,"Barton Bus Stn Plt 2","-35.305591","149.133041",,,"0","0"
"POINT (149.088827 -35.372924)","0","2674",,"Beasley St after Torrens Pl","-35.372924","149.088827",,,"0","0"
"POINT (149.09724 -35.344604)","0","2488",,"Kitchener St before Ainsworth St","-35.344604","149.09724",,,"0","0"
"POINT (149.068755 -35.197685)","0","4097",,"Clarey Cr before Boote St","-35.197685","149.068755",,,"0","0"
"POINT (149.135214 -35.326877)","0","3299",,"Captain Cook Cr before Austin St","-35.326877","149.135214",,,"0","0"
"POINT (149.057292 -35.208411)","0","4165",,"Alfred Hill Dr opp Mount Rogers PS","-35.208411","149.057292",,,"0","0"
"POINT (149.106581 -35.465489)","0","6018",,"Templestowe Av before Tom Roberts Av","-35.465489","149.106581",,,"0","0"
"POINT (149.16671499999998 -35.231439)","0","3179",,"Antill St after Kilduff St","-35.231439","149.166715",,,"0","0"
"POINT (149.093016 -35.392568)","0","1361",,"Langdon Av before Carr Cr","-35.392568","149.093016",,,"0","0"
"POINT (149.06608 -35.414955)","0","13",,"Tuggeranong Interchange Arrivals","-35.414955","149.06608",,"https://www.transport.act.gov.au/__data/assets/pdf_file/0013/1244200/TC_station_tuggeranong.pdf","0","0"
"POINT (149.142899 -35.290279999999996)","0","3008",,"Constitution Av opp Anzac Park East","-35.29028","149.142899",,,"0","0"
"POINT (149.137651 -35.323669)","0","2370",,"Stuart St after Lockyer St","-35.323669","149.137651",,,"0","0"
"POINT (149.079178 -35.416281)","0","1445",,"Charleston St after 2nd William Hudson Cr","-35.416281","149.079178",,,"0","0"
"POINT (149.046677 -35.199292)","0","4155",,"Spalding St before Flierl Pl","-35.199292","149.046677",,,"0","0"
"POINT (149.158554 -35.287827)","0","3083",,"Vasey Cr after White St","-35.287827","149.158554",,,"0","0"
"POINT (149.098479 -35.43983600000001)","0","1028",,"Duggan St after Beckett St","-35.439836","149.098479",,,"0","0"
"POINT (149.040404 -35.247157)","0","4288",,"Belconnen HS Murranji St","-35.247157","149.040404",,,"0","0"
"POINT (149.030183 -35.224706)","0","4942",,"Starke St after Blackham St","-35.224706","149.030183",,,"0","0"
"POINT (149.120304 -35.450720000000004)","0","1038",,"Chippindall Cct after Latchford St","-35.45072","149.120304",,,"0","0"
"POINT (149.126498 -35.245304)","0","3126",,"Archibald St before Mouat St","-35.245304","149.126498",,,"0","0"
"POINT (149.060114 -35.358505)","0","2038",,"Badimara St after Yambina St","-35.358505","149.060114",,,"0","0"
"POINT (149.01689 -35.226011)","0","4956",,"Starke St opp Beaurepaire Cr","-35.226011","149.01689",,,"0","0"
"POINT (149.08796999999998 -35.452903000000006)","0","1190",,"Lewis Luxton Av opp 2nd Cerutty Cr","-35.452903","149.08797",,,"0","0"
"POINT (149.063691 -35.20486)","0","4080",,"Baddeley Cr after Colborne Pl","-35.20486","149.063691",,,"0","0"
"POINT (149.017619 -35.208945)","0","4378",,"Archdall St before Beaney St","-35.208945","149.017619",,,"0","0"
"POINT (149.104958 -35.345755)","0","2302",,"Gilmore Cr before 1st Eldridge Cr","-35.345755","149.104958",,,"0","0"
"POINT (149.064747 -35.402611)","0","2",,"Athllon Dr after Learmonth Dr","-35.402611","149.064747",,,"0","0"
"POINT (149.058702 -35.212967)","0","4265",,"Copland College Verbrugghen St","-35.212967","149.058702",,,"0","0"
"POINT (149.10704199999998 -35.426372)","0","1489",,"Clift Cr opp 29","-35.426372","149.107042",,,"0","0"
"POINT (149.055143 -35.224788000000004)","0","4065",,"John Cleland Cr opp Florey Shops","-35.224788","149.055143",,,"0","0"
"POINT (149.071134 -35.385020000000004)","0","1356",,"Summerland Cct before 1st Gallagher St","-35.38502","149.071134",,,"0","0"
"POINT (149.101939 -35.435978999999996)","0","1080",,"Outtrim Av after Gurr St","-35.435979","149.101939",,,"0","0"
"POINT (149.117961 -35.416911999999996)","0","1538",,"Norriss St opp 2nd Woodburn St","-35.416912","149.117961",,,"0","0"
"POINT (149.093953 -35.464987)","0","1224",,"Pockett Av before Box Hill Av","-35.464987","149.093953",,,"0","0"
"POINT (149.105807 -35.412065999999996)","0","1506",,"Castleton Cr after 2nd Wheatley St","-35.412066","149.105807",,,"0","0"
"POINT (149.031963 -35.351395000000004)","0","2153",,"Darwinia Tce before Rafferty St","-35.351395","149.031963",,,"0","0"
"POINT (149.085237 -35.370810999999996)","0","2075",,"Beasley St before Hawker St","-35.370811","149.085237",,,"0","0"
"POINT (149.12733500000002 -35.418096999999996)","0","1544",,"64 Hambidge Cr","-35.418097","149.127335",,,"0","0"
"POINT (149.048526 -35.239529)","0","4473",,"Petterd St after Halford Cr","-35.239529","149.048526",,,"0","0"
"POINT (149.080926 -35.401413)","0","1328",,"Forlonge St before Gair Pl","-35.401413","149.080926",,,"0","0"
"POINT (149.098343 -35.333996)","0","2270",,"Kitchener St before Goble St","-35.333996","149.098343",,,"0","0"
"POINT (149.10288899999998 -35.42879)","0","1015",,"Ellerston Av before Ashley Dr","-35.42879","149.102889",,,"0","0"
"POINT (149.03076000000001 -35.19912500000001)","0","4211",,"Lhotsky St before Napthali Cl","-35.199125","149.03076",,,"0","0"
"POINT (149.016851 -35.22351)","0","4959",,"Starke St after Luke St","-35.22351","149.016851",,,"0","0"
"POINT (149.164322 -35.29378700000001)","0","3352",,"Tobruk Rd before Gallipoli Rd","-35.293787","149.164322",,,"0","0"
"POINT (149.11004499999999 -35.401708)","0","1165",,"Bugden Av after 1st Appel Cr","-35.401708","149.110045",,,"0","0"
"POINT (149.11451200000002 -35.193749)","0","4785",,"Kosciuszko Av opp Brinkley Cct","-35.193749","149.114512",,,"0","0"
"POINT (149.08004700000004 -35.459068)","0","1195",,"Callaway Cr at 1st Myles Connell Cr","-35.459068","149.080047",,,"0","0"
"POINT (149.097409 -35.356543)","0","2297",,"Ainsworth St opp Canberra Christian School","-35.356543","149.097409",,,"0","0"
"POINT (149.060196 -35.204257)","0","4940",,"Alpen St after Kingsford Smith Dr","-35.204257","149.060196",,,"0","0"
"POINT (149.143459 -35.15378)","0","6323",,"Essie Coffey St before Margaret Tucker St","-35.15378","149.143459",,,"0","0"
"POINT (149.05565 -35.336841)","0","2197",,"Hilder St after Gritten St","-35.336841","149.05565",,,"0","0"
"POINT (149.09475 -35.171076)","0","6304",,"Overall Av after Shedden St","-35.171076","149.09475",,,"0","0"
"POINT (149.12461299999998 -35.447275)","0","1033",,"Lawrence Wackett Cr opp Theodore PS","-35.447275","149.124613",,,"0","0"
"POINT (149.139078 -35.254175)","0","3162",,"Cowper St before Hope St","-35.254175","149.139078",,,"0","0"
"POINT (149.13875900000002 -35.220562)","0","4756",,"Sandford St opp 2nd Kemble Crt","-35.220562","149.138759",,,"0","0"
"POINT (149.067758 -35.210978000000004)","0","4568",,"Ashkanasy Cr before Hatfield St","-35.210978","149.067758",,,"0","0"
"POINT (149.074658 -35.239748999999996)","0","4145",,"Emu Bank after Aikman Dr","-35.239749","149.074658",,,"0","0"
"POINT (149.117269 -35.450595)","0","1116",,"Louis Loder St at 2nd Conlon Cr","-35.450595","149.117269",,,"0","0"
"POINT (149.165467 -35.229092)","0","3476",,"Aspinall St after Antill St","-35.229092","149.165467",,,"0","0"
"POINT (149.09831100000002 -35.307386)","0","2450",,"Novar St opp Yarralumla Shops","-35.307386","149.098311",,,"0","0"
"POINT (149.08428999999998 -35.406727000000004)","0","1630",,"Laurens St before McBryde Cr","-35.406727","149.08429",,,"0","0"
"POINT (149.06032 -35.239801)","0","959",,"Cohen St Interchange","-35.239801","149.06032",,"https://www.transport.act.gov.au/__data/assets/pdf_file/0009/1244196/TC_station_cohen.pdf","0","0"
"POINT (149.144467 -35.277824)","0","4660",,"Limestone Av opp Campbell HS","-35.277824","149.144467",,,"0","0"
"POINT (149.047876 -35.358207)","0","1269",,"Namatjira Dr after Perry Dr","-35.358207","149.047876",,,"0","0"
"POINT (149.15471200000002 -35.332518)","0","2350",,"Narrabundah Shops Kootara Cr","-35.332518","149.154712",,,"0","0"
"POINT (149.07558799999998 -35.327662)","0","2006",,"Carruthers St after 2nd McCormack St","-35.327662","149.075588",,,"0","0"
"POINT (149.088592 -35.421359)","0","1671",,"Clive Steele Av opp Falconer St","-35.421359","149.088592",,,"0","0"
"POINT (149.100719 -35.371151)","0","2654",,"Beasley St after Marshall St","-35.371151","149.100719",,,"0","0"
"POINT (149.058008 -35.393119)","0","1292",,"O'Halloran Cct before 2nd McKillop Cct","-35.393119","149.058008",,,"0","0"
"POINT (149.04161299999998 -35.194914000000004)","0","4487",,"Tillyard Dr before Reuther St","-35.194914","149.041613",,,"0","0"
"POINT (149.039089 -35.223542)","0","4194",,"St Francis Xavier College Kingsford Smith Dr","-35.223542","149.039089",,,"0","0"
"POINT (149.08945400000002 -35.472849)","0","1229",,"Knoke Av after Coventry Cl","-35.472849","149.089454",,,"0","0"
"POINT (149.087664 -35.411989)","0","1458",,"Hebblewhite St after Forwood St","-35.411989","149.087664",,,"0","0"
"POINT (149.04283999999998 -35.313765000000004)","0","3332",,"Fred Daly Av before Buttfield St","-35.313765","149.04284",,,"0","0"
"POINT (149.094672 -35.433965)","0","1075",,"Ellerston Av after Johnston Dr","-35.433965","149.094672",,,"0","0"
"POINT (149.118763 -35.291672999999996)","0","4632",,"National Museum Lennox Crossing","-35.291673","149.118763",,,"0","0"
"POINT (149.076472 -35.340408000000004)","0","2070",,"Launceston St opp Lyons Shops","-35.340408","149.076472",,,"0","0"
"POINT (149.14059699999999 -35.188338)","0","7010",,"The Valley Av after Manning Clark Cr","-35.188338","149.140597",,,"0","0"
"POINT (149.111801 -35.166204)","0","4700",,"Unaipon Av before Yumba Av","-35.166204","149.111801",,,"0","0"
"POINT (149.04845500000002 -35.334339)","0","2395",,"Blackwood Tce after Calder Cr","-35.334339","149.048455",,,"0","0"
"POINT (149.149504 -35.327325)","0","2355",,"Kootara Cr before Keira St","-35.327325","149.149504",,,"0","0"
"POINT (149.07617 -35.220890000000004)","0","4140",,"Dumas St opp 2nd Slessor Cr","-35.22089","149.07617",,,"0","0"
"POINT (149.123381 -35.157962)","0","6101",,"Bernard Heinze Av after Gussey St","-35.157962","149.123381",,,"0","0"
"POINT (149.123477 -35.42428100000001)","0","1550",,"Heagney Cr after Alston St","-35.424281","149.123477",,,"0","0"
"POINT (149.12143899999998 -35.429241)","0","1121",,"Deamer Cr before Meeson St","-35.429241","149.121439",,,"0","0"
"POINT (149.060866 -35.40196900000001)","0","1409",,"Learmonth Dr after Vansittart Cr","-35.401969","149.060866",,,"0","0"
"POINT (149.155054 -35.287384)","0","3087",,"White St before 1st Glossop Cr","-35.287384","149.155054",,,"0","0"
"POINT (149.0813 -35.206185999999995)","0","4673",,"Owen Dixon after Heydon Cr","-35.206186","149.0813",,,"0","0"
"POINT (149.136252 -35.248355)","0","4583",,"Antill St before Pigot St","-35.248355","149.136252",,,"0","0"
"POINT (149.145964 -35.271144)","0","3229",,"Campbell St before Chisholm St","-35.271144","149.145964",,,"0","0"
"POINT (149.041986 -35.330037)","0","2122",,"Dixon Dr opp Warragamba Av","-35.330037","149.041986",,,"0","0"
"POINT (149.025249 -35.233268)","0","4303",,"Fullagar Cr after Davidson St","-35.233268","149.025249",,,"0","0"
"POINT (149.10525900000002 -35.218432)","0","4035",,"Maribyrnong Av before 1st Onkaparinga Cr","-35.218432","149.105259",,,"0","0"
"POINT (149.09624 -35.16676100000001)","0","4846",,"Plimsoll Dr after Skermer St","-35.166761","149.09624",,,"0","0"
"POINT (149.04378 -35.236270000000005)","0","4468",,"Chewings St before McGinness St","-35.23627","149.04378",,,"0","0"
"POINT (149.03524199999998 -35.196034000000004)","0","4216",,"Lhotsky St after Sly Pl","-35.196034","149.035242",,,"0","0"
"POINT (149.074953 -35.321521000000004)","0","2023",,"Throssell St after 2nd Robertson St","-35.321521","149.074953",,,"0","0"
"POINT (149.09281000000001 -35.186159)","0","5067",,"Temperley St opp Stedman Pl","-35.186159","149.09281",,,"0","0"
"POINT (149.088309 -35.428822)","0","1749",,"Noorooma St before Ellerston Av","-35.428822","149.088309",,,"0","0"
"POINT (149.138968 -35.317203000000006)","0","2330",,"Giles St after Leichhardt St","-35.317203","149.138968",,,"0","0"
"POINT (149.03230200000002 -35.342558000000004)","0","2410",,"Wyangala St before Hindmarsh Dr","-35.342558","149.032302",,,"0","0"
"POINT (149.021711 -35.189391)","0","5026",,"Kerrigan St opp Douglas Waterhouse Dr","-35.189391","149.021711",,,"0","0"
"POINT (149.163516 -35.30203)","0","3068",,"Morrison Cct before Bruche Rd","-35.30203","149.163516",,,"0","0"
"POINT (149.10163899999998 -35.403464)","0","1601",,"Ashley Dr before Michaelis Ct","-35.403464","149.101639",,,"0","0"
"POINT (149.015657 -35.19988)","0","4486",,"Archdall St before Hugh McKay Cr","-35.19988","149.015657",,,"0","0"
"POINT (149.056202 -35.227818)","0","4429",,"Ratcliffe Cr after Connah St","-35.227818","149.056202",,,"0","0"
"POINT (149.04998899999998 -35.232515)","0","5029",,"Southern Cross Dr before Chewings St","-35.232515","149.049989",,,"0","0"
"POINT (149.103104 -35.472405)","0","1682",,"Paperbark St after Troughton St","-35.472405","149.103104",,,"0","0"
"POINT (149.12174100000001 -35.248962)","0","3119",,"Mackennal St before Wattle St","-35.248962","149.121741",,,"0","0"
"POINT (149.048956 -35.20662000000001)","0","4255",,"Kingsford Smith Dr after Alfred Hill Dr","-35.20662","149.048956",,,"0","0"
"POINT (149.087515 -35.344350000000006)","0","2814",,"Woden Interchange Plt 9","-35.34435","149.087515",,"https://www.transport.act.gov.au/__data/assets/pdf_file/0016/1244203/TC_station_woden.pdf","0","0"
"POINT (149.052595 -35.353404)","0","2647",,"Namatjira Dr before Badimara St","-35.353404","149.052595",,,"0","0"
"POINT (149.09856200000002 -35.146708000000004)","0","6096",,"Robin Boyd Cr opp 137","-35.146708","149.098562",,,"0","0"
"POINT (149.127998 -35.168079999999996)","0","5080",,"Katherine Av opp Auburn St","-35.16808","149.127998",,,"0","0"
"POINT (149.106565 -35.307424)","0","2227",,"Hopetoun Cct before 1st Hampton Cct","-35.307424","149.106565",,,"0","0"
"POINT (149.114724 -35.150882)","0","6114",,"Sutherland Cr opp Margaret Hendry School","-35.150882","149.114724",,,"0","0"
"POINT (149.032159 -35.34252)","0","2141",,"Wyangala St at Tullaroop St","-35.34252","149.032159",,,"0","0"
"POINT (149.114847 -35.268954)","0","3104",,"Boldrewood St before David St","-35.268954","149.114847",,,"0","0"
"POINT (149.100057 -35.190697)","0","5078",,"Temperley St after Wendy Ey Pl","-35.190697","149.100057",,,"0","0"
"POINT (149.018662 -35.199578)","0","3434",,"Ginninderra Dr before Lance Hill Av","-35.199578","149.018662",,,"0","0"
"POINT (149.114478 -35.151599)","0","6113",,"Margaret Hendry School Sutherland Cr","-35.151599","149.114478",,,"0","0"
"POINT (149.114545 -35.19795500000001)","0","6075",,"Grampians St before Clear St","-35.197955","149.114545",,,"0","0"
"POINT (149.102769 -35.412420000000004)","0","1839",,"Ashley Dr before Bugden Av","-35.41242","149.102769",,,"0","0"
"POINT (149.09404200000003 -35.32186)","0","3018",,"Denison St after Napier Cl","-35.32186","149.094042",,,"0","0"
"POINT (149.152876 -35.2549)","0","3214",,"Officer Cr opp Gillen St","-35.2549","149.152876",,,"0","0"
"POINT (149.040523 -35.191559000000005)","0","4227",,"Shakespeare Cr opp 25","-35.191559","149.040523",,,"0","0"
"POINT (149.1297 -35.278507)","0","3406",,"City Interchange Plt 3","-35.278507","149.1297",,"https://www.transport.act.gov.au/__data/assets/pdf_file/0008/1244195/TC_station_city.pdf","0","0"
"POINT (149.189025 -35.300127)","0","5110",,"Dakota Dr before Beaufighter St","-35.300127","149.189025",,,"0","0"
"POINT (149.02991699999998 -35.223073)","0","4907",,"Southern Cross Dr after 1st Starke St","-35.223073","149.029917",,,"0","0"
"POINT (149.143528 -35.263771000000006)","0","3224",,"Campbell St before Cox St","-35.263771","149.143528",,,"0","0"
"POINT (149.058952 -35.362863)","0","2170",,"Kalgoorlie Cr after Kambalda Cr","-35.362863","149.058952",,,"0","0"
"POINT (149.097607 -35.436485)","0","1577",,"Duggan St before Outtrim Av","-35.436485","149.097607",,,"0","0"
"POINT (149.010712 -35.21653)","0","4367",,"O'Reilly St before Osburn Dr","-35.21653","149.010712",,,"0","0"
"POINT (149.121572 -35.26383)","0","4610",,"Macpherson St opp O'Connor Shops","-35.26383","149.121572",,,"0","0"
"POINT (149.15864299999998 -35.334382)","0","2344",,"92 Matina St","-35.334382","149.158643",,,"0","0"
"POINT (149.076071 -35.413455)","0","1404",,"Newman-Morris Cct after 1st Collocott Cr","-35.413455","149.076071",,,"0","0"
"POINT (149.04952600000001 -35.201262)","0","4158",,"Spalding St opp Schwarz Pl","-35.201262","149.049526",,,"0","0"
"POINT (149.05701100000002 -35.347093)","0","2521",,"Namatjira Dr after Bunbury St","-35.347093","149.057011",,,"0","0"
"POINT (149.140198 -35.315802000000005)","0","2598",,"Kingston Shops Giles St","-35.315802","149.140198",,,"0","0"
"POINT (149.057769 -35.379135999999995)","0","1344",,"Kambah Village Marconi Cr","-35.379136","149.057769",,,"0","0"
"POINT (149.047931 -35.35848)","0","1264",,"Namatjira Dr opp Perry Dr","-35.35848","149.047931",,,"0","0"
"POINT (149.032645 -35.312967)","0","2846",,"John Gorton Dr opp Opperman Av","-35.312967","149.032645",,,"0","0"
"POINT (149.15541100000002 -35.231061)","0","3427",,"Aspinall St opp Roma Mitchell Cr","-35.231061","149.155411",,,"0","0"
"POINT (149.146794 -35.319226)","0","3321",,"Wentworth Av opp Canberra Railway Stn","-35.319226","149.146794",,,"0","0"
"POINT (149.063546 -35.238609999999994)","0","5502",,"Westfield Belconnen Plt 2","-35.23861","149.063546",,"https://www.transport.act.gov.au/__data/assets/pdf_file/0014/1244201/TC_station_westfield.pdf","0","0"
"POINT (149.14082 -35.336688)","0","3293",,"Carnegie Cr before Caley Cr","-35.336688","149.14082",,,"0","0"
"POINT (149.075636 -35.258317)","0","4648",,"Bandjalong Cr after Barada Cr","-35.258317","149.075636",,,"0","0"
"POINT (149.07664599999998 -35.420965)","0","1741",,"Drakeford Dr before Isabella Dr","-35.420965","149.076646",,,"0","0"
"POINT (149.069943 -35.216389)","0","4179",,"William Webb Dr opp Callaghan St","-35.216389","149.069943",,,"0","0"
"POINT (149.04093400000002 -35.336054)","0","2210",,"Blackwood Tce opp Tyers St","-35.336054","149.040934",,,"0","0"
"POINT (149.15948899999998 -35.198599)","0","6054",,"Cultivation St before Tanami St","-35.198599","149.159489",,,"0","0"
"POINT (149.083001 -35.324994000000004)","0","2018",,"Curtin Shops Carruthers St","-35.324994","149.083001",,,"0","0"
"POINT (149.03446 -35.354636)","0","2157",,"Perry Dr after 2nd Sidaway St","-35.354636","149.03446",,,"0","0"
"POINT (149.026776 -35.305519)","0","2827",,"Wyndham Av before Bielski St","-35.305519","149.026776",,,"0","0"
"POINT (149.141475 -35.259595000000004)","0","3149",,"Cowper St at 2nd Bonney St","-35.259595","149.141475",,,"0","0"
"POINT (149.076642 -35.212829)","0","4126",,"William Webb Dr after 1st Sproule Cct","-35.212829","149.076642",,,"0","0"
"POINT (149.122373 -35.173328000000005)","0","4715",,"Shoalhaven Av after Roderick St","-35.173328","149.122373",,,"0","0"
"POINT (149.17267300000003 -35.323608)","0","2389",,"Gladstone St before Maryborough St","-35.323608","149.172673",,,"0","0"
"POINT (149.02836000000002 -35.191624)","0","4980",,"Kerrigan St after Dunnett St","-35.191624","149.02836",,,"0","0"
"POINT (149.127036 -35.278251000000004)","0","3042",,"City West Alinga St","-35.278251","149.127036",,,"0","0"
"POINT (149.090046 -35.24912200000001)","0","4910",,"Haydon Dr opp CIT Bruce","-35.249122","149.090046",,,"0","0"
"POINT (149.025002 -35.220281)","0","4397",,"Southern Cross Dr before Dalley Cr","-35.220281","149.025002",,,"0","0"
"POINT (149.046479 -35.190082000000004)","0","4889",,"Fraser East Terminus Tillyard Dr","-35.190082","149.046479",,,"0","0"
"POINT (149.162279 -35.25202)","0","3203",,"Madigan St before Mackenzie St","-35.25202","149.162279",,,"0","0"
"POINT (149.063606 -35.254134)","0","4510",,"Lachlan St before Bennelong Cr","-35.254134","149.063606",,,"0","0"
"POINT (149.037345 -35.22048200000001)","0","4414",,"O'Loghlen St after 1st Chambers St","-35.220482","149.037345",,,"0","0"
"POINT (149.12264199999998 -35.256129)","0","3188",,"Scrivener St after Karri St","-35.256129","149.122642",,,"0","0"
"POINT (149.08783 -35.348742)","0","1376",,"Hindmarsh Dr after Ball St","-35.348742","149.08783",,,"0","0"
"POINT (149.130674 -35.16514)","0","6175",,"Amaroo Shops Katherine Av","-35.16514","149.130674",,,"0","0"
"POINT (149.106953 -35.36213)","0","2107",,"Bromby St before Cobbadah St","-35.36213","149.106953",,,"0","0"
"POINT (149.09502900000004 -35.347935)","0","2484",,"CIT Woden Ainsworth St","-35.347935","149.095029",,,"0","0"
"POINT (149.081866 -35.210132)","0","4119",,"William Webb Dr after Owen Dixon Dr","-35.210132","149.081866",,,"0","0"
"POINT (149.051652 -35.253723)","0","4437",,"Shumack St after Harcourt St","-35.253723","149.051652",,,"0","0"
"POINT (149.1729 -35.3232)","0","2613",,"Gladstone St before Cessnock St","-35.3232","149.1729",,,"0","0"
"POINT (149.084191 -35.190908)","0","4675",,"Federation Square O'Hanlon Pl","-35.190908","149.084191",,,"0","0"
"POINT (149.043307 -35.243609)","0","4447",,"Hawker Pl opp Hawker Shops","-35.243609","149.043307",,,"0","0"
"POINT (149.086077 -35.446768000000006)","0","1186",,"Clare Dennis Av before 2nd Fred Ln Cr","-35.446768","149.086077",,,"0","0"
"POINT (149.075326 -35.355734999999996)","0","2060",,"Macfarland Cr opp Waldock St","-35.355735","149.075326",,,"0","0"
"POINT (149.128066 -35.329126)","0","3271",,"Monaro Cr after Flinders Way","-35.329126","149.128066",,,"0","0"
"POINT (149.129603 -35.186797999999996)","0","6131",,"Gungahlin Leisure Centre The Valley Av","-35.186798","149.129603",,,"0","0"
"POINT (149.121427 -35.249699)","0","3377",,"Wattle St before Miller St","-35.249699","149.121427",,,"0","0"
"POINT (149.137069 -35.286770000000004)","0","3006",,"CIT Reid Constitution Av","-35.28677","149.137069",,,"0","0"
"POINT (149.063533 -35.417429999999996)","0","2713",,"Athllon Dr before Rowland Rees Cr","-35.41743","149.063533",,,"0","0"
"POINT (149.126543 -35.315571000000006)","0","2926",,"National Cct opp Forrest PS","-35.315571","149.126543",,,"0","0"
"POINT (149.11148300000002 -35.164238)","0","4702",,"Unaipon Av before Len Waters St","-35.164238","149.111483",,,"0","0"
"POINT (149.13509 -35.267573)","0","3142",,"Torrens St after Ipima St","-35.267573","149.13509",,,"0","0"
"POINT (149.069539 -35.253155)","0","4515",,"Bowman St before Jamison Centre","-35.253155","149.069539",,,"0","0"
"POINT (149.05953 -35.338414)","0","2193",,"McInnes St before Ironside St","-35.338414","149.05953",,,"0","0"
"POINT (149.107089 -35.340057)","0","2533",,"Gilmore Cr opp 1st Ingamells St","-35.340057","149.107089",,,"0","0"
"POINT (149.115569 -35.418313)","0","1500",,"Beattie Cr after Goldstein Cr","-35.418313","149.115569",,,"0","0"
"POINT (149.06305 -35.208197999999996)","0","4076",,"Copland Dr before 2nd McEachern Cr","-35.208198","149.06305",,,"0","0"
"POINT (149.08607000000003 -35.192143)","0","0601",,"O'Hanlon Pl before Gold Creek Rd","-35.192143","149.08607",,,"0","0"
"POINT (149.06568000000001 -35.214925)","0","4174",,"Moynihan St before Callaghan St","-35.214925","149.06568",,,"0","0"
"POINT (149.120969 -35.282188)","0","3486",,"Liversidge St before Ellery Cr","-35.282188","149.120969",,,"0","0"
"POINT (149.029989 -35.298937)","0","2834",,"Holborow Av after Greenwood St","-35.298937","149.029989",,,"0","0"
"POINT (149.09901499999998 -35.46047)","0","1219",,"Tom Roberts Av before Box Hill Av","-35.46047","149.099015",,,"0","0"
"POINT (149.05473 -35.252645)","0","4273",,"Coulter Dr opp Schumack St","-35.252645","149.05473",,,"0","0"
"POINT (149.07657 -35.21291)","0","4125",,"William Webb Dr opp 2nd Sproule Cct","-35.21291","149.07657",,,"0","0"
"POINT (149.08934299999999 -35.34819)","0","2592",,"Callam St after Hindmarsh Dr","-35.34819","149.089343",,,"0","0"
"POINT (149.09830300000002 -35.38849400000001)","0","1485",,"Longmore Cr before Sainsbury St","-35.388494","149.098303",,,"0","0"
"POINT (149.127216 -35.244457000000004)","0","4547",,"National Hockey Centre Mouat St","-35.244457","149.127216",,,"0","0"
"POINT (149.06973 -35.422657)","0","1063",,"Tuggeranong Bus Depot Scollay St","-35.422657","149.06973",,,"0","0"
"POINT (149.138939 -35.288090000000004)","0","3033",,"Constitution Av after Anzac Park West","-35.28809","149.138939",,,"0","0"
"POINT (149.027617 -35.231312)","0","4342",,"Higgins Shops Fullagar Cr","-35.231312","149.027617",,,"0","0"
"POINT (149.088358 -35.416298)","0","1452",,"Clive Steele Av before Harkness St","-35.416298","149.088358",,,"0","0"
"POINT (149.08418799999998 -35.464786)","0","1199",,"Knoke Av after Clem Hill St","-35.464786","149.084188",,,"0","0"
"POINT (149.08312200000003 -35.339215)","0","2033",,"Melrose Dr before Launceston St","-35.339215","149.083122",,,"0","0"
"POINT (149.103288 -35.402260999999996)","0","1170",,"Sternberg Cr after Erindale Dr","-35.402261","149.103288",,,"0","0"
"POINT (149.093123 -35.339999)","0","2378",,"St Peter & St Pauls PS Yamba Dr","-35.339999","149.093123",,,"0","0"
"POINT (149.075663 -35.358228999999994)","0","2055",,"Macfarland Cr before 2nd Threlfall St","-35.358229","149.075663",,,"0","0"
"POINT (149.026136 -35.211047)","0","4390",,"Florey Dr opp  1st Heron Cr","-35.211047","149.026136",,,"0","0"
"POINT (149.101604 -35.343981)","0","2265",,"Garran PS Gilmore Cr","-35.343981","149.101604",,,"0","0"
"POINT (149.107856 -35.417955)","0","1534",,"Bugden Av before 1st Ingram St","-35.417955","149.107856",,,"0","0"
"POINT (149.13185900000002 -35.281562)","0","3003",,"London Cct opp Legislative Assembly","-35.281562","149.131859",,,"0","0"
"POINT (149.105954 -35.467028000000006)","0","6005",,"Jane Sutherland St after Tom Roberts Av","-35.467028","149.105954",,,"0","0"
"POINT (149.111208 -35.46383)","0","1688",,"Templestowe Av opp Eaglemont Rt","-35.46383","149.111208",,,"0","0"
"POINT (149.041843 -35.224695000000004)","0","2555",,"St Francis Xavier College Barnard Cct SSO","-35.224695","149.041843",,,"0","0"
"POINT (149.142124 -35.328656)","0","2365",,"Griffith Shops Stuart St","-35.328656","149.142124",,,"0","0"
"POINT (149.066652 -35.213568)","0","3417",,"Miles Franklin PS Alderman St SSO","-35.213568","149.066652",,,"0","0"
"POINT (149.13321200000001 -35.424588)","0","1133",,"Heagney Cr before 2nd Couchman Cr","-35.424588","149.133212",,,"0","0"
"POINT (149.063186 -35.41215)","0","1408",,"Lakeside Leisure Centre Anketell St","-35.41215","149.063186",,,"0","0"
"POINT (149.04159199999998 -35.202372)","0","4152",,"Tillyard Dr after Crawford Cr","-35.202372","149.041592",,,"0","0"
"POINT (149.094926 -35.474525)","0","1639",,"Forsythe St after Pockett Av","-35.474525","149.094926",,,"0","0"
"POINT (149.062892 -35.395919)","0","1296",,"O'Halloran Cct after Vansittart Cr","-35.395919","149.062892",,,"0","0"
"POINT (149.054245 -35.218604)","0","4071",,"Copland Dr after Carlile St","-35.218604","149.054245",,,"0","0"
"POINT (149.032646 -35.236275)","0","4297",,"Kingsford Smith Dr after Findlay St","-35.236275","149.032646",,,"0","0"
"POINT (149.177517 -35.327447)","0","2403",,"Wollongong St before Maryborough St","-35.327447","149.177517",,,"0","0"
"POINT (149.12881299999998 -35.331576)","0","3272",,"Canberra Senior Grammar School Golden Gr","-35.331576","149.128813",,,"0","0"
"POINT (149.162591 -35.301419)","0","3069",,"Morrison Cct after Bruche Rd","-35.301419","149.162591",,,"0","0"
"POINT (149.09069499999998 -35.351277)","0","2650",,"Athllon Dr after Shea St","-35.351277","149.090695",,,"0","0"
"POINT (149.026303 -35.306556)","0","2818",,"Bielski St after Heseltine St SSO","-35.306556","149.026303",,,"0","0"
"POINT (149.124427 -35.196326)","0","4776",,"Kosciuszko Av before Bollard St","-35.196326","149.124427",,,"0","0"
"POINT (149.099793 -35.476552000000005)","0","1677",,"Forsythe St after 2nd Olive Pink Cr","-35.476552","149.099793",,,"0","0"
"POINT (149.179726 -35.326815)","0","3322",,"Collie St after Wollongong St","-35.326815","149.179726",,,"0","0"
"POINT (149.122726 -35.409226000000004)","0","1152",,"Coyne St opp 19","-35.409226","149.122726",,,"0","0"
"POINT (149.111245 -35.169599)","0","4696",,"Ngunnawal PS Wanganeen Av","-35.169599","149.111245",,,"0","0"
"POINT (149.17068500000002 -35.283539000000005)","0","4664",,"Campbell Park Offices Northcott Dr","-35.283539","149.170685",,,"0","0"
"POINT (149.047806 -35.360591)","0","1265",,"Namatjira Dr before Kapunda St","-35.360591","149.047806",,,"0","0"
"POINT (149.047372 -35.208192)","0","4258",,"Kingsford Smith Dr opp Melba Shops","-35.208192","149.047372",,,"0","0"
"POINT (149.148401 -35.208676000000004)","0","6092",,"Well Station Dr after Flemington Rd","-35.208676","149.148401",,,"0","0"
"POINT (149.100686 -35.410718)","0","1435",,"Clive Steele Av before 2nd Priddle St","-35.410718","149.100686",,,"0","0"
"POINT (149.143343 -35.265718)","0","3225",,"Campbell St after Foveaux St","-35.265718","149.143343",,,"0","0"
"POINT (149.109216 -35.376743)","0","2469",,"Dookie St after Hawkesbury Cr","-35.376743","149.109216",,,"0","0"
"POINT (149.11313700000002 -35.440019)","0","1089",,"Casey Cr after O'Connor Cct","-35.440019","149.113137",,,"0","0"
"POINT (149.08222800000001 -35.461905)","0","1903",,"Callaway Cr after 2nd Myles Connell Cr","-35.461905","149.082228",,,"0","0"
"POINT (149.107382 -35.313062)","0","2223",,"Hopetoun Cct after Grose St","-35.313062","149.107382",,,"0","0"
"POINT (149.151253 -35.286234)","0","3091",,"Blamey Cr before Edmondson St","-35.286234","149.151253",,,"0","0"
"POINT (149.022051 -35.225317)","0","4366",,"Hardwick Cr after Flack St","-35.225317","149.022051",,,"0","0"
"POINT (149.095269 -35.46759)","0","1225",,"Pockett Av before 2nd Tregellas Cr","-35.46759","149.095269",,,"0","0"
"POINT (149.101109 -35.220012)","0","4039",,"Maribyrnong Av before Callabonna St","-35.220012","149.101109",,,"0","0"
"POINT (149.065463 -35.414427)","0","1804",,"Tuggeranong Interchange Plt 4","-35.414427","149.065463",,"https://www.transport.act.gov.au/__data/assets/pdf_file/0013/1244200/TC_station_tuggeranong.pdf","0","0"
"POINT (149.03227900000002 -35.334199)","0","2128",,"Burrinjuck Cr opp Duffy PS","-35.334199","149.032279",,,"0","0"
"POINT (149.04689 -35.353851)","0","2428",,"Fremantle Dr before Crowder Cct","-35.353851","149.04689",,,"0","0"
"POINT (149.042575 -35.342162)","0","2145",,"Hindmarsh Dr opp Dixon Dr","-35.342162","149.042575",,,"0","0"
"POINT (149.13693 -35.160540000000005)","0","6328",,"Mobourne St before Mallett St","-35.16054","149.13693",,,"0","0"
"POINT (149.036656 -35.319416)","0","2809",,"John Gorton Dr after Steve Irwin Av","-35.319416","149.036656",,,"0","0"
"POINT (149.095901 -35.41628)","0","1651",,"Goodwin Village Barraclough Cr","-35.41628","149.095901",,,"0","0"
"POINT (149.15608200000003 -35.290514)","0","3485",,"Campbell PS School Grounds SSO","-35.290514","149.156082",,,"0","0"
"POINT (149.15448 -35.194468)","0","6074",,"Mother Teresa School Mapleton Av","-35.194468","149.15448",,,"0","0"
"POINT (149.10447299999998 -35.160245)","0","4864",,"Burramarra Av after Jabanungga Av","-35.160245","149.104473",,,"0","0"
"POINT (149.104996 -35.35438)","0","2099",,"Culgoa Cct after 1st Jindalee Cr","-35.35438","149.104996",,,"0","0"
"POINT (149.021797 -35.196799)","0","3443",,"Lance Hill Av after Santry Pl","-35.196799","149.021797",,,"0","0"
"POINT (149.112965 -35.230793)","0","4821",,"Ellenborough St before Maribyrnong Av","-35.230793","149.112965",,,"0","0"
"POINT (149.092027 -35.184461)","0","5062",,"Temperley St after Curran Dr","-35.184461","149.092027",,,"0","0"
"POINT (149.11451 -35.168341999999996)","0","5173",,"Wanganeen Av after Mirrabei Dr","-35.168342","149.11451",,,"0","0"
"POINT (149.170613 -35.327768)","0","1771",,"Barrier St before Isa St","-35.327768","149.170613",,,"0","0"
"POINT (149.02685100000002 -35.208458)","0","4492",,"Florey Dr after Handcock Cr","-35.208458","149.026851",,,"0","0"
"POINT (149.096397 -35.342457)","0","2094",,"Yamba Dr after Kitchener St","-35.342457","149.096397",,,"0","0"
"POINT (149.06178 -35.214546)","0","4171",,"Moynihan St after 1st Deffell St","-35.214546","149.06178",,,"0","0"
"POINT (149.011084 -35.22498)","0","4316",,"Holt Shops Beaurepaire Cr","-35.22498","149.011084",,,"0","0"
"POINT (149.09981499999998 -35.476442999999996)","0","1678",,"Forsythe St after 2nd Smeaton Cct","-35.476443","149.099815",,,"0","0"
"POINT (149.075536 -35.258419)","0","4649",,"Bandjalong Cr after Amangu St","-35.258419","149.075536",,,"0","0"
"POINT (149.0376 -35.251195)","0","4453",,"Erldunda Cct after 1st Ambalindum St","-35.251195","149.0376",,,"0","0"
"POINT (149.054609 -35.23281)","0","4433",,"Ratcliffe Cr opp 2nd Challinor Cr","-35.23281","149.054609",,,"0","0"
"POINT (149.097453 -35.228392)","0","5010",,"Baldwin Dr after Stockman Av","-35.228392","149.097453",,,"0","0"
"POINT (149.123051 -35.245427)","0","3123",,"Mackennal St after Archibald St","-35.245427","149.123051",,,"0","0"
"POINT (149.10864899999999 -35.149104)","0","6118",,"Sutherland Cr before Bischoff St","-35.149104","149.108649",,,"0","0"
"POINT (149.02640500000004 -35.189240999999996)","0","4899",,"Kerrigan St before Traeger St","-35.189241","149.026405",,,"0","0"
"POINT (149.120664 -35.189671999999995)","0","4791",,"Kosciuszko Av after Amarina St","-35.189672","149.120664",,,"0","0"
"POINT (149.111114 -35.226940000000006)","0","4024",,"Maribyrnong Av after Campaspe Cct","-35.22694","149.111114",,,"0","0"
"POINT (149.092283 -35.363343)","0","2610",,"Athllon Dr opp Southlands Shops","-35.363343","149.092283",,,"0","0"
"POINT (149.11818799999998 -35.251058)","0","3116",,"Miller St after Merrit Pl","-35.251058","149.118188",,,"0","0"
"POINT (149.082031 -35.338597)","0","2030",,"Marrawah St after Theodore St","-35.338597","149.082031",,,"0","0"
"POINT (149.100868 -35.167208)","0","4873",,"Horse Park Dr after Arrabri St","-35.167208","149.100868",,,"0","0"
"POINT (149.13689499999998 -35.24863)","0","4584",,"Antill St after Badham St","-35.24863","149.136895",,,"0","0"
"POINT (149.050413 -35.190482)","0","4237",,"Bingley Cr after 2nd Rochford St","-35.190482","149.050413",,,"0","0"
"POINT (149.038455 -35.20930300000001)","0","4204",,"Companion Cr at Dobinson Pl","-35.209303","149.038455",,,"0","0"
"POINT (149.027549 -35.341193)","0","2138",,"22 Eucumbene Dr","-35.341193","149.027549",,,"0","0"
"POINT (149.09401 -35.352035)","0","2671",,"Ainsworth St opp Hobury St","-35.352035","149.09401",,,"0","0"
"POINT (149.036765 -35.339579)","0","2510",,"Burrinjuck Cr after Kallara Cl","-35.339579","149.036765",,,"0","0"
"POINT (149.139295 -35.20557700000001)","0","6080",,"Hoskins St after Well Station Dr","-35.205577","149.139295",,,"0","0"
"POINT (149.167099 -35.297810999999996)","0","3064",,"Robert Campbell Rd before Parnell Rd","-35.297811","149.167099",,,"0","0"
"POINT (149.187705 -35.296085)","0","1825",,"IKEA Majura Rd","-35.296085","149.187705",,,"0","0"
"POINT (149.010649 -35.210952)","0","4371",,"Osburn Dr opp Macgregor Shops","-35.210952","149.010649",,,"0","0"
"POINT (149.047096 -35.34468)","0","1248",,"Streeton Dr before 1st Fremantle Dr","-35.34468","149.047096",,,"0","0"
"POINT (149.053153 -35.360207)","0","2166",,"Kalgoorlie Cr before Callide St","-35.360207","149.053153",,,"0","0"
"POINT (149.119349 -35.431117)","0","1120",,"Clift Cr after 1st Fullerton Cr","-35.431117","149.119349",,,"0","0"
"POINT (149.190282 -35.313168)","0","3469",,"8 Brindabella Cct","-35.313168","149.190282",,,"0","0"
"POINT (149.074526 -35.343412)","0","2067",,"Launceston St before 2nd Tarraleah Cr","-35.343412","149.074526",,,"0","0"
"POINT (149.148566 -35.338199)","0","2339",,"Goyder St opp Narrabundah College","-35.338199","149.148566",,,"0","0"
"POINT (149.048471 -35.239691)","0","4474",,"Petterd St after Herrgott St","-35.239691","149.048471",,,"0","0"
"POINT (149.133731 -35.301181)","0","3261",,"Parkes Pl opp John Gorton Building","-35.301181","149.133731",,,"0","0"
"POINT (149.122715 -35.184785999999995)","0","6031",,"Gundaroo Dr after Ginn St","-35.184786","149.122715",,,"0","0"
"POINT (149.109589 -35.427562)","0","1490",,"Clift Cr before 2nd Kiddle Cr","-35.427562","149.109589",,,"0","0"
"POINT (149.16998700000002 -35.335004999999995)","0","2944",,"Canberra Av before Faulding St","-35.335005","149.169987",,,"0","0"
"POINT (149.108376 -35.357780000000005)","0","2104",,"Kareelah Vsta after Taronga Pl","-35.35778","149.108376",,,"0","0"
"POINT (149.04262 -35.22228)","0","4418",,"Krefft St opp 2nd Ennor Cr","-35.22228","149.04262",,,"0","0"
"POINT (149.156307 -35.246427000000004)","0","3196",,"Antill St before Phillip Av","-35.246427","149.156307",,,"0","0"
"POINT (149.14789299999998 -35.335868)","0","2571",,"Narrabundah College Jerrabomberra Av","-35.335868","149.147893",,,"0","0"
"POINT (149.060159 -35.204397)","0","4931",,"Alpen St after Alfred Hill Dr","-35.204397","149.060159",,,"0","0"
"POINT (149.067248 -35.21425)","0","4175",,"Moynihan St before 2nd Alderman St","-35.21425","149.067248",,,"0","0"
"POINT (149.03217000000004 -35.30465)","0","2837",,"John Gorton Dr before Wyndham Av","-35.30465","149.03217",,,"0","0"
"POINT (149.10706399999998 -35.344997)","0","2539",,"Gilmore Cr opp 1st Eldridge Cr","-35.344997","149.107064",,,"0","0"
"POINT (149.04038300000002 -35.356077)","0","2161",,"Chapman Shops Perry Dr","-35.356077","149.040383",,,"0","0"
"POINT (149.081085 -35.233762)","0","1737",,"Thirriwirri St opp UC Public Hospital","-35.233762","149.081085",,,"0","0"
