"provider_location_guid","loc_store_no","loc_phone","loc_name","loc_admin_street1","loc_admin_street2","loc_admin_city","loc_admin_state","loc_admin_zip","sunday_hours","monday_hours","tuesday_hours","wednesday_hours","thursday_hours","friday_hours","saturday_hours","web_address","pre_screen","insurance_accepted","walkins_accepted","provider_notes","ndc","med_name","in_stock","supply_level","quantity_last_updated","latitude","longitude","category","unnamed_column","offers_free_masks","min_age_months","min_age_years"
"ef03adfe-3397-43ad-9bdc-c741ecf6575d","RA102223","410-549-6250","Rite Aid #RA102223","FREEDOM VILLAGE S/C",,"ELDERSBURG","MD","21784-6419","10:00 AM-6:00 PM","09:00 AM-9:00 PM","09:00 AM-9:00 PM","09:00 AM-9:00 PM","09:00 AM-9:00 PM","09:00 AM-9:00 PM","09:00 AM-5:00 PM","https://www.riteaid.com","https://www.riteaid.com/pharmacy/scheduler","true","false","Please consult RiteAid.com for more details and information.","59267-1000-01","Pfizer-BioNTech, COVID-19 Vaccine, 30 mcg/0.3mL","false","0","2022-08-03","39.400104","-76.943590","covid",,"false","0","3"
"fd2ed4fd-b533-4ce3-b954-ad5d2e09ce7f","Not applicable","(410) 569-4224","Plumtree Family Health Center","104 PLUMTREE RD STE 102",,"Bel Air","MD","21015-6095","Closed","7:00 AM - 7:00 PM","7:00 AM - 5:00 PM","7:00 AM - 7:00 PM","7:00 AM - 5:00 PM","7:00 AM - 12:00 PM","Closed","http://www.plumtreefamily.com",,"true","false",,"80777-0273-10","Moderna, COVID-19 Vaccine, 100mcg/0.5mL 10 dose","false","0","2022-05-24","39.502087","-76.329712","covid",,"false","0","18"
"ebf1cea4-15f3-4263-8473-6f1104011508","RA106560","916-784-1590","Rite Aid #RA106560","446 ROSEVILLE SQUARE",,"ROSEVILLE","CA","95678-2808","10:00 AM-6:00 PM","09:00 AM-9:00 PM","09:00 AM-9:00 PM","09:00 AM-9:00 PM","09:00 AM-9:00 PM","09:00 AM-9:00 PM","09:00 AM-6:00 PM","https://www.riteaid.com","https://www.riteaid.com/pharmacy/scheduler","true","false","Please consult RiteAid.com for more details and information.","59267-1000-01","Pfizer-BioNTech, COVID-19 Vaccine, 30 mcg/0.3mL","false","0","2022-08-03","38.744290","-121.276138","covid",,"false","0","3"
"40e517d9-5012-4470-aee9-aab22293ce75","Not applicable","(423) 623-1057","RURAL MEDICAL SERVICES - NEWPORT CENTER","229 HEDRICK DRIVE",,"NEWPORT","TN","37821",,,,,,,,,,,,"Please call to schedule an appointment ONLY if you are eligible to receive vaccine at this time.","59267-1025-01","Pfizer-BioNTech, COVID-19 Vaccine, 30 mcg/0.3mL, tris-sucrose","false","0","2022-04-22","35.965120","-83.197679","covid",,"false",,
"5d9844e0-2c44-4235-84d7-cbdf7d93cafe","Not applicable","(435) 655-0926","Wasatch Peds-Summit","750 Round Valley Dr","STE 102","Park City","UT","84060",,"9:00 AM - 5:00 PM","9:00 AM - 5:00 PM","9:00 AM - 5:00 PM","9:00 AM - 5:00 PM","9:00 AM - 5:00 PM",,"http://www.wasatchpeds.net/ParkCity",,"true","false","Appointment required","59267-1000-01","Pfizer-BioNTech, COVID-19 Vaccine, 30 mcg/0.3mL","false","0","2022-03-14","40.685781","-111.467016","covid",,"false",,
"9bcc00fd-2145-48fc-b56f-b91ffe516a3b","4353974","(605) 367-2510","LEWIS DRUGS INC #10 #4353974","6109 S LOUISE AVE.",,"SIOUX FALLS","SD","57108","10:00 AM - 9:00 PM","8:00 AM - 9:00 PM","8:00 AM - 9:00 PM","8:00 AM - 9:00 PM","8:00 AM - 9:00 PM","8:00 AM - 9:00 PM","9:00 AM - 9:00 PM","https://www.lewisdrug.com",,,"true",,"59267-0078-01","Pfizer-BioNTech, COVID-19 Vaccine, 3 mcg/0.2 mL, tris-sucrose","false","0","2022-08-03","43.488812","-96.768639","covid",,"false",,
"b7c8f8b6-ba05-409e-886f-6401a1cd01be","MS1001967","(731) 648-5146","GLEASON CITY DRUG STORE #MS1001967","102 MAIN STREET",,"GLEASON","TN","38229","Closed","9:00 AM - 6:00 PM","9:00 AM - 6:00 PM","9:00 AM - 6:00 PM","9:00 AM - 6:00 PM","9:00 AM - 6:00 PM","9:00 AM - 12:00 PM","http://www.gleasoncitydrug.com","https://hipaa.jotform.com/210475562788062","true","true","We accept walk-ins.  Call us at 731-648-5146 for more information.","80777-0273-10","Moderna, COVID-19 Vaccine, 100mcg/0.5mL 10 dose","false","0","2022-08-08","36.214587","-88.611279","covid",,"false",,
"07b1affd-3b85-4ef2-a6ed-e0cf9e69147d","4300606","(605) 367-2310","LEWIS DRUGS INC #3 #4300606","1301 E 10TH ST.",,"SIOUX FALLS","SD","57103","10:00 AM - 6:00 PM","9:00 AM - 8:00 PM","9:00 AM - 8:00 PM","9:00 AM - 8:00 PM","9:00 AM - 8:00 PM","9:00 AM - 8:00 PM","9:00 AM - 6:00 PM","https://www.lewisdrug.com/stores/lewis-10th-cliff-sioux-falls","https://lewisdrugc19.as.me/schedule.php?calendarID=4925755","true","true","COVID vaccinations are available by walk in Monday through Friday 12pm to 8pm and Saturday 10am to 5pm now. All vaccines do need approx 15 mins to warm up once out of refrigerator so if you'd like please call ahead to let us know which vaccine you'd like and what time you'll plan to be in so we can prepare things in advance as best we can.","00069-2025-01","Pfizer-BioNTech, COMIRNATY, 30 mcg/0.3 mL, tris-sucrose","false","0","2022-08-03","43.545886","-96.709433","covid",,"false",,
"eb5fe653-b6b8-45d2-b100-557511865c38","0725551","(860) 225-6487","DEGROFF RX LLC #0725551","543 WEST MAIN ST",,"NEW BRITAIN","CT","06053",,"9:00 AM - 5:00 PM","9:00 AM - 5:00 PM","9:00 AM - 5:00 PM","9:00 AM - 5:00 PM","9:00 AM - 3:00 PM","9:00 AM - 12:00 PM",,,"true","true",,"59267-0078-01","Pfizer-BioNTech, COVID-19 Vaccine, 3 mcg/0.2 mL, tris-sucrose","false","0","2022-08-03","41.666178","-72.800263","covid",,"false",,
"036e28ae-0036-4c23-a3e5-2c983534361d","RA104879","609-387-4998","Rite Aid #RA104879","108 EAST ROUTE 130 S",,"BURLINGTON","NJ","08016-2774","10:00 AM-6:00 PM","09:00 AM-9:00 PM","09:00 AM-9:00 PM","09:00 AM-9:00 PM","09:00 AM-9:00 PM","09:00 AM-9:00 PM","09:00 AM-6:00 PM","https://www.riteaid.com","https://www.riteaid.com/pharmacy/scheduler","true","true","Please consult RiteAid.com for more details and information.","80777-0273-10","Moderna, COVID-19 Vaccine, 100mcg/0.5mL 10 dose","true","-1","2022-05-16","40.071569","-74.853957","covid",,"false","0","3"
"cdcc375f-6898-4742-b888-a0dc0c2f7994","213515","(443) 949-8373","ARNOLD PROFESSIONAL PHARMACY #213515","1460 RITCHIE HWY 103",,"ARNOLD","MD","21012","9:00 AM - 3:00 PM","8:00 AM - 8:00 PM","8:00 AM - 8:00 PM","8:00 AM - 8:00 PM","8:00 AM - 8:00 PM","8:00 AM - 8:00 PM","9:00 AM - 6:00 PM","http://professionalpharmacygroup.com","https://arnold-professional-pharmacy.myrxappointment.com/?locale=en","true","true",,"80777-0273-10","Moderna, COVID-19 Vaccine, 100mcg/0.5mL 10 dose","true","4","2022-08-01","39.029220","-76.506032","covid",,"false",,
"5036e217-bba8-4f3a-855b-9448c5325420","Not applicable","(478) 471-0273","MACON PEDIATRICS","3203 VINEVILLE AVENUE","Ste A","MACON","GA","31204","Closed","8:00 AM - 4:00 PM","8:00 AM - 12:00 PM","8:00 AM - 4:00 PM","8:00 AM - 12:00 PM","8:00 AM - 4:00 PM","Closed","https://fcmga.com/",,"true","false","Appointment Only.   Family Care of Middle Georgia(Formerly known as Macon Pediatrics)","80777-0273-10","Moderna, COVID-19 Vaccine, 100mcg/0.5mL 10 dose","false","0","2022-07-14","32.852386","-83.676126","covid",,"false",,
"9c271bdf-d666-41db-82a9-cab85248c55e","MS1004909","(908) 638-4000","GRAYROCK PHARMACY #MS1004909","2004 STATE ROUTE 31 UNIT 4",,"CLINTON","NJ","08809-2040","10:00 AM - 1:00 PM","9:00 AM - 7:00 PM","9:00 AM - 7:00 PM","9:00 AM - 7:00 PM","9:00 AM - 7:00 PM","9:00 AM - 7:00 PM","9:00 AM - 3:00 PM","http://grayrockrx.com",,"true","true","CALL 908 638 4000 Walk -ins Welcome ,  No Appointment Neede.","59676-0580-05","Janssen, COVID-19 Vaccine, 0.5 mL","false","0","2022-08-14","40.670124","-74.914807","covid",,"false","0","3"
"db17787b-b792-45d6-a587-91268068e7f1","20675","7045048199","MinuteClinic #20675","14125 STEELE CREEK RD",,"CHARLOTTE","NC","28273",,,,,,,,,,"false","false",,"59267-1000-01","Pfizer-BioNTech, COVID-19 Vaccine, 30 mcg/0.3mL","false","0","2022-06-24","35.102363","-80.987496","covid",,"false","18","0"
"3fde0211-6034-4bbe-905d-6ec62867b29d","2817","973-762-5044","Stop & Shop #2817","407 VALLEY STREET",,"SOUTH ORANGE","NJ","07079","9:00AM-5:00PM","9:00AM-7:00PM","9:00AM-7:00PM","9:00AM-7:00PM","9:00AM-7:00PM","9:00AM-7:00PM","9:00AM-5:00PM","https://stopandshopsched.rxtouch.com/rbssched/program/wellness","https://stopandshopsched.rxtouch.com/rbssched/program/wellness","true","true",,"59267-1000-01","Pfizer-BioNTech, COVID-19 Vaccine, 30 mcg/0.3mL","false","0","2022-05-04","40.739121","-74.265341","covid",,"false","0","3"
"19dbe9a1-0576-437e-81af-c07c5db22fa8","Not applicable","9169790621","MANZANITA MEDICAL CLINIC","5810 JAMESON CT",,"CARMICHAEL","CA","95608",,,,,,,,,,,,,"59676-0580-05","Janssen, COVID-19 Vaccine, 0.5 mL","false","0","2022-07-20","38.650900","-121.329066","covid",,"false",,
"6f2f2c19-add4-44fe-ab73-af7306b89d6e","Not applicable","410-355-3610","Ritchie Pharmacy LLC","5507 suite B ritchie hwy",,"brooklyn park","MD","21225",,,,,,,,,,,,,"59267-1025-01","Pfizer-BioNTech, COVID-19 Vaccine, 30 mcg/0.3mL, tris-sucrose","true","-1","2022-07-29","39.220764","-76.612769","covid",,"false",,
"fbbb2f96-6ed7-450d-ba22-0c80f10900c9","20096","6148502407","MinuteClinic #20096","4961 ROBERTS RD",,"HILLIARD","OH","43026",,,,,,,,,,"false","false",,"59267-1000-01","Pfizer-BioNTech, COVID-19 Vaccine, 30 mcg/0.3mL","false","0","2022-06-24","40.002615","-83.139520","covid",,"false","18","0"
"60a10b6d-fcef-4f8a-9ed3-d74a31a4d678","346577","(704) 909-4700","CAROLINA PHARMACY #346577","8035 PROVIDENCE RD SUITE 100",,"CHARLOTTE","NC","28277","Closed","8:00 AM - 6:00 PM","8:00 AM - 6:00 PM","8:00 AM - 6:00 PM","8:00 AM - 6:00 PM","8:00 AM - 6:00 PM","9:00 AM - 1:00 PM","http://www.carolinapharmacy.com","http://www.carolinapharmacy.com","true","false",,"80777-0273-10","Moderna, COVID-19 Vaccine, 100mcg/0.5mL 10 dose","true","-1","2022-06-14","35.098661","-80.776429","covid",,"false",,
"5ba99142-efcc-4596-9cbd-24716da58308","RA105455","323-563-6635","Rite Aid #RA105455","11750 WILMINGTON AVENUE",,"LOS ANGELES","CA","90059-2553","10:00 AM-6:00 PM","07:00 AM-9:00 PM","07:00 AM-9:00 PM","07:00 AM-9:00 PM","07:00 AM-9:00 PM","07:00 AM-9:00 PM","09:00 AM-6:00 PM","https://www.riteaid.com","https://www.riteaid.com/pharmacy/scheduler","true","false","Please consult RiteAid.com for more details and information.","59267-1000-01","Pfizer-BioNTech, COVID-19 Vaccine, 30 mcg/0.3mL","false","0","2022-08-03","33.926663","-118.237666","covid",,"false","0","3"
"e5bf0812-01fa-455c-9e1e-90fa9c9f0407","Not applicable","(436) 893-2946","Mountain Utah Family Medicine","879 N Main",,"Richfield","UT","84701","Closed","9:30 AM - 5:00 PM","9:30 AM - 5:00 PM","9:30 AM - 5:00 PM","9:30 AM - 5:00 PM","9:30 AM - 5:00 PM","Closed","http://mountainutahfamilymedicine.com",,"true","false",,"59267-1000-01","Pfizer-BioNTech, COVID-19 Vaccine, 30 mcg/0.3mL","false","0","2021-10-06","38.780526","-112.085409","covid",,"false",,
"77d7577a-cdc7-433e-941b-bc4f1be61b86","243297","(651) 777-2350","CUB PHARMACY #1591 #243297","1920 BUERKLE ROAD",,"WHITE BEAR LAKE","MN","55110","9:00 AM - 6:00 PM","9:00 AM - 9:00 PM","9:00 AM - 9:00 PM","9:00 AM - 9:00 PM","9:00 AM - 9:00 PM","9:00 AM - 9:00 PM","9:00 AM - 6:00 PM","https://www.cub.com/pharmacy.html","https://www.cub.com/pharmacy/services/covid-testing-information.html",,"true",,"59676-0580-05","Janssen, COVID-19 Vaccine, 0.5 mL","false","0","2022-06-15","45.038943","-93.020535","covid",,"false",,
"8b686eff-9c27-488a-a4dc-fe225b68cb88","Not applicable","423-500-0477","ROGERSVILLE MEDICAL COMPLEX","4307 HWY 66 SOUTH",,"ROGERSVILLE","TN","37857",,"8:00 AM - 5:00 PM","8:00 AM - 5:00 PM","8:00 AM - 5:00 PM","8:00 AM - 5:00 PM","8:00 AM - 5:00 PM",,"http://www.rhsctn.com","http://www.rhsctn.events",,"false",,"59676-0580-05","Janssen, COVID-19 Vaccine, 0.5 mL","false","0","2022-04-22","36.396465","-83.015892","covid",,"false",,
"3bb8af86-bc34-4072-9935-2ff5d7f5dda5","Not applicable","202-847-4258","Mary's Center Ft. Totten","100 Gallatin St. NE",,"washington DC","DC","20011",,,,,,,,,,,,,"80777-0273-10","Moderna, COVID-19 Vaccine, 100mcg/0.5mL 10 dose","true","4","2022-05-06","38.952919","-77.007461","covid",,"false",,
"54f56ac8-313b-4980-a128-5339299fd7e0","Not applicable","(734) 857-7400","JOY HIX PHARMACY","9950 WAYNE RD STE 200",,"ROMULUS","MI","48174","Closed","9:00 AM - 5:00 PM","9:00 AM - 5:00 PM","9:00 AM - 5:00 PM","9:00 AM - 5:00 PM","9:00 AM - 5:00 PM","10:00 AM - 2:00 PM","http://www.joyhixpharmacy.com",,"true","false","NEXT TO TACO BELL.","59267-1000-01","Pfizer-BioNTech, COVID-19 Vaccine, 30 mcg/0.3mL","false","0","2022-08-15","42.231025","-83.386660","covid",,"false",,
"101ac1a3-30fc-49cb-be91-9f955a5100b9","MS1002655","(269) 792-6223","WAYLAND VILLAGE PHARMACY #MS1002655","300 RENO DR",,"WAYLAND","MI","49348","Closed","9:00 AM - 7:00 PM","9:00 AM - 7:00 PM","9:00 AM - 7:00 PM","9:00 AM - 7:00 PM","9:00 AM - 7:00 PM","9:00 AM - 1:00 PM","http://WWW.WAYLANDRX.COM","https://book-ch.appointment-plus.com/d1xx2spg","true","false",,"80777-0273-10","Moderna, COVID-19 Vaccine, 100mcg/0.5mL 10 dose","true","4","2022-08-17","42.672079","-85.657455","covid",,"false",,
"ec376019-8767-4c8f-a4d9-27f289bf610a","Not applicable",,"NEW CASTLE DISCOUNT PHARMACY","232 NEW CASTLE AVE",,"NEW CASTLE","DE","19720",,,,,,,,,,,,,"80777-0273-10","Moderna, COVID-19 Vaccine, 100mcg/0.5mL 10 dose","false","0","2022-07-12","39.686286","-75.556680","covid",,"false",,
"aae53237-c625-4cde-bfa5-091c291d3f5b","MS1001055","787-824-7777","FARMACIA GARROD #MS1001055","CALLE MUNOZ RIVERA 24",,"SALINAS","PR","00751",,,,,,,,,,,,,"59267-1025-01","Pfizer-BioNTech, COVID-19 Vaccine, 30 mcg/0.3mL, tris-sucrose","false","0","2022-06-21","17.977756","-66.297893","covid",,"false",,
"b1e95b40-808b-4b35-8b10-89754f57dabe","062783","607-733-2399","Weis Pharmacy #116 #062783","401 N MAIN STREET","Weis Pharmacy #116","ELMIRA","NY","14902","10:00 AM - 2:00 PM","9:00 AM - 9:00 PM","9:00 AM - 9:00 PM","9:00 AM - 9:00 PM","9:00 AM - 9:00 PM","9:00 AM - 9:00 PM","9:00 AM - 6:00 PM","http://www.weismarkets.com","https://www.weismarkets.com/pharmacy-services","true","true","Please consider scheduling an appointment. Limited walkins are welcome based on availbility. Vaccine administered each day is shown when you schedule. We will schedule your second dose appointment when you come to your first dose appointment.","59267-1000-01","Pfizer-BioNTech, COVID-19 Vaccine, 30 mcg/0.3mL","false","0","2022-06-28","42.092016","-76.809803","covid",,"true",,
"cc5ace9e-d514-4966-be22-cd3fed3645d0","Not applicable","706-782-5991","MEDLINK - RABUN","896 Highway 441 South",,"Clayton","GA","30525",,,,,,,,,,,,,"59267-1000-01","Pfizer-BioNTech, COVID-19 Vaccine, 30 mcg/0.3mL","false","0","2022-08-17","34.866439","-83.404464","covid",,"false",,
"cd8a3d12-7c19-4bab-8511-7e78bd4c8693","RA102591","610-777-8278","Rite Aid #RA102591","670 PHILADELPHIA AVENUE",,"READING","PA","19607-2769","09:00 AM-5:00 PM","09:00 AM-9:00 PM","09:00 AM-9:00 PM","09:00 AM-9:00 PM","09:00 AM-9:00 PM","09:00 AM-9:00 PM","09:00 AM-6:00 PM","https://www.riteaid.com","https://www.riteaid.com/pharmacy/scheduler","true","false","Please consult RiteAid.com for more details and information.","59267-1000-01","Pfizer-BioNTech, COVID-19 Vaccine, 30 mcg/0.3mL","false","0","2022-08-03","40.297349","-75.949499","covid",,"false","0","3"
"bfa02426-9bfe-46d5-9364-b31baac7bd1b","Not applicable","833-427-5634","Carine Pediatrics","3300 Riverside Dr","Suite 200","Upper Arlington","OH","43221",,,,,,,,"http://gettheshot.coronavirus.ohio.gov","http://gettheshot.coronavirus.ohio.gov",,,,"59676-0580-05","Janssen, COVID-19 Vaccine, 0.5 mL","false","0","2022-06-07","40.020889","-83.091794","covid",,"false",,
"902fa837-a14c-472b-8be9-79990743cf7f","Not applicable","443-272-7858","Metro XtraCare - Primary and Urgent Care","3608 MILFORD MILL RD",,"WINDSOR MILL","MD","21244-3328",,,,,,,,,,,,,"59267-1025-01","Pfizer-BioNTech, COVID-19 Vaccine, 30 mcg/0.3mL, tris-sucrose","true","-1","2022-07-29","39.355267","-76.757885","covid",,"false",,
"d78e16d3-cede-42ad-805d-7ed2fdba9751","Not applicable","985-537-8687","Children's Clinic of Raceland","110 Acadia Dr.",,"Raceland","LA","70394",,"8:00 AM - 4:00 PM","8:00 AM - 4:00 PM","8:00 AM - 4:00 PM","8:00 AM - 4:00 PM","8:00 AM - 4:00 PM",,,,,,,"59267-1025-01","Pfizer-BioNTech, COVID-19 Vaccine, 30 mcg/0.3mL, tris-sucrose","true","-1","2022-04-29","29.701788","-90.564511","covid",,"false",,
"0f3f8bfa-a5b7-421a-aafa-3583e0d828ac","MS1000205","(956) 399-5501","SALINAS PHARMACY #MS1000205","500 N SAM HOUSTON BLVD STE 1",,"SAN BENITO","TX","78586","Closed","8:30 AM - 7:00 PM","8:30 AM - 7:00 PM","8:30 AM - 7:00 PM","8:30 AM - 7:00 PM","8:30 AM - 6:30 PM","8:30 AM - 1:30 PM",,,"true","true",,"59267-1055-01","Pfizer-BioNTech, COVID-19 Vaccine, 10 mcg/0.2 mL, tris-sucrose","true","-1","2022-06-02","26.134799","-97.628602","covid",,"false",,
"af9e1aa8-272f-4626-9655-91f00bc8bd6f","Not applicable","337-457-8166","Heinen Medical Eunice","151 Leon Avenue","Suite B","Eunice","LA","70535",,"8:30 AM - 5:00 PM","8:30 AM - 5:00 PM","8:30 AM - 5:00 PM","8:30 AM - 5:00 PM","8:30 AM - 5:00 PM",,,,,,,"59267-1055-01","Pfizer-BioNTech, COVID-19 Vaccine, 10 mcg/0.2 mL, tris-sucrose","true","-1","2022-07-05","30.495313","-92.392123","covid",,"false",,
"ede5cd86-b1d6-46af-88ef-1206d2009134","RA110920","412-761-1890","Rite Aid #RA110920","535 LINCOLN AVENUE",,"PITTSBURGH","PA","15202-3548","10:00 AM-5:00 PM","09:00 AM-9:00 PM","09:00 AM-9:00 PM","09:00 AM-9:00 PM","09:00 AM-9:00 PM","09:00 AM-9:00 PM","09:00 AM-5:00 PM","https://www.riteaid.com","https://www.riteaid.com/pharmacy/scheduler","true","false","Please consult RiteAid.com for more details and information.","59267-1000-01","Pfizer-BioNTech, COVID-19 Vaccine, 30 mcg/0.3mL","false","0","2022-08-03","40.495921","-80.057007","covid",,"false","0","3"
"4e28ebdc-a88c-4883-9387-66f0bc1d2dd3","4304820","(605) 326-5211","LEWIS FAMILY DRUG LLC #58 #4304820","104 W PARK AVE.",,"VIBORG","SD","57070","Closed","9:00 AM - 6:00 PM","9:00 AM - 5:30 PM","9:00 AM - 5:30 PM","9:00 AM - 5:30 PM","9:00 AM - 5:30 PM","9:00 AM - 12:00 PM","https://www.lewisdrug.com/stores/lewis-family-drug-viborg","https://lewisdrugc19.as.me/schedule.php?calendarID=4948574","true","true","COVID vaccinations are by appointment only. Please check our website under this pharmacy location to determine appointment availability. If no appointments are available, please check back often or other locations for openings!","00069-2025-01","Pfizer-BioNTech, COMIRNATY, 30 mcg/0.3 mL, tris-sucrose","false","0","2022-08-03","43.170476","-97.082663","covid",,"false",,
"93ed9420-b61e-4612-8e46-d60118b41066","08017","(313) 274-6240","CVS Pharmacy, Inc. #08017","27365 CHERRY HILL",,"INKSTER","MI","48141","10:00AM-05:00PM","09:00AM-08:00PM","09:00AM-08:00PM","09:00AM-08:00PM","09:00AM-08:00PM","09:00AM-08:00PM","10:00AM-05:00PM","https://www.cvs.com/store-locator/details-directions/008017","https://www.cvs.com/immunizations/covid-19-vaccine","true","true","It is highly recommended to make an appointment for pediatric (5-11 years old) COVID-19 vaccinations.","59267-0078-01","Pfizer-BioNTech, COVID-19 Vaccine, 3 mcg/0.2 mL, tris-sucrose","false","0","2022-07-29","42.310785","-83.310164","covid",,"false","0","3"
"69956db7-7769-4f3d-a5bf-c55df637fcee","Not applicable","301-589-9480","Carlos E. Covarrubias, MD and Associates","8121 GEORGIA AVE STE 405",,"Silver Spring","MD","20910-4933",,,,,,,,,,,,,"59676-0580-05","Janssen, COVID-19 Vaccine, 0.5 mL","false","0","2022-08-17","38.991091","-77.026092","covid",,"false",,
"f5a45c69-2414-4c89-84f4-61efab5c3b60","3197034","856-251-1900","Woodbury Family Pharmacy #3197034","160 North Broad Street",,"Woodbury","NJ","08096",,,,,,,,,,,,,"59676-0580-05","Janssen, COVID-19 Vaccine, 0.5 mL","false","0","2022-08-09","39.841118","-75.150571","covid",,"true",,
"74533446-ae3d-4139-b755-e62099c528c8","Not applicable","(847) 377-8130","LAKE COUNTY HEALTH DEPARTMENT AND COMMUNITY HEALTH CENTER","3010 GRAND AVENUE",,"WAUKEGAN","IL","60085","Closed","8:00 AM - 4:00 PM","8:00 AM - 4:00 PM","8:00 AM - 4:00 PM","8:00 AM - 4:00 PM","8:00 AM - 4:00 PM","Closed","https://allvax.lakecohealth.org/",,"true","true","Please visit the AllVax website (https://allvax.lakecohealth.org) for additional information.","59267-1000-01","Pfizer-BioNTech, COVID-19 Vaccine, 30 mcg/0.3mL","false","0","2022-03-14","42.372082","-87.876149","covid",,"false",,
"198f4382-31fa-4e52-9fdc-eb1342d2b056","Not applicable","770-731-1114","Performance Health Care","6853 Douglas Blvd","Suite B","Douglasville","GA","30135",,,,,,,,,,,,,"59267-1055-01","Pfizer-BioNTech, COVID-19 Vaccine, 10 mcg/0.2 mL, tris-sucrose","true","3","2022-06-16","33.728743","-84.754692","covid",,"false",,
"ec19b677-f9d9-4a4f-bdc9-6498be9f57e0","Not applicable","229-995-2990","DAWSON MEDICAL CENTER","420 Johnson Street SE",,"DAWSON","GA","39842",,,,,,,,,,,,,"80777-0273-10","Moderna, COVID-19 Vaccine, 100mcg/0.5mL 10 dose","true","-1","2022-06-10","31.772839","-84.443891","covid",,"false",,
"d551b5ae-1d26-41db-b53d-131c0ed7a1fd","Not applicable","(417) 357-6134","STONE COUNTY HEALTH DEPT GALENA","109 E 4th ST",,"Galena","MO","65656-9649","Closed","8:30 AM - 4:30 PM","8:30 AM - 4:30 PM","8:30 AM - 4:30 PM","8:30 AM - 4:30 PM","Closed","Closed","http://www.stonecountyhealthdepartment.com",,,"false",,"00069-2025-01","Pfizer-BioNTech, COMIRNATY, 30 mcg/0.3 mL, tris-sucrose","false","0","2022-08-05","36.805647","-93.466098","covid",,"false",,
"e672d41e-069c-43a7-813a-6cd58265ef8a","414083","870-793-4179","ECONO-MART PHARMACY #414083","1595 HARRISON STREET",,"BATESVILLE","AR","72501",,,,,,,,,,,,,"59267-1055-01","Pfizer-BioNTech, COVID-19 Vaccine, 10 mcg/0.2 mL, tris-sucrose","true","-1","2022-06-08","35.769847","-91.637041","covid",,"false",,
"cc5f8f28-c18d-4de3-a10b-b123f2f77a79","Not applicable","843-546-2880","Medicine Shoppe","1061 N Fraser Street",,"Georgetown","SC","29440","Closed","9:00 AM - 6:00 PM","9:00 AM - 6:00 PM","9:00 AM - 6:00 PM","9:00 AM - 6:00 PM","9:00 AM - 6:00 PM","9:00 AM - 1:00 PM","https://georgetown.medicineshoppe.com/","https://georgetown.medicineshoppe.com/coronavirus","true","false",,"59267-1055-01","Pfizer-BioNTech, COVID-19 Vaccine, 10 mcg/0.2 mL, tris-sucrose","false","0","2022-08-04","33.386593","-79.289872","covid",,"false",,
"5ad83f79-07bd-466e-a30e-e667ea422f34","Not applicable","(478) 862-5628","TAYLOR COUNTY HEALTH DEPARTMENT","178-1 Charing Rd",,"Butler","GA","31006","Closed","8:30 AM - 3:30 PM","8:30 AM - 3:30 PM","8:30 AM - 3:30 PM","8:30 AM - 3:30 PM","8:30 AM - 3:30 PM","Closed","http://www.westcentralhealthdistrict.com","https://gta-vras.powerappsportals.us/en-US/","true","true","Vaccines in stock","59267-1000-01","Pfizer-BioNTech, COVID-19 Vaccine, 30 mcg/0.3mL","false","0","2022-08-22","32.557066","-84.251605","covid",,"false",,
"69ea391b-fbf9-43b8-b73f-05ec6ba68b9b","RA102606","989-734-7392","Rite Aid #RA102606","110 SOUTH BRADLEY HIGHWAY",,"ROGERS CITY","MI","49779-2123","10:00 AM-6:00 PM","09:00 AM-9:00 PM","09:00 AM-9:00 PM","09:00 AM-9:00 PM","09:00 AM-9:00 PM","09:00 AM-9:00 PM","09:00 AM-5:00 PM","https://www.riteaid.com","https://www.riteaid.com/pharmacy/scheduler","true","false","Please consult RiteAid.com for more details and information.","59267-1000-01","Pfizer-BioNTech, COVID-19 Vaccine, 30 mcg/0.3mL","false","0","2022-08-03","45.412528","-83.825000","covid",,"false","0","3"
"51bf787e-03c3-4534-96f3-970eaed6b893","RA111175","302-832-9772","Rite Aid #RA111175","1999 PULASKI HWY (RT 40)",,"BEAR","DE","19701-1708","10:00 AM-6:00 PM","09:00 AM-9:00 PM","09:00 AM-9:00 PM","09:00 AM-9:00 PM","09:00 AM-9:00 PM","09:00 AM-9:00 PM","09:00 AM-5:00 PM","https://www.riteaid.com","https://www.riteaid.com/pharmacy/scheduler","true","false","Please consult RiteAid.com for more details and information.","59267-1000-01","Pfizer-BioNTech, COVID-19 Vaccine, 30 mcg/0.3mL","false","0","2022-08-03","39.608790","-75.714888","covid",,"false","0","3"
"234d922e-0c68-49b4-9fbe-70e43b455b57","Not applicable","(615) 666-2142","MACON CO HD","601 HWY 52 BY PASS EAST",,"LAFAYETTE","TN","37083",,"8:00 AM - 4:30 PM","8:00 AM - 4:30 PM","8:00 AM - 4:30 PM","8:00 AM - 4:30 PM","8:00 AM - 4:30 PM",,"https://covid19.tn.gov/","https://vaccinate.tn.gov","true","true",,"59267-1000-01","Pfizer-BioNTech, COVID-19 Vaccine, 30 mcg/0.3mL","false","0","2022-04-18","36.516257","-86.012832","covid",,"false",,
"4be83f55-acc0-45a3-a575-6dc1f2ca052b","RA104357","989-686-5800","Rite Aid #RA104357","3880 WILDER ROAD",,"BAY CITY","MI","48706-2146","10:00 AM-6:00 PM","09:00 AM-9:00 PM","09:00 AM-9:00 PM","09:00 AM-9:00 PM","09:00 AM-9:00 PM","09:00 AM-9:00 PM","09:00 AM-6:00 PM","https://www.riteaid.com","https://www.riteaid.com/pharmacy/scheduler","true","false","Please consult RiteAid.com for more details and information.","59267-1000-01","Pfizer-BioNTech, COVID-19 Vaccine, 30 mcg/0.3mL","false","0","2022-08-03","43.623181","-83.899888","covid",,"false","0","3"
"3601fefd-b973-412c-979a-b25964b4065b","RA101910","716-873-7813","Rite Aid #RA101910","2047 SHERIDAN DRIVE",,"BUFFALO","NY","14223-1432","09:00 AM-9:00 PM","07:00 AM-11:00 PM","07:00 AM-11:00 PM","07:00 AM-11:00 PM","07:00 AM-11:00 PM","07:00 AM-11:00 PM","09:00 AM-9:00 PM","https://www.riteaid.com","https://www.riteaid.com/pharmacy/scheduler","true","false","Please consult RiteAid.com for more details and information.","59267-1000-01","Pfizer-BioNTech, COVID-19 Vaccine, 30 mcg/0.3mL","false","0","2022-08-03","42.980423","-78.857620","covid",,"false","0","3"
"0d09f2d0-54de-448e-954e-51e1e6a0b775","Not applicable","(800) 432-4121","HDNW - Antrim County Office","209 Portage Drive",,"Bellaire","MI","49615",,,,,,,,"http://www.nwhealth.org",,"true","false","Visit our website to pre-register for a vaccination appointment. If you are unable to register online or need assistance, please call the aging hotline at 231-715-5557 or 211","59267-1000-01","Pfizer-BioNTech, COVID-19 Vaccine, 30 mcg/0.3mL","false","0","2022-08-01","44.976750","-85.206892","covid",,"false",,
"bfeac95e-7db8-4e5f-b22a-03fa500dd930","Not applicable","706-668-5140","UrgenCare Clinic","2169 W Point Rd","Suite 300","Lagrange","GA","30240",,,,,,,,,,,,,"59676-0580-05","Janssen, COVID-19 Vaccine, 0.5 mL","false","0","2022-04-27","33.024249","-85.076825","covid",,"false",,
"adeace29-2060-4b4d-8fc2-1bc395b00cb9","RA101689","716-824-6263","Rite Aid #RA101689","3071-3085 SOUTH PARK AVENUE",,"LACKAWANNA","NY","14218-3107","09:00 AM-5:00 PM","08:00 AM-9:00 PM","08:00 AM-9:00 PM","08:00 AM-9:00 PM","08:00 AM-9:00 PM","08:00 AM-9:00 PM","09:00 AM-6:00 PM","https://www.riteaid.com","https://www.riteaid.com/pharmacy/scheduler","true","false","Please consult RiteAid.com for more details and information.","59267-1000-01","Pfizer-BioNTech, COVID-19 Vaccine, 30 mcg/0.3mL","false","0","2022-08-03","42.816301","-78.824531","covid",,"false","0","3"
"2cf05f9d-68d9-4604-85f3-412c65f46d20","Not applicable","(615) 295-2301","US PHARMACY 001","440 SAINT ANDREWS DR",,"MURFREESBORO","TN","37128",,"9:00 AM - 6:00 PM","9:00 AM - 6:00 PM","9:00 AM - 6:00 PM","9:00 AM - 6:00 PM","9:00 AM - 6:00 PM","9:00 AM - 2:00 PM","https://squareup.com/appointments/book/stfsi9vfl6j97w/LHA57D2Q5DF29/date","https://squareup.com/appointments/book/stfsi9vfl6j97w/LHA57D2Q5DF29/date","true","true","Covid-19 Vaccines are offered at no cost to recipients","59267-1000-01","Pfizer-BioNTech, COVID-19 Vaccine, 30 mcg/0.3mL","false","0","2022-02-16","35.842261","-86.445417","covid",,"false","0","5"
"86595eb9-a0ee-4989-af12-01752bdb7d5d","Not applicable","301-334-7855","Wellspring Family Medicine - Oakland","311 N 4TH ST STE 1",,"Oakland","MD","21550-1371",,,,,,,,,,,,,"80777-0273-10","Moderna, COVID-19 Vaccine, 100mcg/0.5mL 10 dose","false","0","2022-04-04","39.414159","-79.400244","covid",,"false",,
"fbedede3-caf3-4cde-b0e8-c113ccd71c04","20334","9724955595","MinuteClinic #20334","5702 LAVON DR",,"GARLAND","TX","75040",,,,,,,,,,"false","false",,"59267-1000-01","Pfizer-BioNTech, COVID-19 Vaccine, 30 mcg/0.3mL","false","0","2022-06-24","32.967765","-96.607150","covid",,"false","18","0"
"c439be2a-c691-4c55-a2c8-f072dc6400ed","RA104004","610-740-9401","Rite Aid #RA104004","2108 MACARTHUR ROAD",,"WHITEHALL","PA","18052-4520","09:00 AM-5:00 PM","09:00 AM-9:00 PM","09:00 AM-9:00 PM","09:00 AM-9:00 PM","09:00 AM-9:00 PM","09:00 AM-9:00 PM","09:00 AM-6:00 PM","https://www.riteaid.com","https://www.riteaid.com/pharmacy/scheduler","true","false","Please consult RiteAid.com for more details and information.","59267-1000-01","Pfizer-BioNTech, COVID-19 Vaccine, 30 mcg/0.3mL","false","0","2022-08-03","40.635019","-75.488264","covid",,"false","0","3"
"c4597569-bc90-46e1-9e0c-5e2493525f96","581353","(315) 684-3171","DOUGHERTY PHARMACY #581353","14 E MAIN ST",,"MORRISVILLE","NY","13408","Closed","8:00 AM - 6:00 PM","8:00 AM - 6:00 PM","8:00 AM - 6:00 PM","8:00 AM - 6:00 PM","8:00 AM - 6:00 PM","8:00 AM - 4:00 PM","http://www.doughertyrx.com","https://www.doughertyrx.com/covidvaccine/pre-screen","true","false","Monday April 12th at the Faith Baptist church on Cambridge Ave. in Morrisville. Eligibility Requirements: Age 18+ and Resident of New York State. After Registering you will be given a link to book your time slot. Only then will a dose be reserved for you. If you get to the booking site and no time slots are available they have unfortunately all been booked.","59267-1000-01","Pfizer-BioNTech, COVID-19 Vaccine, 30 mcg/0.3mL","false","0","2022-04-22","42.898317","-75.639541","covid",,"false",,
"fd70fe3e-06d4-41ea-8fc1-0866b7be9599","Not applicable","(866) 759-3326","WEDCO District Health Department","300 E Washington St",,"Georgetown","KY","40324","Closed","8:00 AM - 4:30 PM","8:00 AM - 4:30 PM","8:00 AM - 4:30 PM","8:00 AM - 4:30 PM","8:00 AM - 4:30 PM","Closed","https://www.wedcohealth.org/",,"true","true",,"59676-0580-05","Janssen, COVID-19 Vaccine, 0.5 mL","true","4","2022-07-11","38.211178","-84.556492","covid",,"false",,
"9c367a3f-5244-46df-99b4-8564bb254a57","21733","5086733072","MinuteClinic #21733","599 STATE RD",,"WESTPORT","MA","02790",,,,,,,,,,"false","false",,"59267-1000-01","Pfizer-BioNTech, COVID-19 Vaccine, 30 mcg/0.3mL","false","0","2022-06-24","41.660012","-71.083827","covid",,"false","18","0"
"83f77971-d4fe-4a19-a04d-1172f31672d3","20467","4125633444","MinuteClinic #20467","328 COCHRAN RD",,"MOUNT LEBANON","PA","15228",,,,,,,,,,"false","false",,"59267-1000-01","Pfizer-BioNTech, COVID-19 Vaccine, 30 mcg/0.3mL","false","0","2022-06-24","40.382476","-80.051975","covid",,"false","18","0"
"9c7c78ed-8162-43a7-99f1-1046e847fd31","RA105742","714-894-9230","Rite Aid #RA105742","12491 VALLEY VIEW STREET",,"GARDEN GROVE","CA","92845-2032","10:00 AM-6:00 PM","09:00 AM-9:00 PM","09:00 AM-9:00 PM","09:00 AM-9:00 PM","09:00 AM-9:00 PM","09:00 AM-9:00 PM","09:00 AM-6:00 PM","https://www.riteaid.com","https://www.riteaid.com/pharmacy/scheduler","true","false","Please consult RiteAid.com for more details and information.","59676-0580-05","Janssen, COVID-19 Vaccine, 0.5 mL","false","0","2022-04-25","33.780825","-118.032057","covid",,"false","0","3"
"cd14c5d0-422a-4af5-8561-e1e6f7cf25d1","Not applicable","(801) 399-5866","Macey's Pharmacy #13","325 E 36th St",,"Ogden","UT","84405","10:00 AM - 4:00 PM","8:00 AM - 8:00 PM","8:00 AM - 8:00 PM","8:00 AM - 8:00 PM","8:00 AM - 8:00 PM","8:00 AM - 8:00 PM","9:00 AM - 7:00 PM","https://maceys.com/","https://vaccines.maceys.com/",,"false",,"59676-0580-05","Janssen, COVID-19 Vaccine, 0.5 mL","false","0","2021-05-14","41.196406","-111.972929","covid",,"false",,
"b47cebf9-57ef-418b-bdfa-42b9d1e5c2c6","20858","8478851326","MinuteClinic #20858","1801 W GOLF RD",,"SCHAUMBURG","IL","60194",,,,,,,,,,"false","false",,"59267-1000-01","Pfizer-BioNTech, COVID-19 Vaccine, 30 mcg/0.3mL","false","0","2022-06-24","42.046872","-88.124677","covid",,"false","18","0"
"4a818fa6-39b8-4b55-be0d-3e15ee8eb8b6","RA105620","619-463-9848","Rite Aid #RA105620","661 SWEETWATER ROAD",,"SPRING VALLEY","CA","91977-2358","10:00 AM-6:00 PM","07:00 AM-10:00 PM","07:00 AM-10:00 PM","07:00 AM-10:00 PM","07:00 AM-10:00 PM","07:00 AM-10:00 PM","09:00 AM-6:00 PM","https://www.riteaid.com","https://www.riteaid.com/pharmacy/scheduler","true","false","Please consult RiteAid.com for more details and information.","59267-1000-01","Pfizer-BioNTech, COVID-19 Vaccine, 30 mcg/0.3mL","false","0","2022-08-03","32.708138","-117.010719","covid",,"false","0","3"
"8e728863-b80d-49f4-aff7-862a2e8b481e","Not applicable","(435) 635-4477","Lin's Supermarket Pharmacy #2","1120 W State St",,"Hurricane","UT","84737","10:00 AM - 4:00 PM","8:00 AM - 8:00 PM","8:00 AM - 8:00 PM","8:00 AM - 8:00 PM","8:00 AM - 8:00 PM","8:00 AM - 8:00 PM","9:00 AM - 7:00 PM","https://linsgrocery.com/","https://vaccines.linsgrocery.com/",,"false",,"59676-0580-05","Janssen, COVID-19 Vaccine, 0.5 mL","false","0","2021-09-04","37.177421","-113.309136","covid",,"false",,
"70412a1b-33db-464c-a8e9-d58fbc3cbed6","RA110914","412-771-6366","Rite Aid #RA110914","1700 PINE HOLLOW ROAD.",,"MCKEES ROCKS","PA","15136-1578","10:00 AM-6:00 PM","09:00 AM-9:00 PM","09:00 AM-9:00 PM","09:00 AM-9:00 PM","09:00 AM-9:00 PM","09:00 AM-9:00 PM","09:00 AM-6:00 PM","https://www.riteaid.com","https://www.riteaid.com/pharmacy/scheduler","true","false","Please consult RiteAid.com for more details and information.","59267-1000-01","Pfizer-BioNTech, COVID-19 Vaccine, 30 mcg/0.3mL","false","0","2022-08-03","40.475809","-80.096671","covid",,"false","0","3"
"ad4b2e24-3dd9-4c03-a3ec-f058b5635c7d","Not applicable","(586) 698-0336","KASHAT PHARMACY","34644 Dequindre Rd",,"Sterling Heights","MI","48310","Closed","9:00 AM - 5:00 PM","9:00 AM - 5:00 PM","9:00 AM - 5:00 PM","9:00 AM - 5:00 PM","9:00 AM - 5:00 PM","9:00 AM - 1:00 PM",,,"true","false","Please call pharmacy to schedule a vaccination appointment.","59267-1000-01","Pfizer-BioNTech, COVID-19 Vaccine, 30 mcg/0.3mL","false","0","2022-05-31","42.547023","-83.087934","covid",,"false",,
"cf41d936-7cbf-45c1-b636-e989fc20f942","21290","9148333001","MinuteClinic #21290","1310 BOSTON POST RD",,"LARCHMONT","NY","10538",,,,,,,,,,"false","false",,"59267-1000-01","Pfizer-BioNTech, COVID-19 Vaccine, 30 mcg/0.3mL","false","0","2022-06-24","40.937062","-73.747556","covid",,"false","18","0"
"24e677da-ffb5-4adc-a619-d607c076838e","MS1006201","(619) 777-1000","SANTEE COMMUNITY PHARMACY #MS1006201","9836 Magnolia Ave","9836 Magnolia ave","Santee","CA","92071","10:00 AM - 4:00 PM","10:00 AM - 6:30 PM","10:00 AM - 6:30 PM","10:00 AM - 6:30 PM","10:00 AM - 6:30 PM","10:00 AM - 6:30 PM","10:00 AM - 4:00 PM","https://myturn.ca.gov/appointment-select?config=989c2a6b-8fa8-4f01-ae0f-ca52e3376c3e",,"true","true",,"59676-0580-05","Janssen, COVID-19 Vaccine, 0.5 mL","false","0","2022-07-06","32.855998","-116.971353","covid",,"false","0","5"
"861f0704-030d-402a-b16c-ae6f7612869d","23034","5712615061","MinuteClinic #23034","13301 GATEWAY CENTER DR",,"GAINESVILLE","VA","20155",,,,,,,,,,"false","false",,"59267-1025-01","Pfizer-BioNTech, COVID-19 Vaccine, 30 mcg/0.3mL, tris-sucrose","false","0","2022-06-20","38.794265","-77.606891","covid",,"false","6","18"
"8eb691f7-0158-4548-bc66-bb362f58deee","04044 SKY","(503) 813-2000","Kaiser Permanente #04044 SKY","5125 SKYLINE ROAD SO",,"SALEM","OR","97306",,,,,,,,"https://healthy.kaiserpermanente.org/oregon-washington/health-wellness/coronavirus-information/vaccine-appointments","https://healthy.kaiserpermanente.org/oregon-washington/health-wellness/coronavirus-information/covid-vaccine/search-vaccine-availability","false","false","Please visit our Kaiser website for up-to-date information on vaccine availability (https://healthy.kaiserpermanente.org/oregon-washington/health-wellness/coronavirus-information/vaccine-appointments)","59676-0580-05","Janssen, COVID-19 Vaccine, 0.5 mL","false","0","2022-07-14","44.882408","-123.072165","covid",,"false",,
"3ae95b56-3393-4e39-948e-96cb19a8e071","301","301-603-7501","Giant Food #301","13781 CONNECTICUT AVENUE",,"SILVER SPRING","MD","20906","10:00AM-5:00PM","9:00AM-9:00PM","9:00AM-9:00PM","9:00AM-9:00PM","9:00AM-9:00PM","9:00AM-9:00PM","9:00AM-6:00PM","https://giantfoodsched.rxtouch.com/rbssched/program/wellness","https://giantfoodsched.rxtouch.com/rbssched/program/wellness","true","true",,"59267-1000-01","Pfizer-BioNTech, COVID-19 Vaccine, 30 mcg/0.3mL","false","0","2022-05-04","39.079651","-77.078841","covid",,"false","0","3"
"cc5f20b6-854e-44a8-acb0-1401dcdfd233","Not applicable","(307) 632-0728","Babson and Associates, P.C.","1331 Prairie Ave, Ste 1",,"Cheyenne","WY","82009","Closed","7:00 AM - 8:00 PM","7:00 AM - 8:00 PM","7:00 AM - 8:00 PM","7:00 AM - 8:00 PM","7:00 AM - 8:00 PM","7:00 AM - 8:00 PM","https://www.babsonwy.com/",,"true","false","Vaccines are scheduled Monday - Friday 7AM - 4PM","59676-0580-05","Janssen, COVID-19 Vaccine, 0.5 mL","false","0","2022-08-08","41.163734","-104.808391","covid",,"false",,
"7a939d53-996f-4400-9cf3-72d64256ff9a","Not applicable","(510) 961-1288","Clover Pharmacy","6170 Thornton Ave Suite E",,"Newark","CA","94560","Closed","10:00 AM - 5:00 PM","10:00 AM - 5:00 PM","10:00 AM - 5:00 PM","10:00 AM - 5:00 PM","10:00 AM - 5:00 PM","Closed","https://myturn.ca.gov/","https://myturn.ca.gov/","true","true","We also offer Rapid PCR test for travel","59267-1025-01","Pfizer-BioNTech, COVID-19 Vaccine, 30 mcg/0.3mL, tris-sucrose","true","4","2022-08-11","37.535927","-122.031079","covid",,"false","0","3"
"ba2e71d8-ff6f-4a18-a8bd-32b2af62d3a6","Not applicable","(800) 842-8554","United Health Center-Corcoran","1000 Chittenden Ave",,"Corcoran","CA","93212",,"11:00 AM - 8:00 PM","8:30 AM - 5:30 PM","8:30 AM - 5:30 PM","8:30 AM - 5:30 PM","8:30 AM - 5:30 PM",,"https://www.unitedhealthcenters.org/appointment-request",,"true","true",,"59267-1000-01","Pfizer-BioNTech, COVID-19 Vaccine, 30 mcg/0.3mL","false","0","2022-01-10","36.099242","-119.560022","covid",,"false",,
"68506368-3129-4eb8-8b9a-2a04add32f23","36407","937-439-8622","The Little Clinic #36407","1095 S Main Street",,"Centerville","OH","45458-3840",,,,,,,,"Thelittleclinic.com",,"true","false",,"59267-1025-01","Pfizer-BioNTech, COVID-19 Vaccine, 30 mcg/0.3mL, tris-sucrose","true","0","2022-04-21","39.606981","-84.162968","covid",,"false",,
"3aa7aa1e-0817-49bd-ba11-c66cde602712","MS1002697","(704) 342-8180","NALLE PHARMACY #MS1002697","1918 RANDOLPH ROAD SUITE 120",,"CHARLOTTE","NC","28207",,"Closed","Closed","10:00 AM - 3:00 PM","10:00 AM - 3:00 PM","10:00 AM - 3:00 PM",,"http://nallepharmacync.com",,"true","true","inside of midtown medical plaza, level 1","59676-0580-05","Janssen, COVID-19 Vaccine, 0.5 mL","false","0","2022-04-28","35.209529","-80.824890","covid",,"false",,
"cd3a0815-e2d1-46de-b979-810b0f718aa4","RA110574","718-745-2830","Rite Aid #RA110574","7118 3RD AVENUE",,"BROOKLYN","NY","11209-1309","09:00 AM-5:00 PM","09:00 AM-9:00 PM","09:00 AM-9:00 PM","09:00 AM-9:00 PM","09:00 AM-9:00 PM","09:00 AM-9:00 PM","09:00 AM-6:00 PM","https://www.riteaid.com","https://www.riteaid.com/pharmacy/scheduler","true","false","Please consult RiteAid.com for more details and information.","59267-1000-01","Pfizer-BioNTech, COVID-19 Vaccine, 30 mcg/0.3mL","false","0","2022-08-03","40.633884","-74.026967","covid",,"false","0","3"
"d24bb59e-e68c-4ff8-929f-b045e3e189b7","20200","8162546002","MinuteClinic #20200","3825 S NOLAND RD",,"INDEPENDENCE","MO","64055",,,,,,,,,,"false","false",,"59267-1000-01","Pfizer-BioNTech, COVID-19 Vaccine, 30 mcg/0.3mL","false","0","2022-06-24","39.050659","-94.414433","covid",,"false","18","0"
"6822b371-05b5-47ec-817d-9b097a60429c","Not applicable","312-666-3494 ext 5","ERIE WEST TOWN","1701 W SUPERIOR ST # 3",,"CHICAGO","IL","60622-5646",,"8:30 AM - 5:00 PM","8:30 AM - 5:00 PM","10:00 AM - 5:30 PM","8:30 AM - 5:00 PM","8:30 AM - 5:00 PM",,"https://www.eriefamilyhealth.org/vaccine/",,"true",,"Walk-Ins Tuesday-Friday 10a-12p","80777-0273-10","Moderna, COVID-19 Vaccine, 100mcg/0.5mL 10 dose","false","0","2022-04-27","41.894775","-87.670064","covid",,"false",,
"e2071659-41c1-406d-ad6d-283dbfcc1c83","Not applicable","(360) 417-2274","CLALLAM COUNTY HHS/PORT ANGELE","111 E 3rd St",,"Port Angeles","WA","98362",,,,"8:30 AM - 3:30 PM",,,,"http://www.clallam.net/coronavirus/index.html",,"false","false","Please visit our website for a list of walk in pop up clinics available throughout the county in June. Scheduled vaccines also available in Forks on Thursdays.","59267-1000-01","Pfizer-BioNTech, COVID-19 Vaccine, 30 mcg/0.3mL","false","0","2022-03-22","48.117277","-123.434121","covid",,"false",,
"994a0c1a-3a24-4c55-888f-81d5e7c815e4","Not applicable","(800) 813-2000","Kaiser Permanente - Longview-Kelso","1230 7TH AVE",,"LONGVIEW","WA","98632","Closed","9:00 AM - 4:30 PM","9:00 AM - 4:30 PM","9:00 AM - 4:30 PM","9:00 AM - 4:30 PM","9:00 AM - 4:30 PM","Closed","https://healthy.kaiserpermanente.org/oregon-washington/health-wellness/coronavirus-information/covid-vaccine/search-vaccine-availability",,,"false",,"59267-1025-01","Pfizer-BioNTech, COVID-19 Vaccine, 30 mcg/0.3mL, tris-sucrose","false","0","2022-06-22","46.133938","-122.925457","covid",,"false",,
"57183733-6977-4a5d-863b-406044c0b642","566903","(559) 395-4127","CLEVELAND PHARMACY INC #566903","2311 W CLEVELAND AVE STE 105",,"MADERA","CA","93637","Closed","9:00 AM - 5:30 PM","9:00 AM - 5:30 PM","9:00 AM - 5:30 PM","9:00 AM - 5:30 PM","9:00 AM - 5:30 PM","Closed","https://cleveland-pharmacy.com",,"true","true",,"59267-1025-01","Pfizer-BioNTech, COVID-19 Vaccine, 30 mcg/0.3mL, tris-sucrose","true","-1","2022-06-24","36.975143","-120.085254","covid",,"false",,
"f0fc7a03-8ad4-490b-8a59-bd1e63465d36","Not applicable","580-470-8464","PAVILION CLINIC","2115 DUNCAN REGIONAL LOOP, SUITE 100",,"DUNCAN","OK","73533",,"8:00 AM - 5:00 PM","8:00 AM - 5:00 PM","8:00 AM - 5:00 PM","8:00 AM - 5:00 PM","8:00 AM - 12:00 PM","Closed","https://www.duncanregional.com/locations/pavilion-clinic/",,"true","false",,"59676-0580-05","Janssen, COVID-19 Vaccine, 0.5 mL","false","0","2022-06-29","34.519947","-97.975605","covid",,"false",,
"a44c8b70-04dc-4f11-86f8-31fc5cd2e855","Not applicable","(856) 848-8060","DEPTFORD MEDICAL CENTER","1132 COOPER ST",,"WOODBURY","NJ","08096-3014","Closed","9:00 AM - 5:00 PM","9:00 AM - 5:00 PM","9:00 AM - 5:00 PM","9:00 AM - 5:00 PM","9:00 AM - 5:00 PM","Closed","https://www.facebook.com/DMC.NJ08096/",,"true","false",,"59267-1000-01","Pfizer-BioNTech, COVID-19 Vaccine, 30 mcg/0.3mL","false","0","2022-03-14","39.827229","-75.120103","covid",,"false",,
"dc2580bb-7dd6-4963-ae77-0eb236ac7cef","Not applicable","572-221-2792","GRAND PHARMACY CV0525","733 Grand Ave",,"Hannibal","MO","63401",,,,,,,,,,,,,"80777-0273-10","Moderna, COVID-19 Vaccine, 100mcg/0.5mL 10 dose","false","0","2021-05-21","39.712135","-91.373684","covid",,"false",,
"564dcff3-a19d-4ffa-a41f-15e0efcc0057","RA105519","000-000-0000","Rite Aid #RA105519","5670 EAST 2ND STREET",,"LONG BEACH","CA","90803-3904",":   AM-  :   AM",":   AM-  :   AM",":   AM-  :   tueAM",":   AM-  :   AM",":   AM-  :   AM",":   AM-  :   AM",":   AM-  :   AM","https://www.riteaid.com","https://www.riteaid.com/pharmacy/scheduler","true","false","Please consult RiteAid.com for more details and information.","59676-0580-05","Janssen, COVID-19 Vaccine, 0.5 mL","false","0","2022-07-14","33.756668","-118.123377","covid",,"false","0","3"
"fcbf1307-5bda-42bc-b11b-6acaea197f4e","Not applicable","(229) 241-0059","SOUTHERN PEDIATRIC CLINIC, LLC - #2","406 M Northside Drive",,"Valdosta","GA","31602","Closed","8:00 AM - 5:00 PM","8:00 AM - 5:00 PM","8:00 AM - 5:00 PM","8:30 AM - 5:00 PM","8:00 AM - 12:00 PM","Closed","http://southernpediatricclinic.com",,"true","false",,"59267-1000-01","Pfizer-BioNTech, COVID-19 Vaccine, 30 mcg/0.3mL","false","0","2022-06-24","30.871694","-83.282960","covid",,"false","0","5"
"2c3bd4c5-49e8-42a8-ac90-423aeff55af1","Not applicable","(517) 456-4150","Schmidt & Sons Pharmacy of Clinton Inc.","140 W. Michigan Ave",,"Clinton","MI","49236","Closed","9:00 AM - 6:00 PM","9:00 AM - 6:00 PM","9:00 AM - 6:00 PM","9:00 AM - 6:00 PM","9:00 AM - 6:00 PM","9:00 AM - 1:00 PM","http://www.schmidtandsonspharmacy.com",,"true","true",,"59267-1000-01","Pfizer-BioNTech, COVID-19 Vaccine, 30 mcg/0.3mL","true","3","2022-05-11","42.072229","-83.972669","covid",,"false",,
"baf04f82-0764-4f1c-b797-f29809f1be6c","Not applicable","(603) 388-4259","Upper Connecticut Valley Hospital","181 Corliss Lane",,"Colebrook","NH","03576","Closed","Closed","3:00 PM - 6:00 PM","Closed","Closed","Closed","Closed","https://www.ucvh.org/",,,"false","Call 1-603-388-4259","80777-0273-10","Moderna, COVID-19 Vaccine, 100mcg/0.5mL 10 dose","true","-1","2022-08-17","44.904467","-71.481174","covid",,"false",,
"84927687-9118-458d-b070-78b8d14741f3","Not applicable","540-775-5709","New Heights Pediatrics","8117 Kings Hwy",,"KING GEORGE","VA","22485",,,,,,,,,,,,,"59267-1055-01","Pfizer-BioNTech, COVID-19 Vaccine, 10 mcg/0.2 mL, tris-sucrose","false","0","2022-06-09","38.277329","-77.206855","covid",,"false",,
"c810cae1-f268-4c48-8e17-d9e519e4216a","RA107877","734-878-2047","Rite Aid #RA107877","75 S DEXTER STREET",,"PINCKNEY","MI","48169-9071","10:00 AM-6:00 PM","09:00 AM-9:00 PM","09:00 AM-9:00 PM","09:00 AM-9:00 PM","09:00 AM-9:00 PM","09:00 AM-9:00 PM","09:00 AM-6:00 PM","https://www.riteaid.com","https://www.riteaid.com/pharmacy/scheduler","true","false","Please consult RiteAid.com for more details and information.","59267-1000-01","Pfizer-BioNTech, COVID-19 Vaccine, 30 mcg/0.3mL","false","0","2022-08-03","42.456566","-83.935969","covid",,"false","0","3"
"1de6245a-5049-44ab-97f8-7d6de9d3ed2f","RA110934","412-273-3487","Rite Aid #RA110934","2336 ARDMORE BOULEVARD",,"PITTSBURGH","PA","15221-5202","09:00 AM-5:00 PM","08:00 AM-9:00 PM","08:00 AM-9:00 PM","08:00 AM-9:00 PM","08:00 AM-9:00 PM","08:00 AM-9:00 PM","08:00 AM-6:00 PM","https://www.riteaid.com","https://www.riteaid.com/pharmacy/scheduler","true","false","Please consult RiteAid.com for more details and information.","59267-1000-01","Pfizer-BioNTech, COVID-19 Vaccine, 30 mcg/0.3mL","false","0","2022-08-03","40.415232","-79.849019","covid",,"false","0","3"
"cd7db792-abc0-40db-b107-d36ad024abc2","Not applicable","(870) 895-3811","Palace Drug of Salem","106 Hwy 62 W",,"Salem","AR","72576",,"8:30 AM - 5:00 PM","8:30 AM - 5:00 PM","8:30 AM - 5:00 PM","8:30 AM - 5:00 PM","8:30 AM - 5:00 PM",,"https://www.palacedrug.com",,"true","false",,"59267-1000-01","Pfizer-BioNTech, COVID-19 Vaccine, 30 mcg/0.3mL","false","0","2022-05-26","36.367407","-91.823177","covid",,"false",,
"1828d23f-d951-4ffe-8467-4dc3e8d17dab","Not applicable","989-921-5377","GLBHC - Imlay City","6800 Newark Road",,"Imlay City","MI","48444",,,,,,,,,,,,,"59267-1000-01","Pfizer-BioNTech, COVID-19 Vaccine, 30 mcg/0.3mL","false","0","2021-02-10","43.006273","-83.074516","covid",,"false",,
"858af83c-5bf9-4518-ba4b-aa90bc9a2944","4354344","(605) 292-1013","LEWIS FAMILY DRUG LLC #71 #4354344","1507 N MAIN ST",,"MITCHELL","SD","57301","Closed","8:00 AM - 6:00 PM","8:00 AM - 6:00 PM","8:00 AM - 6:00 PM","8:00 AM - 6:00 PM","8:00 AM - 6:00 PM","8:00 AM - 2:00 PM","https://www.lewisdrug.com/stores/lewis-family-drug-main-st-mitchell","https://lewisdrugc19.as.me/schedule.php?calendarID=4949855","true","true","Walkins welcome!","59267-1055-01","Pfizer-BioNTech, COVID-19 Vaccine, 10 mcg/0.2 mL, tris-sucrose","false","0","2022-08-03","43.724241","-98.026362","covid",,"false",,
"b6b96188-37d3-4a43-9363-c564c1d2f83b","Not applicable","678-473-4738","COOPER PEDIATRICS","3645 Howell Ferry Rd",,"Duluth","GA","30096",,,,,,,,,,,,,"59676-0580-05","Janssen, COVID-19 Vaccine, 0.5 mL","false","0","2022-06-29","34.000750","-84.166223","covid",,"false",,
"2162e8a5-c856-4f23-8d03-59ec1412abb5","Not applicable","(678) 272-6249","Optimum Pediatric  Services","4835 HWY 81 E",,"McDonough","GA","30252",,"10:00 AM - 6:00 PM",,"10:00 AM - 6:00 PM",,,,"https://www.optimumhealthsvcs.com","https://www.optimumhealthsvcs.com/vaccine-distribution-consent-form","true","false","We partner with various communities and organizations to provide mobile vaccine sites. Call (678) 272 -6249 to schedule an appointment  to arrange for mass vaccinations in your area.    *****Mobile mass vaccinations are available Monday - Friday & Weekends.","59676-0580-05","Janssen, COVID-19 Vaccine, 0.5 mL","false","0","2022-06-30","33.443124","-83.994906","covid",,"false",,
"8962003b-92d6-4438-8872-2d142a005881","RA102252","215-535-6854","Rite Aid #RA102252","5272 TORRESDALE AVENUE",,"PHILADELPHIA","PA","19124-2041","10:00 AM-6:00 PM","09:00 AM-9:00 PM","09:00 AM-9:00 PM","09:00 AM-9:00 PM","09:00 AM-9:00 PM","09:00 AM-9:00 PM","09:00 AM-5:00 PM","https://www.riteaid.com","https://www.riteaid.com/pharmacy/scheduler","true","false","Please consult RiteAid.com for more details and information.","59267-1000-01","Pfizer-BioNTech, COVID-19 Vaccine, 30 mcg/0.3mL","false","0","2022-08-03","40.014047","-75.067640","covid",,"false","0","3"
"74c05c55-f029-4515-bc82-36365e6a3217","Not applicable","423-869-3700","HARROGATE FAMILY HEALTH CARE","169 WESTMORELAND ST",,"HARROGATE","TN","37752",,,,,,,,,,,,"Please call to schedule an appointment ONLY if you are eligible to receive vaccine at this time.","59267-1000-01","Pfizer-BioNTech, COVID-19 Vaccine, 30 mcg/0.3mL","false","0","2022-04-22","36.581060","-83.653753","covid",,"false",,
"0a4ccfd6-3b6c-4d08-87f1-0cc0a64374ea","Not applicable","201-222-6968","HEALTH FAIR PHARMACY","315 WILLOW AVE",,"HOBOKEN","NJ","07030-3807","Closed","9:00 AM - 6:00 PM","9:00 AM - 6:00 PM","9:00 AM - 6:00 PM","9:00 AM - 6:00 PM","9:00 AM - 6:00 PM","Closed",,,"true","true",,"59267-1025-01","Pfizer-BioNTech, COVID-19 Vaccine, 30 mcg/0.3mL, tris-sucrose","false","0","2022-08-01","40.741142","-74.033397","covid",,"false","0","8"
"8c5fa0f8-09ca-4898-b1a7-ef8f8c26c220","3107807","(973) 546-6700","Damiano Pharmacy #3107807","270 Parker Avenue",,"Clifton","NJ","07011","10:00 AM - 3:00 PM","9:30 AM - 7:00 PM","9:30 AM - 7:00 PM","9:30 AM - 7:00 PM","9:30 AM - 7:00 PM","9:30 AM - 7:00 PM","9:00 AM - 4:30 PM","https://www.mygnp.com/pharmacies/damiano-pharmacy-clifton-nj-07011/",,"true","true","All plans accepted including if you have no insurance. Spanish, Polish, Ukranian and Russian spoken by staff.  Vaccinations done on a daily basis please call the pharmacy for vaccination hours or with any questions. Thank you.","80777-0279-05","Moderna, COVID-19 pediatric vaccine, 25mcg/.25 ml","false","0","2022-07-25","40.876828","-74.123926","covid",,"true","0","5"
"e2d60bd9-5d1a-4a37-b2ce-183c294e3203","Not applicable","7137730803","Eastside Clinic & Wellness Center Pllc","2400 Wheless Ln",,"Austin","TX","78723",,,,,,,,,,,,,"80777-0273-10","Moderna, COVID-19 Vaccine, 100mcg/0.5mL 10 dose","false","0","2022-04-17","30.310685","-97.683427","covid",,"false",,
"48a55583-06b4-4838-98f2-6505ded1b762","Not applicable","731-855-0500","DUNCAN'S EXPRESS PHARMACY","2017 S COLLEGE ST","SUITE B","TRENTON","TN","38382",,,,,,,,,,,,"Please call to schedule an appointment ONLY if you are eligible to receive vaccine at this time.","59267-1000-01","Pfizer-BioNTech, COVID-19 Vaccine, 30 mcg/0.3mL","false","0","2022-04-19","35.941148","-88.940676","covid",,"false",,
"4b9acddd-2f77-4876-8cb0-68c033297e7f","RA105554","818-891-1941","Rite Aid #RA105554","10349 SEPULVEDA BOULEVARD",,"MISSION HILLS","CA","91345-2421","10:00 AM-6:00 PM","09:00 AM-9:00 PM","09:00 AM-9:00 PM","09:00 AM-9:00 PM","09:00 AM-9:00 PM","09:00 AM-9:00 PM","09:00 AM-6:00 PM","https://www.riteaid.com","https://www.riteaid.com/pharmacy/scheduler","true","true","Please consult RiteAid.com for more details and information.","80777-0273-10","Moderna, COVID-19 Vaccine, 100mcg/0.5mL 10 dose","true","-1","2022-04-25","34.258826","-118.468056","covid",,"false","0","3"
"0bb98170-9404-4f7d-a076-f396d1781ea7","110714","229-377-2777","CENTER DRUGS #110714","133 SECOND AVE SE",,"CAIRO","GA","39828",,,,,,,,,,,,,"59267-1000-01","Pfizer-BioNTech, COVID-19 Vaccine, 30 mcg/0.3mL","true","4","2022-08-17","30.875915","-84.206882","covid",,"false",,
"f60d51d4-5989-4ddd-8a42-9909b45346e7","Not applicable","765-298-1660","COMMUNITY HOSPITAL ANDERSON","1515 N. MADISON AVE.",,"ANDERSON","IN","46011-0000",,,,,,,,"https://vaccine.coronavirus.in.gov/","https://vaccine.coronavirus.in.gov/",,,"Vaccine supply is limited at this time and available by appointment only.","59267-1000-01","Pfizer-BioNTech, COVID-19 Vaccine, 30 mcg/0.3mL","true","-1","2022-05-13","40.130513","-85.693340","covid",,"false",,
"92ed6eba-a5d6-4a7a-bb51-71c09c8479b2","6325","814-371-7226","Giant #6325","22 HOOVER AVENUE SUITE 130",,"DUBOIS","PA","15801","10:00AM-5:00PM","9:00AM-8:00PM","9:00AM-8:00PM","9:00AM-8:00PM","9:00AM-8:00PM","9:00AM-8:00PM","9:00AM-5:00PM","https://martinssched.rxtouch.com/rbssched/program/wellness","https://martinssched.rxtouch.com/rbssched/program/wellness","true","true",,"59267-1000-01","Pfizer-BioNTech, COVID-19 Vaccine, 30 mcg/0.3mL","false","0","2022-05-04","41.119088","-78.755945","covid",,"false","0","3"
"ea39035c-a8d3-4786-859b-161788114f12","353","410-821-6611","Giant Food #353","8100 LOCH RAVEN BOULEVARD",,"BALTIMORE","MD","21286","10:00AM-5:00PM","8:00AM-10:00PM","8:00AM-10:00PM","8:00AM-10:00PM","8:00AM-10:00PM","8:00AM-10:00PM","9:00AM-7:00PM","https://giantfoodsched.rxtouch.com/rbssched/program/wellness","https://giantfoodsched.rxtouch.com/rbssched/program/wellness","true","true",,"59267-1000-01","Pfizer-BioNTech, COVID-19 Vaccine, 30 mcg/0.3mL","false","0","2022-05-04","39.387121","-76.576908","covid",,"false","0","3"
"4d249b2c-c0be-462e-945c-847db0ffbab2","Not applicable","(706) 204-8590","FIRST CARE PHARMACY,LLC","209 TURNER MCCALL BLVD NW",,"ROME","GA","30165","Closed","9:00 AM - 6:30 PM","9:00 AM - 6:30 PM","9:00 AM - 6:30 PM","9:00 AM - 6:30 PM","9:00 AM - 6:30 PM","Closed",,,"true","true",,"59267-1000-01","Pfizer-BioNTech, COVID-19 Vaccine, 30 mcg/0.3mL","false","0","2022-01-30","34.260991","-85.181908","covid",,"false",,
"dbcd6137-c2d4-4fa4-90c7-e3f7d7e6ddf6","Not applicable","833-427-5634","Cleveland Prime Care Belmont LLC","135 East Main Street","Suite D","St Clairsville","OH","43950",,,,,,,,"http://gettheshot.coronavirus.ohio.gov","http://gettheshot.coronavirus.ohio.gov",,,,"80777-0273-10","Moderna, COVID-19 Vaccine, 100mcg/0.5mL 10 dose","false","0","2022-05-05","39.956350","-82.995673","covid",,"false",,
"846afab7-b785-40d4-aeb8-53f61763943a","RA110835","716-827-8333","Rite Aid #RA110835","798 HARLEM ROAD",,"WEST SENECA","NY","14224-1008","09:00 AM-5:00 PM","08:00 AM-9:00 PM","08:00 AM-9:00 PM","08:00 AM-9:00 PM","08:00 AM-9:00 PM","08:00 AM-9:00 PM","09:00 AM-6:00 PM","https://www.riteaid.com","https://www.riteaid.com/pharmacy/scheduler","true","false","Please consult RiteAid.com for more details and information.","59267-1000-01","Pfizer-BioNTech, COVID-19 Vaccine, 30 mcg/0.3mL","false","0","2022-08-03","42.865193","-78.787907","covid",,"false","0","3"
"76cc6755-b1db-4ef9-ab2d-4ab367e223c1","RA104232","517-337-1681","Rite Aid #RA104232","3106 EAST SAGINAW STREET",,"LANSING","MI","48912-4712","10:00 AM-6:00 PM","09:00 AM-9:00 PM","09:00 AM-9:00 PM","09:00 AM-9:00 PM","09:00 AM-9:00 PM","09:00 AM-9:00 PM","09:00 AM-6:00 PM","https://www.riteaid.com","https://www.riteaid.com/pharmacy/scheduler","true","false","Please consult RiteAid.com for more details and information.","59267-1000-01","Pfizer-BioNTech, COVID-19 Vaccine, 30 mcg/0.3mL","false","0","2022-08-03","42.740338","-84.507815","covid",,"false","0","3"
"bc456e46-54cb-4529-b307-4d86aa89ddd6","Not applicable","7609417050","vista family health center","969 S Santa Fe Ave Ste A",,"Vista","CA","92083",,,,,,,,,,,,,"59267-1025-01","Pfizer-BioNTech, COVID-19 Vaccine, 30 mcg/0.3mL, tris-sucrose","false","0","2022-08-01","33.192500","-117.231941","covid",,"false",,
"29089655-c35f-4063-92e8-54bf24e01fb4","RA104426","586-774-1070","Rite Aid #RA104426","25996 GRATIOT AVENUE",,"ROSEVILLE","MI","48066-4436","10:00 AM-6:00 PM","08:00 AM-10:00 PM","08:00 AM-10:00 PM","08:00 AM-10:00 PM","08:00 AM-10:00 PM","08:00 AM-10:00 PM","09:00 AM-6:00 PM","https://www.riteaid.com","https://www.riteaid.com/pharmacy/scheduler","true","false","Please consult RiteAid.com for more details and information.","59676-0580-05","Janssen, COVID-19 Vaccine, 0.5 mL","false","0","2022-06-25","42.486577","-82.942720","covid",,"false","0","3"
"ecd1587a-a896-4513-af2f-dbee3627bc52","233","703-280-3350","Giant Food #233","7235 ARLINGTON BLVD",,"FALLS CHURCH","VA","22042","10:00AM-5:00PM","9:00AM-9:00PM","9:00AM-9:00PM","9:00AM-9:00PM","9:00AM-9:00PM","9:00AM-9:00PM","9:00AM-6:00PM","https://giantfoodsched.rxtouch.com/rbssched/program/wellness","https://giantfoodsched.rxtouch.com/rbssched/program/wellness","true","true",,"59267-1000-01","Pfizer-BioNTech, COVID-19 Vaccine, 30 mcg/0.3mL","false","0","2022-05-04","38.864554","-77.195782","covid",,"false","0","3"
"912d2d79-c68a-4d35-88a0-d573448a742a","Not applicable","318-377-8260","Minden Family Care Center","208 Morris Drive",,"Minden","LA","71055",,"8:00 AM - 5:00 PM","8:00 AM - 5:00 PM","8:00 AM - 5:00 PM","8:00 AM - 5:00 PM","8:00 AM - 5:00 PM",,"https://www.mindenfamilycarecenter.com/",,,,,"59267-1055-01","Pfizer-BioNTech, COVID-19 Vaccine, 10 mcg/0.2 mL, tris-sucrose","true","-1","2022-06-11","32.622087","-93.260838","covid",,"false",,
"3d0cf0e1-30e2-4002-8ff8-fddaeaa8f1e8","MS1002868","(562) 358-4009","MULBERRY PHARMACY #MS1002868","15025 MULBERRY DR",,"WHITTIER","CA","90604",,"10:00 AM - 4:00 PM","10:00 AM - 4:00 PM","10:00 AM - 4:00 PM","10:00 AM - 4:00 PM","10:00 AM - 4:00 PM",,"http://www.mulberrypharm.com",,"true","true","Appointments preferred, walk ins available depending on vaccine availability","59676-0580-05","Janssen, COVID-19 Vaccine, 0.5 mL","false","0","2021-11-02","33.936144","-118.010826","covid",,"false",,
"e6b01b2f-a801-4edd-a976-798ddf6b214e","11238","(315) 471-4139","CVS Pharmacy, Inc. #11238","300 GIFFORD ST.",,"SYRACUSE","NY","13204",,"08:30AM-07:00PM","08:30AM-07:00PM","08:30AM-07:00PM","08:30AM-07:00PM","08:30AM-07:00PM",,"https://www.cvs.com/store-locator/details-directions/011238","https://www.cvs.com/immunizations/covid-19-vaccine","true","true","It is highly recommended to make an appointment for pediatric (5-11 years old) COVID-19 vaccinations.","80631-0100-01","Novavax, COVID-19 Vaccine, 5 mcg/0.5 mL","false","0","2022-06-28","43.043808","-76.158585","covid",,"false","0","3"
"fdd2f76a-c125-411c-a26c-722987581f01","Not applicable","3107171814","Vitality Health Plus","8711 Venice blvd",,"Los Angeles","CA","90034",,,,,,,,,,,,,"59267-1000-01","Pfizer-BioNTech, COVID-19 Vaccine, 30 mcg/0.3mL","false","0","2022-07-27","34.032699","-118.382877","covid",,"false",,
"d9532fb6-567e-4164-80fa-09207fe298f0","263419","(573) 775-2900","STEELVILLE DRUG #263419","503 W MAIN",,"STEELVILLE","MO","65565","Closed","8:30 AM - 6:00 PM","8:30 AM - 6:00 PM","8:30 AM - 6:00 PM","8:30 AM - 6:00 PM","8:30 AM - 6:00 PM","8:30 AM - 1:00 PM","https://sinkspharmacy.com","https://hipaa.jotform.com/210145548288156","true","false","We have Moderna, Pfizer and Janseen COVID vaccines available. Please call the pharmacy for more information on which days vaccines are offered and to schedule an appointment.","59267-1000-01","Pfizer-BioNTech, COVID-19 Vaccine, 30 mcg/0.3mL","false","0","2022-01-31","37.967021","-91.360676","covid",,"false",,
"e4c6a9bb-2c81-4a42-9de4-d45fc0f95185","RA105571","818-841-5336","Rite Aid #RA105571","935 NORTH HOLLYWOOD WAY",,"BURBANK","CA","91505-2816","10:00 AM-6:00 PM","09:00 AM-9:00 PM","09:00 AM-9:00 PM","09:00 AM-9:00 PM","09:00 AM-9:00 PM","09:00 AM-9:00 PM","09:00 AM-6:00 PM","https://www.riteaid.com","https://www.riteaid.com/pharmacy/scheduler","true","false","Please consult RiteAid.com for more details and information.","59267-1000-01","Pfizer-BioNTech, COVID-19 Vaccine, 30 mcg/0.3mL","false","0","2022-08-03","34.167355","-118.347524","covid",,"false","0","3"
"b6d65518-bbe3-492b-a68d-2ca47996a94d","170158","(785) 738-2285","S&S DRUG CO #170158","110 S MILL ST",,"BELOIT","KS","67420","1:00 PM - 3:00 PM","8:00 AM - 6:00 PM","8:00 AM - 6:00 PM","8:00 AM - 6:00 PM","8:00 AM - 6:00 PM","8:00 AM - 6:00 PM","9:00 AM - 1:00 PM","http://sandsdrug.com",,"true","true",,"59267-1000-01","Pfizer-BioNTech, COVID-19 Vaccine, 30 mcg/0.3mL","false","0","2022-08-18","39.458629","-98.110711","covid",,"false",,
"44d106a8-1e6c-40e4-9937-7dc937e74a5b","Not applicable","3237320100","Benevolence Health Center - Crenshaw Blvd","3631 CRENSHAW BLVD;SUITE 109",,"LOS ANGELES","CA","90016",,,,,,,,,,,,,"80777-0273-10","Moderna, COVID-19 Vaccine, 100mcg/0.5mL 10 dose","false","0","2022-07-08","34.023299","-118.335602","covid",,"false",,
"52fe61b8-89c3-4422-bd14-a5cb821db59b","Not applicable","985-401-9711","Strawberry Patch Pediatrics & Family Clinic","1054 Southwest Railroad Avenue",,"Ponchatoula","LA","70454",,"8:00 AM - 4:00 PM","8:00 AM - 4:00 PM","8:00 AM - 4:00 PM","8:00 AM - 4:00 PM","8:00 AM - 4:00 PM",,,,,,,"59267-1025-01","Pfizer-BioNTech, COVID-19 Vaccine, 30 mcg/0.3mL, tris-sucrose","true","-1","2022-07-12","30.427238","-90.438507","covid",,"false",,
"f828bb71-17f2-4a0b-86ea-07fcb1d571a6","Not applicable","(801) 587-0712","U of U South Jordan","5126 W Daybreak Pkwy",,"South Jordan","UT","84009",,"Closed","Closed","Closed","12:30 PM - 7:00 PM","8:00 AM - 4:30 PM",,,,,"false","By appointment only","59676-0580-05","Janssen, COVID-19 Vaccine, 0.5 mL","false","0","2022-03-09","40.541919","-112.013243","covid",,"false",,
"879af2bb-a263-45c6-b3d6-9ec1e825e294","Not applicable","(973) 266-5480","EAST ORANGE HEALTH DEPT ADULT CLINIC","300 ELMWOOD AVE",,"EAST ORANGE","NJ","07018-1802",,"10:00 AM - 1:00 PM","10:00 AM - 1:00 PM","10:00 AM - 1:00 PM","4:30 PM - 7:00 PM","10:00 AM - 1:00 PM","11:30 AM - 1:00 PM",,,"false","true",,"59267-1025-01","Pfizer-BioNTech, COVID-19 Vaccine, 30 mcg/0.3mL, tris-sucrose","true","3","2022-06-22","40.756074","-74.226393","covid",,"false",,
"dbaa5354-730e-424e-9395-c0a5af54d9af","MS1000593","781-449-0550","BIRDS HILL PHARMACY #MS1000593","401 GREAT PLAIN AVE",,"NEEDHAM","MA","02492-3735",,,,,,,,,,,,,"59676-0580-05","Janssen, COVID-19 Vaccine, 0.5 mL","true","4","2022-04-28","42.276182","-71.215191","covid",,"false",,
"e0b57330-fe45-472c-8ae3-78f0d7bf5347","RA105309","509-928-9121","Rite Aid #RA105309","1443 NORTH ARGONNE ROAD",,"SPOKANE VALLEY","WA","99212-2555","10:00 AM-6:00 PM","09:00 AM-9:00 PM","09:00 AM-9:00 PM","09:00 AM-9:00 PM","09:00 AM-9:00 PM","09:00 AM-9:00 PM","09:00 AM-6:00 PM","https://www.riteaid.com","https://www.riteaid.com/pharmacy/scheduler","true","false","Please consult RiteAid.com for more details and information.","59676-0580-05","Janssen, COVID-19 Vaccine, 0.5 mL","false","0","2022-04-30","47.671007","-117.284867","covid",,"false","0","3"
"fbc4e8f8-639d-4a10-abb0-41ffe0cd0f22","Not applicable","(706) 335-3111","U-Save-IT Pharmacy/Commerce Drugs","1751 N Elm St",,"Commerce","GA","30529","Closed","9:00 AM - 6:00 PM","9:00 AM - 6:00 PM","9:00 AM - 6:00 PM","9:00 AM - 6:00 PM","9:00 AM - 6:00 PM","9:00 AM - 1:00 PM","http://www.usaveitpharmacy.com",,"true","true",,"59676-0580-05","Janssen, COVID-19 Vaccine, 0.5 mL","false","0","2022-03-09","34.203495","-83.457999","covid",,"false","0","12"
"a7cb945a-40e5-4e6f-9eba-9cad27f55dc8","Not applicable","(908) 441-2882","SKYLANDS FAMILY PHARMACY","198B MOUNTAIN AVE",,"HACKETTSTOWN","NJ","07840-2435","Closed","9:00 AM - 6:00 PM","9:00 AM - 6:00 PM","9:00 AM - 6:00 PM","9:00 AM - 6:00 PM","9:00 AM - 6:00 PM","9:00 AM - 1:00 PM",,,,"true",,"59267-1000-01","Pfizer-BioNTech, COVID-19 Vaccine, 30 mcg/0.3mL","false","0","2022-05-31","40.841609","-74.824294","covid",,"false",,
"c47f155e-c3fe-4b04-a7d8-40e7b9fcaa16","MS1001046","256-546-3784","RIVERSIDE PHARMACY #MS1001046","405 SOUTH FIRST STREET",,"GADSDEN","AL","35901",,,,,,,,,,,,,"59676-0580-05","Janssen, COVID-19 Vaccine, 0.5 mL","false","0","2022-07-14","34.007010","-86.002928","covid",,"false",,
"fa7180cf-8bf1-45eb-a61c-38422f876816","Not applicable","(256) 973-2888","DECATUR MORGAN HOSPITAL - DECATUR CAMPUS","1201 7TH ST SE",,"DECATUR","AL","35601-3337","Closed","8:00 AM - 3:00 PM","8:00 AM - 3:00 PM","8:00 AM - 3:00 PM","8:00 AM - 3:00 PM","Closed","Closed",,,,"true","This location is at the Decatur Morgan Hospital -PARKWAY Campus  1874 Beltline Road. Call for an appointment.","59267-1000-01","Pfizer-BioNTech, COVID-19 Vaccine, 30 mcg/0.3mL","false","0","2022-06-06","34.590321","-86.971950","covid",,"false",,
"4418d681-3532-4423-a118-5760118ff646","243243","(651) 686-0392","CUB PHARMACY #1695 #243243","1276 TOWN CENTRE DRIVE",,"EAGAN","MN","55123","9:00 AM - 6:00 PM","9:00 AM - 9:00 PM","9:00 AM - 9:00 PM","9:00 AM - 9:00 PM","9:00 AM - 9:00 PM","9:00 AM - 9:00 PM","9:00 AM - 6:00 PM","https://www.cub.com/pharmacy.html","https://www.cub.com/pharmacy/services/covid-testing-information.html",,"true",,"80777-0273-10","Moderna, COVID-19 Vaccine, 100mcg/0.5mL 10 dose","false","0","2022-06-15","44.831641","-93.160554","covid",,"false",,
"86d91e85-5c77-4819-b94c-a910c9977d6c","Not applicable","501-214-9129","Arkansas Children's Hospital - Southwest Little Rock Clini","9015 Daily Drive",,"Little Rock","AR","72209",,,,,,,,,,,,,"80777-0273-10","Moderna, COVID-19 Vaccine, 100mcg/0.5mL 10 dose","false","0","2021-11-08","34.666601","-92.354181","covid",,"false",,
"a1ff770c-7f09-457e-9949-0c62e4b29ece","Not applicable","(575) 587-2205","Penasco Clinic","15136 State Hwy 75",,"Penasco","NM","87553",,"8:00 AM - 5:00 PM","8:00 AM - 5:00 PM","8:00 AM - 5:00 PM","8:00 AM - 5:00 PM","8:00 AM - 5:00 PM",,"http://ww.ecfh.org",,"true","true","Bring a photo ID and insurance card to appointment. We no longer schedule appointments through NMDOH COVID Vaccine app. Please call the clinic or walk in!","59267-1055-01","Pfizer-BioNTech, COVID-19 Vaccine, 10 mcg/0.2 mL, tris-sucrose","true","-1","2022-05-13","36.172265","-105.683847","covid",,"false","6","0"
"d7bf99c8-542a-4a3c-a0cc-3a8f89ab7758","RA105915","925-691-0164","Rite Aid #RA105915","2140 CONTRA COSTA BOULEVARD",,"PLEASANT HILL","CA","94523-3744","10:00 AM-6:00 PM","09:00 AM-9:00 PM","09:00 AM-9:00 PM","09:00 AM-9:00 PM","09:00 AM-9:00 PM","09:00 AM-9:00 PM","09:00 AM-6:00 PM","https://www.riteaid.com","https://www.riteaid.com/pharmacy/scheduler","true","false","Please consult RiteAid.com for more details and information.","59267-1000-01","Pfizer-BioNTech, COVID-19 Vaccine, 30 mcg/0.3mL","false","0","2022-08-03","37.946656","-122.058975","covid",,"false","0","3"
"c3d86abf-bec6-44dd-a0d0-7fe3e8f575b8","MS1000410","(718) 438-2565","KONWALER DRUGS #MS1000410","801 CHURCH AVE",,"BROOKLYN","NY","11218-3307","Closed","10:00 AM - 7:00 PM","10:00 AM - 7:00 PM","10:00 AM - 7:00 PM","10:00 AM - 7:00 PM","10:00 AM - 7:00 PM","10:00 AM - 6:00 PM",,,"true","false","Please call or email in order to schedule an appointment for your Covid vaccine.","59676-0580-05","Janssen, COVID-19 Vaccine, 0.5 mL","true","3","2022-08-09","40.646202","-73.971568","covid",,"false",,
"4c7945f3-d422-474e-853c-021abdff3f1b","RA105479","323-771-9422","Rite Aid #RA105479","4410 EAST SLAUSON AVENUE",,"MAYWOOD","CA","90270-2932","10:00 AM-6:00 PM","08:00 AM-10:00 PM","08:00 AM-10:00 PM","08:00 AM-10:00 PM","08:00 AM-10:00 PM","08:00 AM-10:00 PM","09:00 AM-6:00 PM","https://www.riteaid.com","https://www.riteaid.com/pharmacy/scheduler","true","false","Please consult RiteAid.com for more details and information.","59267-1000-01","Pfizer-BioNTech, COVID-19 Vaccine, 30 mcg/0.3mL","false","0","2022-08-03","33.986860","-118.187602","covid",,"false","0","3"
"d429c8d3-256e-41f6-9b83-7e04bb9ff370","341588","919-639-6030","ALLCARE PHARMACY SERVICES #341588","9641 BITTER MELON DRIVE",,"ANGIER","NC","27501",,,,,,,,,,,,,"59267-1055-01","Pfizer-BioNTech, COVID-19 Vaccine, 10 mcg/0.2 mL, tris-sucrose","false","0","2022-08-19","35.539334","-78.748098","covid",,"false",,
"4feacff1-1be0-48c6-bb27-2bc28f6b98a2","RA111151","610-738-8870","Rite Aid #RA111151","1395 EAST BOOT ROAD",,"WEST CHESTER","PA","19380-5988","09:00 AM-5:00 PM","09:00 AM-9:00 PM","09:00 AM-9:00 PM","09:00 AM-9:00 PM","09:00 AM-9:00 PM","09:00 AM-9:00 PM","09:00 AM-5:00 PM","https://www.riteaid.com","https://www.riteaid.com/pharmacy/scheduler","true","true","Please consult RiteAid.com for more details and information.","80777-0273-10","Moderna, COVID-19 Vaccine, 100mcg/0.5mL 10 dose","true","-1","2022-04-29","39.998017","-75.565970","covid",,"false","0","3"
"3bfebef1-dacb-4fd6-8064-f3b2b16b7711","Not applicable","(866) 500-0017","SHMG FM Coopersville","25 Conran Dr.",,"Coopersville","MI","49404",,,,,,,,,,,,,"59267-1000-01","Pfizer-BioNTech, COVID-19 Vaccine, 30 mcg/0.3mL","false","0","2022-06-13","43.059390","-85.952688","covid",,"false",,
"da2d1021-8bcb-47cd-9885-478aab0378e5","440025","410-638-5804","Weis Pharmacy #172 #440025","550 WEST MACPHAIL ROAD","Weis Pharmacy #172","BEL AIR","MD","21014","10:00 AM - 2:00 PM","9:00 AM - 8:30 PM","9:00 AM - 8:30 PM","9:00 AM - 8:30 PM","9:00 AM - 8:30 PM","9:00 AM - 8:30 PM","9:00 AM - 5:30 PM","http://www.weismarkets.com","https://www.weismarkets.com/pharmacy-services","true","true","Please consider scheduling an appointment. Limited walkins are welcome based on availbility. Vaccine administered each day is shown when you schedule. We will schedule your second dose appointment when you come to your first dose appointment.","59267-1025-01","Pfizer-BioNTech, COVID-19 Vaccine, 30 mcg/0.3mL, tris-sucrose","true","3","2022-06-28","39.523266","-76.345701","covid",,"true",,
"fddb2e60-b242-456e-98c4-8ec6cd890f76","RA102426","570-287-7350","Rite Aid #RA102426","39 WEST SIDE MALL",,"EDWARDSVILLE","PA","18704-3113","10:00 AM-6:00 PM","09:00 AM-9:00 PM","09:00 AM-9:00 PM","09:00 AM-9:00 PM","09:00 AM-9:00 PM","09:00 AM-9:00 PM","09:00 AM-6:00 PM","https://www.riteaid.com","https://www.riteaid.com/pharmacy/scheduler","true","false","Please consult RiteAid.com for more details and information.","59267-1000-01","Pfizer-BioNTech, COVID-19 Vaccine, 30 mcg/0.3mL","false","0","2022-08-03","41.259668","-75.902244","covid",,"false","0","3"
"45074fb2-8884-41fe-b725-cf29158d5279","Not applicable","(478) 552-0004","Nightingale Infusion, Inc. -HGA","502 S. Harris St",,"Sandersville","GA","31082",,"8:30 AM - 5:00 PM","8:30 AM - 5:00 PM","8:30 AM - 5:00 PM","8:30 AM - 5:00 PM","8:30 AM - 5:00 PM",,"https://www.nightingaleprivatehomecare.com/","https://www.nightingaleprivatehomecare.com/","true","false",,"59267-1000-01","Pfizer-BioNTech, COVID-19 Vaccine, 30 mcg/0.3mL","true","1","2022-07-14","32.975253","-82.809713","covid",,"false",,
"88dd6e99-26d9-4c3b-9a35-3b01aa599656","Not applicable","615-952-3690","KINGSTON SPRINGS PHARMACY","111 W KINGSTON SPRINGS ROAD","SUITE 103","KINGSTON SPRINGS","TN","37082",,"8:00 AM - 6:00 PM","8:00 AM - 6:00 PM","8:00 AM - 6:00 PM","8:00 AM - 6:00 PM","8:00 AM - 6:00 PM",,,,,"false","Please call to schedule an appointment ONLY if you are eligible to receive vaccine at this time.","59676-0580-05","Janssen, COVID-19 Vaccine, 0.5 mL","false","0","2022-02-01","36.087912","-87.101991","covid",,"false",,
"776f1c10-2997-4eb4-b79b-3b0e4b3ddf62","3950169","(570) 929-1130","Standard Drug Store #3950169","322 South Hancock Street",,"McAdoo","PA","18237",,"9:00 AM - 8:00 PM","9:00 AM - 8:00 PM","9:00 AM - 8:00 PM","9:00 AM - 8:00 PM","9:00 AM - 8:00 PM","9:00 AM - 6:00 PM",,,"true","false",,"59676-0580-05","Janssen, COVID-19 Vaccine, 0.5 mL","false","0","2022-06-30","40.898135","-75.996665","covid",,"true",,
"f466b0fe-3cbb-40f1-86f0-e95a6df0f394","RA106106","530-546-2523","Rite Aid #RA106106","8245 NORTH LAKE BOULEVARD",,"KINGS BEACH","CA","96143-1175",":   AM-  :   AM","09:00 AM-6:00 PM","09:00 AM-6:00 PM","09:00 AM-6:00 PM","09:00 AM-6:00 PM","09:00 AM-6:00 PM","09:00 AM-6:00 PM","https://www.riteaid.com","https://www.riteaid.com/pharmacy/scheduler","true","false","Please consult RiteAid.com for more details and information.","59267-1000-01","Pfizer-BioNTech, COVID-19 Vaccine, 30 mcg/0.3mL","false","0","2022-08-03","39.237889","-120.027686","covid",,"false","0","3"
"88fd9d28-8ce8-462c-9f4b-b05f0851def8","Not applicable","(877) 829-4682","Prince William Health District- Woodbrige","4001 Prince William Parkway","Suite 101","WOODBRIDGE","VA","22192","Closed","Closed","Closed","Closed","Closed","Closed","Closed","https://www.vdh.virginia.gov/prince-william/","https://vase.vdh.virginia.gov","false","true","The Prince William Health District (PWHD) provides COVID-19 vaccines at various locations and times within the greater Prince William area. To find a PWHD sponsored clinic click Check Appointment Availability and follow the prompts. You may schedule an appointment or search for a site and walk-in. Walk-ins are accepted while vaccine supplies last. Be aware that our mobile clinic unit will run weather permitting. PLEASE NOTE: Children aged 5 17 years can only receive the Pfizer-BioNTech COVID-19 vaccine at this time. It is important to confirm which vaccine is given at the clinic you plan to visit.","59267-1000-01","Pfizer-BioNTech, COVID-19 Vaccine, 30 mcg/0.3mL","false","0","2022-07-20","38.665248","-77.331540","covid",,"false",,
"d2f7c7e4-5c1c-4c30-8fc2-b60edc443da8","MS1000416","(323) 749-6500","986 PHARMACY #8005 #MS1000416","2670 E GAGE AVE STE 10A",,"HUNTINGTON PARK","CA","90255","Closed","9:00 AM - 6:00 PM","9:00 AM - 6:00 PM","9:00 AM - 6:00 PM","9:00 AM - 6:00 PM","9:00 AM - 6:00 PM","10:00 AM - 3:00 PM","http://986pharmacy.com",,"true","true","All Booster  shots are given at this location.  Mix and Match vaccines is okay.   Conditions apply, refer to FDA Emergency Use Authorization for boosters or give us a  call.  Get vaccinated quickly and at your convenience.  Walk-ins are always accepted.  We speak spanish.  Vacnese rpidamente y a su conveniencia. Siempre se aceptan visitas sin cita previa. Nosotros hablamos espaol.","80777-0279-05","Moderna, COVID-19 pediatric vaccine, 25mcg/.25 ml","false","0","2022-08-13","33.981202","-118.223012","covid",,"false",,
"46c812f6-b26e-47ea-bd9a-e5a2aec6d1be","6445","215-412-9264","Giant #6445","1540 COWPATH ROAD, SUITE 110",,"HATFIELD","PA","19440","10:00AM-5:00PM","9:00AM-8:00PM","9:00AM-8:00PM","9:00AM-8:00PM","9:00AM-8:00PM","9:00AM-8:00PM","9:00AM-5:00PM","https://giantsched.rxtouch.com/rbssched/program/wellness","https://giantsched.rxtouch.com/rbssched/program/wellness","true","true",,"59267-1000-01","Pfizer-BioNTech, COVID-19 Vaccine, 30 mcg/0.3mL","false","0","2022-05-04","40.271982","-75.290742","covid",,"false","0","3"
"0c6e133a-b313-4f46-80d2-df6287cb948e","Not applicable","855-438-2280","Community Clinic NWA - Rogers","1233 W. Poplar Street",,"Rogers","AR","72758",,,,,,,,,,,,,"59267-1000-01","Pfizer-BioNTech, COVID-19 Vaccine, 30 mcg/0.3mL","false","0","2022-03-07","36.332590","-94.134139","covid",,"false",,
"fb37ef29-20f7-44ba-9a68-36e9fecb8e6c","4353126","(605) 692-8881","LEWIS DRUGS INC #12 #4353126","910 22ND AVE. S",,"BROOKINGS","SD","57006","9:00 AM - 2:00 PM","9:00 AM - 8:00 PM","9:00 AM - 8:00 PM","9:00 AM - 8:00 PM","9:00 AM - 8:00 PM","9:00 AM - 8:00 PM","9:00 AM - 3:00 PM","https://www.lewisdrug.com/stores/lewis-brookings-sd",,"true","true","Walk-in vaccines are available. Please call pharmacy at 605-692-8881 to check availability before coming in.","80631-0100-01","Novavax, COVID-19 Vaccine, 5 mcg/0.5 mL","false","0","2022-08-03","44.295911","-96.769922","covid",,"false",,
"60a21021-5e18-4135-a715-5ee951c9bf0e","71","508-672-2366","Stop & Shop #71","501 RODMAN STREET",,"FALL RIVER","MA","02721","9:00AM-5:00PM","8:00AM-8:00PM","8:00AM-8:00PM","8:00AM-8:00PM","8:00AM-8:00PM","8:00AM-8:00PM","9:00AM-5:00PM","https://stopandshopsched.rxtouch.com/rbssched/program/wellness","https://stopandshopsched.rxtouch.com/rbssched/program/wellness","true","true",,"59267-1000-01","Pfizer-BioNTech, COVID-19 Vaccine, 30 mcg/0.3mL","false","0","2022-05-04","41.693968","-71.152781","covid",,"false","0","3"
"77af7529-6de6-417b-a048-3621d7b2db39","Not applicable","(603) 466-2741","Coos County Family Health Services","2 Broadway Street",,"Gorham","NH","03581",,"8:00 AM - 5:00 PM","8:00 AM - 5:00 PM","8:00 AM - 5:00 PM","8:00 AM - 5:00 PM","8:00 AM - 5:00 PM",,,,"true","true",,"59676-0580-05","Janssen, COVID-19 Vaccine, 0.5 mL","false","0","2022-06-22","44.394264","-71.190257","covid",,"false","6","0"
"2be3c06c-9ab2-4ee8-aa52-c26579cb2a7f","Not applicable","3235644408","San Martin De Porres MC","10001 California Ave",,"South Gate","CA","90280",,,,,,,,,,,,,"59676-0580-05","Janssen, COVID-19 Vaccine, 0.5 mL","false","0","2022-03-30","33.943513","-118.207965","covid",,"false",,
"5f00aa7f-b4d8-40a0-90d2-fdf33088f7da","160571","(563) 382-3929","DONLON PHARMACY #160571","201 W WATER ST",,"DECORAH","IA","52101","Closed","9:30 AM - 6:00 PM","9:30 AM - 6:00 PM","9:30 AM - 6:00 PM","9:30 AM - 6:00 PM","9:30 AM - 6:00 PM","9:30 AM - 3:00 PM","https://www.donlonrx.com/",,"true","false","Check out our website for vaccine scheduling updates.","59267-1055-01","Pfizer-BioNTech, COVID-19 Vaccine, 10 mcg/0.2 mL, tris-sucrose","true","-1","2022-08-17","43.303966","-91.787398","covid",,"false",,
"1c1ac967-14ef-4955-9f7c-d76af05eeaa9","21962","7185432007","MinuteClinic #21962","565 W 235TH ST",,"BRONX","NY","10463",,,,,,,,,,"false","false",,"59267-1000-01","Pfizer-BioNTech, COVID-19 Vaccine, 30 mcg/0.3mL","false","0","2022-06-24","40.886058","-73.910584","covid",,"false","18","0"
"fa576353-a51c-4834-8846-0748f98a7fd8","RA103869","718-241-3559","Rite Aid #RA103869","1791 UTICA AVENUE",,"BROOKLYN","NY","11234-2120","09:00 AM-5:00 PM","08:00 AM-8:00 PM","08:00 AM-8:00 PM","08:00 AM-8:00 PM","08:00 AM-8:00 PM","08:00 AM-8:00 PM","09:00 AM-6:00 PM","https://www.riteaid.com","https://www.riteaid.com/pharmacy/scheduler","true","true","Please consult RiteAid.com for more details and information.","80777-0273-10","Moderna, COVID-19 Vaccine, 100mcg/0.5mL 10 dose","true","-1","2022-06-02","40.628933","-73.927624","covid",,"false","0","3"
"18677438-334f-4e44-a5cd-29e0f68e81df","RA100386","410-647-0451","Rite Aid #RA100386","25 JONES STATION ROAD WEST",,"SEVERNA PARK","MD","21146-4200","10:00 AM-6:00 PM","09:00 AM-9:00 PM","09:00 AM-9:00 PM","09:00 AM-9:00 PM","09:00 AM-9:00 PM","09:00 AM-9:00 PM","09:00 AM-5:00 PM","https://www.riteaid.com","https://www.riteaid.com/pharmacy/scheduler","true","false","Please consult RiteAid.com for more details and information.","59676-0580-05","Janssen, COVID-19 Vaccine, 0.5 mL","false","0","2022-04-30","39.056860","-76.528249","covid",,"false","0","3"
"8fef9145-c719-4e15-bb05-b490d48b549c","MS1004915","(908) 725-0585","Medly Pharmacy #MS1004915","40 W Main St",,"Somerville","NJ","08876-2262",,"8:00 AM - 7:00 PM","8:00 AM - 7:00 PM","8:00 AM - 7:00 PM","8:00 AM - 7:00 PM","8:00 AM - 7:00 PM","8:00 AM - 5:00 PM","http://www.medlypharmacy.com","https://medly.as.me/so","true","true","Please contact us at 908-725-0585","59267-1000-01","Pfizer-BioNTech, COVID-19 Vaccine, 30 mcg/0.3mL","true","-1","2022-08-01","40.568890","-74.612865","covid",,"false",,
"2d78d265-9072-4961-86da-341a1517e6ba","Not applicable","(323) 778-7772","Jose A Perez MD-Vermont Office","8301 South Vermont Avenue Suite A",,"Los Angeles","CA","90044",,,,,,,,,,"true","true",,"59267-1000-01","Pfizer-BioNTech, COVID-19 Vaccine, 30 mcg/0.3mL","false","0","2022-05-14","33.963353","-118.292047","covid",,"false",,
"14b54a62-1015-47c0-a437-dcd9be562087","Not applicable","(866) 500-0017","SHMG Zeeland Pediatrics","8333 Felch St","Suite 200","Zeeland","MI","49464",,,,,,,,,,,,,"80777-0273-10","Moderna, COVID-19 Vaccine, 100mcg/0.5mL 10 dose","false","0","2021-11-17","42.820554","-85.987971","covid",,"false",,
"2e3d6578-c8c8-4427-b4ef-77dde2d4ed46","1619420","(712) 324-4331","LEWIS FAMILY DRUG LLC #52 #1619420","610 PARK ST.",,"SHELDON","IA","51201","Closed","8:00 AM - 7:00 PM","8:00 AM - 6:00 PM","8:00 AM - 6:00 PM","8:00 AM - 6:00 PM","8:00 AM - 6:00 PM","8:00 AM - 1:00 PM","https://www.lewisdrug.com/stores/lewis-family-drug-sheldon-ia",,"true","true","COVID vaccinations are by appointment only.  Please check our website under his pharmacy location to determine appointment availability.  If no appointments are available, please check back often or other locations for openings!","59267-0078-01","Pfizer-BioNTech, COVID-19 Vaccine, 3 mcg/0.2 mL, tris-sucrose","false","0","2022-08-03","43.185690","-95.847294","covid",,"false",,
"c8f98a24-9ad2-4d6f-84f0-14c78a6be02e","Not applicable","865-366-1770","PREFERRED PHARMACY SEVIERVILLE","1024 MIDDLE CREEK RD",,"SEVIERVILLE","TN","37862",,"9:00 AM - 5:00 PM","9:00 AM - 5:00 PM","9:00 AM - 5:00 PM","9:00 AM - 5:00 PM","9:00 AM - 5:00 PM","9:00 AM - 12:00 PM","https://www.preferredpharmacyrx.com/","https://www.preferredpharmacyrx.com/",,"false",,"59267-1055-01","Pfizer-BioNTech, COVID-19 Vaccine, 10 mcg/0.2 mL, tris-sucrose","true","-1","2022-06-08","35.849245","-83.534781","covid",,"false",,
"3a9b06fe-bbc7-4b03-8b0a-e4d5a1738a5c","RA103144","330-867-8492","Rite Aid #RA103144","2975 WEST MARKET STREET",,"FAIRLAWN","OH","44333-3606","10:00 AM-6:00 PM","09:00 AM-9:00 PM","09:00 AM-9:00 PM","09:00 AM-9:00 PM","09:00 AM-9:00 PM","09:00 AM-9:00 PM","09:00 AM-6:00 PM","https://www.riteaid.com","https://www.riteaid.com/pharmacy/scheduler","true","false","Please consult RiteAid.com for more details and information.","59267-1000-01","Pfizer-BioNTech, COVID-19 Vaccine, 30 mcg/0.3mL","false","0","2022-08-03","41.128549","-81.609302","covid",,"false","0","3"
"3593b9e9-1d6c-4a8b-a6f6-a867521ac822","335","301-815-2201","Giant Food #335","1700 KING FISHER DRIVE",,"FREDERICK","MD","21701","10:00AM-5:00PM","9:00AM-9:00PM","9:00AM-9:00PM","9:00AM-9:00PM","9:00AM-9:00PM","9:00AM-9:00PM","9:00AM-6:00PM","https://giantfoodsched.rxtouch.com/rbssched/program/wellness","https://giantfoodsched.rxtouch.com/rbssched/program/wellness","true","true",,"59267-1000-01","Pfizer-BioNTech, COVID-19 Vaccine, 30 mcg/0.3mL","false","0","2022-05-04","39.447995","-77.383761","covid",,"false","0","3"
"42f0ad52-19a5-427f-ae3f-66e987bc9006","454362","940-627-5343","BEST VALUE RENSHAW DRUG #454362","800A MEDICAL CENTER DRIVE",,"DECATUR","TX","76234",,,,,,,,,,,,,"59676-0580-05","Janssen, COVID-19 Vaccine, 0.5 mL","false","0","2021-12-16","33.219043","-97.594946","covid",,"false",,
"2150ba5f-788a-4ac5-b81d-8a7d36b3a4a3","370625","(405) 364-5020","Doctors Park Pharmacy #370625","500 E Robinson suite 200",,"norman","OK","73071","Closed","9:00 AM - 6:00 PM","9:00 AM - 6:00 PM","9:00 AM - 6:00 PM","9:00 AM - 6:00 PM","9:00 AM - 6:00 PM","9:00 AM - 12:00 PM","https://drsparkrx.com/","https://drsparkrx.com/vaccine-information/","true",,,"59267-1000-01","Pfizer-BioNTech, COVID-19 Vaccine, 30 mcg/0.3mL","false","0","2022-07-27","35.232495","-97.439345","covid",,"false",,
"3a5b0109-97d4-479a-a7f1-d6a55e4cef35","483186","(540) 261-2896","BUENA VISTA FAMILY PHARMACY #483186","2263 MAGNOLIA AVE",,"BUENA VISTA","VA","24416","Closed","8:30 AM - 6:00 PM","8:30 AM - 6:00 PM","8:30 AM - 6:00 PM","8:30 AM - 6:00 PM","8:30 AM - 6:00 PM","Closed","http://www.bvpharmacy.com",,"true","true","Call for appointment and availability","59676-0580-05","Janssen, COVID-19 Vaccine, 0.5 mL","false","0","2022-07-12","37.736529","-79.353794","covid",,"false",,
"63795db5-04bd-4715-9738-ed00b057ff44","Not applicable","870-285-3154","Pike County Health Unit","15 Cadoo Dr",,"Murfreesboro","AR","71958",,,,,,,,,,,,,"59267-1000-01","Pfizer-BioNTech, COVID-19 Vaccine, 30 mcg/0.3mL","false","0","2022-07-14","34.062331","-93.689905","covid",,"false",,
"5351aaa1-eeee-40d8-b455-8c541189887e","4232409","843-314-0498","Pawleys Island RX of Litchfield #4232409","115 Willbrook Boulevard Unit A",,"PAWLEYS ISLAND","SC","29585",,,,,,,,,,,,,"59267-1000-01","Pfizer-BioNTech, COVID-19 Vaccine, 30 mcg/0.3mL","false","0","2022-07-06","33.484338","-79.098028","covid",,"true",,
"27aead55-fd20-4248-99f8-63e6c78a8df7","RA110272","603-894-4429","Rite Aid #RA110272","142 MAIN STREET",,"SALEM","NH","03079-3106","09:00 AM-5:00 PM","08:00 AM-8:00 PM","08:00 AM-8:00 PM","08:00 AM-8:00 PM","08:00 AM-8:00 PM","08:00 AM-8:00 PM","09:00 AM-5:00 PM","https://www.riteaid.com","https://www.riteaid.com/pharmacy/scheduler","true","false","Please consult RiteAid.com for more details and information.","59267-1000-01","Pfizer-BioNTech, COVID-19 Vaccine, 30 mcg/0.3mL","false","0","2022-08-03","42.780942","-71.225610","covid",,"false","0","3"
"3bb6bfb0-c4a6-45a6-87ae-fbfd5cbc9399","Not applicable","(405) 330-1089","J AND M DRUG AT CREST","2200 W 15th ST",,"Edmond","OK","73013","Closed","9:00 AM - 6:00 PM","9:00 AM - 6:00 PM","9:00 AM - 6:00 PM","9:00 AM - 6:00 PM","9:00 AM - 6:00 PM","10:00 AM - 2:00 PM","http://jandmdrug.com",,"true","true",,"59267-1000-01","Pfizer-BioNTech, COVID-19 Vaccine, 30 mcg/0.3mL","true","-1","2022-08-19","35.636560","-97.512674","covid",,"false",,
"68937701-1112-4a68-89a3-f4edd1930a20","20764","7813964770","MinuteClinic #20764","85 HIGH ST",,"MEDFORD","MA","02155",,,,,,,,,,"false","false",,"59267-1000-01","Pfizer-BioNTech, COVID-19 Vaccine, 30 mcg/0.3mL","false","0","2022-06-24","42.419046","-71.112265","covid",,"false","18","0"
"1e4ebf34-3760-4a65-b933-1eb55e8a5e84","Not applicable","(360) 572-5400","ARLINGTON CHCSC MEDICAL","326 S Stillaguamish Ave",,"Arlington","WA","98223",,"9:00 AM - 5:30 PM","9:00 AM - 5:30 PM","9:00 AM - 5:30 PM","9:00 AM - 5:30 PM","9:00 AM - 5:30 PM","9:00 AM - 5:30 PM",,,"true","true","Available to CHC patient's","59267-1000-01","Pfizer-BioNTech, COVID-19 Vaccine, 30 mcg/0.3mL","false","0","2022-07-18","48.189605","-122.118099","covid",,"false",,
"13e1bef3-ddfa-47f6-bd24-0018761b77bd","340400","(828) 264-3055","BOONE DRUG AND HEALTHCARE AT DEERFIELD #340400","345 DEERFIELD RD",,"BOONE","NC","28607","Closed","8:00 AM - 8:00 PM","8:00 AM - 8:00 PM","8:00 AM - 8:00 PM","8:00 AM - 8:00 PM","8:00 AM - 8:00 PM","9:00 AM - 6:00 PM","www.boonedrug.com","https://boonedrug.com/covid-vaccine","true","false",,"00069-2025-01","Pfizer-BioNTech, COMIRNATY, 30 mcg/0.3 mL, tris-sucrose","false","0","2022-07-29","36.199148","-81.653002","covid",,"false",,
"c27516d3-2a5c-4f18-a1af-1b15184b67f7","Not applicable","(805) 330-8100","CDCR-La Colonia","801 Cooper Road",,"Oxnard","CA","93030","Closed","9:00 AM - 5:00 PM","9:00 AM - 5:00 PM","9:00 AM - 5:00 PM","9:00 AM - 5:00 PM","9:00 AM - 5:00 PM","Closed","https://clinicas.org/",,,,"Please call us to schedule your appointment for your COVID vaccine.","59267-1000-01","Pfizer-BioNTech, COVID-19 Vaccine, 30 mcg/0.3mL","false","0","2022-01-12","34.204736","-119.170441","covid",,"false","0","5"
"e5326d00-81e1-4771-b8c8-a137263befa2","5551","504-525-7263","Walgreens Co. #5551","619 DECATUR ST","-","NEW ORLEANS","LA","70130-1041","12:00AM - 12:00AM","12:00AM - 12:00AM","12:00AM - 12:00AM","09:00AM - 03:00PM","12:00AM - 12:00AM","12:00AM - 12:00AM","12:00AM - 12:00AM","https://www.walgreens.com","https://www.walgreens.com/findcare/vaccination/covid-19","true","false","Appointments are required to receive a COVID-19 vaccine. No walk-ins are accepted at this time.","80777-0273-10","Moderna, COVID-19 Vaccine, 100mcg/0.5mL 10 dose","false","0","2022-06-10","29.956467","-90.063254","covid",,"false",,
"15ba84cd-730a-4cae-b733-f3bab11a747b","00156","(262) 955-8811","Genoa Healthcare LLC #00156","514 Riverview Ave","Room 238","Waukesha","WI","53188-3632",,,,,,,,,,,"false",,"59676-0580-05","Janssen, COVID-19 Vaccine, 0.5 mL","false","0","2021-05-27","43.021511","-88.231665","covid",,"false",,
"1b060e4f-9b4e-418c-9953-2e032ba71a2e","Not applicable","706-745-2303","Brasstown Professional Pharmacy","23B Murphy Hwy","Suite B","Blairsville","GA","30512",,,,,,,,,,,,,"80777-0273-10","Moderna, COVID-19 Vaccine, 100mcg/0.5mL 10 dose","false","0","2022-03-14","34.871238","-83.964132","covid",,"false",,
"45a3b79a-f3bc-4911-8db2-cf1fb37ded1c","Not applicable","615-622-4644","CARENOW URGENT CARE-MARTINLUTHERKINGJR.BLVD (22479)","1020 DR. MARTIN L KING JR BLVD",,"NASHVILLE","TN","37203",,,"9:00 AM - 1:00 PM","9:00 AM - 1:00 PM","9:00 AM - 1:00 PM","9:00 AM - 1:00 PM",,"http://CareNow.com","http://CareNow.com",,"false",,"59676-0580-05","Janssen, COVID-19 Vaccine, 0.5 mL","false","0","2022-06-02","36.162949","-86.789807","covid",,"false",,
"c6206b4c-3722-43cc-a667-c8c53c19ee35","MS1004844","(973) 667-1434","White Oak Pharmacy #MS1004844","88 Union Avenue",,"Nutley","NJ","07110","10:00 AM - 2:00 PM","9:00 AM - 7:00 PM","9:00 AM - 7:00 PM","9:00 AM - 7:00 PM","9:00 AM - 7:00 PM","9:00 AM - 7:00 PM","9:00 AM - 4:00 PM","http://www.whiteoakrx.com",,"true","true",,"80777-0273-10","Moderna, COVID-19 Vaccine, 100mcg/0.5mL 10 dose","true","4","2022-06-16","40.809802","-74.151407","covid",,"false",,
"13831e23-d65e-483b-ab28-8a6c21965e26","Not applicable","(866) 265-8110","Dorchester County Health Department","500 North Main Street","Suite 9","Summerville","SC","29483",,"8:30 AM - 4:00 PM","8:30 AM - 4:00 PM","8:30 AM - 4:00 PM","8:30 AM - 4:00 PM","8:30 AM - 4:00 PM",,"https://vaxlocator.dhec.sc.gov/",,"true",,,"59267-1000-01","Pfizer-BioNTech, COVID-19 Vaccine, 30 mcg/0.3mL","true","4","2022-07-18","33.026185","-80.172025","covid",,"false",,
"ca8c1565-09ad-4b1d-a935-15cb4987b571","Not applicable","(248) 297-5282","Pine Knob Urgent Care","6310 Sashabaw Road","Suite C","Clarkston","MI","48346","8:00 AM - 6:00 PM","8:00 AM - 9:00 PM","8:00 AM - 9:00 PM","8:00 AM - 9:00 PM","8:00 AM - 9:00 PM","8:00 AM - 9:00 PM","8:00 AM - 6:00 PM","http://www.pineknoburgentcare.com",,"true","true",,"80777-0273-10","Moderna, COVID-19 Vaccine, 100mcg/0.5mL 10 dose","false","0","2022-07-14","42.730493","-83.378730","covid",,"false",,
"c1a157dd-0446-4b02-abc7-c00136c2c175","4354685","(605) 874-8220","LEWIS FAMILY DRUG LLC #38 #4354685","404 3RD AVE S",,"CLEAR LAKE","SD","57226","Closed","9:00 AM - 5:30 PM","9:00 AM - 5:30 PM","9:00 AM - 5:30 PM","9:00 AM - 5:30 PM","9:00 AM - 5:30 PM","9:00 AM - 12:00 PM","https://www.lewisdrug.com/stores/lewis-family-drug-clear-lake","https://lewisdrugc19.as.me/schedule.php?calendarID=4948152","true","false","COVID vaccinations are by appointment only. Please check our website under this pharmacy location to determine appointment availability. If no appointments are available, please check back often or other locations for openings!","59267-1000-01","Pfizer-BioNTech, COVID-19 Vaccine, 30 mcg/0.3mL","false","0","2022-08-03","44.755565","-96.682149","covid",,"false",,
"49cfd874-23a1-4b61-a1e9-5fc657fb55ca","Not applicable","(702) 209-0370","Sunrise Health Clinics, LLC","6767 W Tropicana Ave Ste 100",,"Las Vegas","NV","89103","Closed","10:00 AM - 3:00 PM","10:00 AM - 3:00 PM","10:00 AM - 3:00 PM","10:00 AM - 3:00 PM","10:00 AM - 3:00 PM","Closed","http://sunriseclinics.org","http://sunriseclinics.org/covid-vaccine","true","false",,"59676-0580-05","Janssen, COVID-19 Vaccine, 0.5 mL","false","0","2022-06-20","36.099404","-115.239866","covid",,"false",,
"fc045704-ce59-4a2e-9b52-5819ba83150c","22083","7863530082","MinuteClinic #22083","8740 BIRD RD",,"MIAMI","FL","33165",,,,,,,,,,"false","false",,"59267-1000-01","Pfizer-BioNTech, COVID-19 Vaccine, 30 mcg/0.3mL","false","0","2022-06-24","25.732365","-80.336966","covid",,"false","18","0"
"e20d2588-fae0-4c18-886a-f4884679d1b2","Not applicable","(256) 766-3298","CHAD'S PAYLESS PHARMACY","501 W. COLLEGE STREET",,"FLORENCE","AL","35630-5311","Closed","9:00 AM - 6:00 PM","9:00 AM - 6:00 PM","9:00 AM - 6:00 PM","9:00 AM - 6:00 PM","9:00 AM - 6:00 PM","9:00 AM - 1:00 PM",,,"true","true",,"59267-1000-01","Pfizer-BioNTech, COVID-19 Vaccine, 30 mcg/0.3mL","true","4","2022-08-09","34.796716","-87.680429","covid",,"false",,
"bcb5c657-ff20-48e4-a3bd-b76e99eef08f","23038","9197862534","MinuteClinic #23038","4191 THE CIRCLE AT NORTH HILLS ST",,"RALEIGH","NC","27609",,,,,,,,,,"false","false",,"59267-1000-01","Pfizer-BioNTech, COVID-19 Vaccine, 30 mcg/0.3mL","false","0","2022-06-24","35.836361","-78.641810","covid",,"false","18","0"
"df2d3a7c-c13c-4324-998a-b0d6e36e9228","325556","(706) 307-5053","Food City Pharmacy #212 #325556","225 Lovers Lane","Food City Pharmacy #212","CALHOUN","GA","30701","12:00 PM - 6:00 PM","9:00 AM - 7:00 PM","9:00 AM - 7:00 PM","9:00 AM - 7:00 PM","9:00 AM - 7:00 PM","9:00 AM - 7:00 PM","9:00 AM - 6:00 PM","http://www.foodcity.com",,"true","false","Please call ahead","59267-1055-01","Pfizer-BioNTech, COVID-19 Vaccine, 10 mcg/0.2 mL, tris-sucrose","false","0","2022-04-15","34.494189","-84.918044","covid",,"true","0","5"
"1cf51dec-9014-4757-8f1a-59470582c932","Not applicable","229-312-7141","Phoebe Putney Hematology/Oncology","427 Third Avenue","Suite 100","Albany","GA","31701",,,,,,,,,,,,,"80777-0273-10","Moderna, COVID-19 Vaccine, 100mcg/0.5mL 10 dose","true","4","2022-08-03","31.590233","-84.157871","covid",,"false",,
"ecbfae62-9abb-4f07-831f-49f4e1c208cc","3577","386-789-6096","Walgreens Co. #3577","1925 PROVIDENCE BLVD","-","DELTONA","FL","32725-3945","09:00AM - 05:00PM","09:00AM - 09:00PM","09:00AM - 09:00PM","09:00AM - 09:00PM","09:00AM - 09:00PM","09:00AM - 09:00PM","09:00AM - 06:00PM","https://www.walgreens.com","https://www.walgreens.com/findcare/vaccination/covid-19","true","false","Appointments are required to receive a COVID-19 vaccine. No walk-ins are accepted at this time.","59267-1055-01","Pfizer-BioNTech, COVID-19 Vaccine, 10 mcg/0.2 mL, tris-sucrose","true","0","2022-04-23","28.917870","-81.220256","covid",,"false",,
"8d9a2337-1636-45f0-9029-01bf62fc382d","Not applicable","(731) 852-2461","DECATUR COUNTY HEALTH DEPARTMENT","155 N PLEASANT ST.",,"DECATURVILLE","TN","38329",,"8:00 AM - 4:30 PM","8:00 AM - 4:30 PM","8:00 AM - 4:30 PM","8:00 AM - 4:30 PM","8:00 AM - 4:30 PM",,"https://covid19.tn.gov/","https://vaccinate.tn.gov",,"false",,"59267-1000-01","Pfizer-BioNTech, COVID-19 Vaccine, 30 mcg/0.3mL","false","0","2022-05-02","35.586447","-88.120177","covid",,"false",,
"65b16848-2515-488d-8616-927229e60f10","Not applicable","(714) 954-1902","First Street Medical Plaza Pharmacy","2010 E First St STE 120",,"santa ana","CA","92705","Closed","9:00 AM - 7:00 PM","9:00 AM - 7:00 PM","9:00 AM - 7:00 PM","9:00 AM - 7:00 PM","9:00 AM - 7:00 PM","9:00 AM - 2:00 PM","https://www.firststreetcompoundingrx.com/",,"true","true",,"59267-1000-01","Pfizer-BioNTech, COVID-19 Vaccine, 30 mcg/0.3mL","false","0","2022-07-20","33.745372","-117.838609","covid",,"false","0","3"
"3e43e6c0-bb70-4631-b4c1-0b49d27a0440","Not applicable","(501) 451-7715","The Pharmacy of Shannon Hills","13907 High Rd",,"Mabelvale","AR","72103","Closed","9:00 AM - 6:00 PM","9:00 AM - 6:00 PM","9:00 AM - 6:00 PM","9:00 AM - 6:00 PM","9:00 AM - 6:00 PM","9:00 AM - 12:00 PM",,,"true","true","Unless you are getting a first dose, please bring your COVID-19 vaccine record card with you.","80777-0273-10","Moderna, COVID-19 Vaccine, 100mcg/0.5mL 10 dose","true","-1","2022-07-16","34.623998","-92.394901","covid",,"false","0","5"
"23071bf5-2f6c-4495-ae0d-848359a1a3de","RA101260","513-420-2546","Rite Aid #RA101260","1915 CENTRAL AVENUE",,"MIDDLETOWN","OH","45044-4401","10:00 AM-6:00 PM","09:00 AM-9:00 PM","09:00 AM-9:00 PM","09:00 AM-9:00 PM","09:00 AM-9:00 PM","09:00 AM-9:00 PM","09:00 AM-6:00 PM","https://www.riteaid.com","https://www.riteaid.com/pharmacy/scheduler","true","true","Please consult RiteAid.com for more details and information.","59267-1025-01","Pfizer-BioNTech, COVID-19 Vaccine, 30 mcg/0.3mL, tris-sucrose","true","-1","2022-05-19","39.513362","-84.390892","covid",,"false","0","3"
"307d5a27-eb62-47f4-a246-c6c7055edd6c","Not applicable","(405) 419-4150","CCHDOC HEALTH CENTER WEST","4300 NW 10th St",,"Oklahoma City","OK","73107","Closed","8:00 AM - 4:00 PM","8:00 AM - 4:00 PM","8:00 AM - 4:00 PM","8:00 AM - 4:00 PM","8:00 AM - 4:00 PM","Closed","http://www.occhd.org",,"true","true","Appointments are strongly recommended","59267-1000-01","Pfizer-BioNTech, COVID-19 Vaccine, 30 mcg/0.3mL","false","0","2022-06-24","35.478765","-97.596241","covid",,"false",,
"83c8f562-96ec-4933-a1e6-6c09b63a5960","049499","814-342-1752","Weis Pharmacy #118 #049499","501 N CENTRE STREET","Weis Pharmacy #118","PHILIPSBURG","PA","16866","9:00 AM - 5:00 PM","9:00 AM - 9:00 PM","9:00 AM - 9:00 PM","9:00 AM - 9:00 PM","9:00 AM - 9:00 PM","9:00 AM - 9:00 PM","9:00 AM - 6:00 PM","http://www.weismarkets.com","https://www.weismarkets.com/pharmacy-services","true","true","Please consider scheduling an appointment. Limited walkins are welcome based on availbility. Vaccine administered each day is shown when you schedule. We will schedule your second dose appointment when you come to your first dose appointment.","59267-1025-01","Pfizer-BioNTech, COVID-19 Vaccine, 30 mcg/0.3mL, tris-sucrose","true","3","2022-06-28","40.901176","-78.224835","covid",,"true",,
"ed57a872-4022-4d42-b46f-06ea0c5ee8c3","22513","7028737171","MinuteClinic #22513","3550 W. SAHARA AVE",,"LAS VEGAS","NV","89102",,,,,,,,,,"false","false",,"59267-1000-01","Pfizer-BioNTech, COVID-19 Vaccine, 30 mcg/0.3mL","false","0","2022-06-24","36.145952","-115.189009","covid",,"false","18","0"
"ec279001-7904-40e6-b509-90bcbfa8d20c","RA106267","562-696-1015","Rite Aid #RA106267","6512 COMSTOCK AVENUE",,"WHITTIER","CA","90601-4103","10:00 AM-6:00 PM","09:00 AM-9:00 PM","09:00 AM-9:00 PM","09:00 AM-9:00 PM","09:00 AM-9:00 PM","09:00 AM-9:00 PM","09:00 AM-6:00 PM","https://www.riteaid.com","https://www.riteaid.com/pharmacy/scheduler","true","false","Please consult RiteAid.com for more details and information.","59267-1000-01","Pfizer-BioNTech, COVID-19 Vaccine, 30 mcg/0.3mL","false","0","2022-08-03","33.982444","-118.038278","covid",,"false","0","3"
"4ceaa08f-252e-437f-8ec3-294977b49808","341672","(606) 248-7689","Food City Pharmacy #428 #341672","110 N 11th Street","Food City Pharmacy #428","MIDDLESBORO","KY","40965",,"9:00 AM - 7:00 PM","9:00 AM - 7:00 PM","9:00 AM - 7:00 PM","9:00 AM - 7:00 PM","9:00 AM - 7:00 PM","9:00 AM - 3:00 PM","http://www.foodcity.com",,"true","false",,"59267-1000-01","Pfizer-BioNTech, COVID-19 Vaccine, 30 mcg/0.3mL","false","0","2022-03-25","36.609154","-83.700686","covid",,"true","0","5"
"9b187763-c20b-4ccd-a0c7-dbd574f3741f","Not applicable","770-723-9460","Getwell Pharmacy","2579 lawrenceville highway, suite a1",,"decatur","GA","30033",,,,,,,,,,,,,"59267-1000-01","Pfizer-BioNTech, COVID-19 Vaccine, 30 mcg/0.3mL","true","1","2022-05-03","33.822098","-84.262819","covid",,"false",,
"ffad3b82-a9c0-4c4d-9930-c603e7700e87","RA105429","000-000-0000","Rite Aid #RA105429","500 SOUTH BROADWAY",,"LOS ANGELES","CA","90013-2301","10:00 AM-6:00 PM","08:00 AM-9:00 PM","08:00 AM-9:00 PM","08:00 AM-9:00 PM","08:00 AM-9:00 PM","08:00 AM-9:00 PM","09:00 AM-6:00 PM","https://www.riteaid.com","https://www.riteaid.com/pharmacy/scheduler","true","false","Please consult RiteAid.com for more details and information.","59267-1055-01","Pfizer-BioNTech, COVID-19 Vaccine, 10 mcg/0.2 mL, tris-sucrose","false","0","2022-05-11","34.047868","-118.250660","covid",,"false","0","3"
"845a9764-960b-46b0-a1f1-ecf59e4b6731","Not applicable","479-738-2612","Madison County Health Unit","709 College Avenue",,"Huntsville","AR","72740",,,,,,,,,,,,,"59267-1000-01","Pfizer-BioNTech, COVID-19 Vaccine, 30 mcg/0.3mL","false","0","2022-07-14","36.094044","-93.737122","covid",,"false",,
"16d13e4b-9b65-46ab-90d5-22a98a9b6bc5","Not applicable","(434) 969-4244","Buckingham County Health Department","80 Administration Lane","80 Administration Lane","BUCKINGHAM","VA","23921","Closed","8:00 AM - 4:30 PM","8:00 AM - 4:30 PM","8:00 AM - 4:30 PM","8:00 AM - 4:30 PM","8:00 AM - 4:30 PM","Closed","https://www.vdh.virginia.gov/piedmont/","https://cw2-virginia-production.herokuapp.com/clinic/search","false","true","Mask are required.","59267-1000-01","Pfizer-BioNTech, COVID-19 Vaccine, 30 mcg/0.3mL","false","0","2022-07-27","37.551982","-78.552200","covid",,"false",,
