"creation_date","status","completion_date","service_request_number","type_of_service_request","current_activity","most_recent_action","number_of_potholes_filled_on_block","street_address","zip","x_coordinate","y_coordinate","ward","police_district","community_area","ssa","latitude","longitude","location"
"2018-12-18T00:00:00.000","Open",,"18-03388657","Pothole in Street",,,,"1899 S KOMENSKY AVE","60623","1149688.8000169","1890340.06988694","24","10","29",,"41.855111502863174","-87.72591769201104","(41.855111502863, -87.725917692011)"
"2018-12-18T00:00:00.000","Open",,"18-03387491","Pothole in Street",,,,"3530 W GOVERNORS PKWY","60624","1152676.87747382","1902496.78467038","27","11","23",,"41.88841687323832","-87.71482114026932","(41.888416873238, -87.714821140269)"
"2018-12-18T00:00:00.000","Open",,"18-03388378","Pothole in Street",,,,"1358 S KEDZIE AVE","60623","1155250.26342208","1893263.98597806","24","10","29",,"41.86252937656554","-87.70570454286509","(41.862529376566, -87.705704542865)"
"2018-12-18T00:00:00.000","Open",,"18-03388180","Pothole in Street",,,,"4100 S WESTERN BLVD","60609","1161201.93739524","1877426.20002426","12","9","58",,"41.81924669608576","-87.68430532227995","(41.819246696086, -87.68430532228)"
"2018-12-18T00:00:00.000","Open",,"18-03388493","Pothole in Street",,,,"5230 S NEW ENGLAND AVE","60638","1131270.95041735","1869126.33708118","23","8","56",,"41.7967447072089","-87.79428866380958","(41.796744707209, -87.79428866381)"
"2018-12-18T00:00:00.000","Open - Dup",,"18-03387472","Pothole in Street",,,,"600 S CENTRAL AVE","60644","1139150.09611752","1896761.21989853","29","15","25",,"41.872772222188686","-87.76473185047905","(41.872772222189, -87.764731850479)"
"2018-12-18T00:00:00.000","Open",,"18-03388112","Pothole in Street",,,,"5400 N WESTERN AVE","60625","1159364.4210923","1935786.95998239","40","20","4",,"41.979613525431304","-87.68944583164604","(41.979613525431, -87.689445831646)"
"2018-12-18T00:00:00.000","Open - Dup",,"18-03388379","Pothole in Street",,,,"1959 S TROY ST","60623","1155669.85011488","1890142.12140968","24","10","29",,"41.85370382163392","-87.7039464929227","(41.853703821634, -87.703946492923)"
"2018-12-18T00:00:00.000","Open",,"18-03387458","Pothole in Street",,,,"908 S CAMPBELL AVE","60612","1159861.46119611","1895933.91187577","28","11","28",,"41.86992746440123","-87.68871018865747","(41.869927464401, -87.688710188657)"
"2018-12-18T00:00:00.000","Open",,"18-03386479","Pothole in Street",,,,"1819 W HOWARD ST","60626","1162683.80480849","1950346.87997149","49","24","1","19","42.01929659502752","-87.67642786238677","(42.019296595028, -87.676427862387)"
"2018-12-18T00:00:00.000","Open",,"18-03388384","Pothole in Street",,,,"1959 S TROY ST","60623","1155669.85011488","1890142.12140968","24","10","29",,"41.85370382163392","-87.7039464929227","(41.853703821634, -87.703946492923)"
"2018-12-18T00:00:00.000","Open",,"18-03387502","Pothole in Street",,,,"2421 W 21ST PL","60608","1160589.58466936","1889668.10039763","28","10","31",,"41.852826019085306","-87.68653567831282","(41.852826019085, -87.686535678313)"
"2018-12-18T00:00:00.000","Open",,"18-03388778","Pothole in Street",,,,"8247 S GREEN ST","60620","1172071.58412643","1850163.22816731","21","6","71",,"41.743767878411894","-87.64491044437408","(41.743767878412, -87.644910444374)"
"2018-12-18T00:00:00.000","Open",,"18-03387505","Pothole in Street",,,,"1145 S FAIRFIELD AVE","60612","1158185.76923213","1894949.25411183","28","11","29",,"41.86699199133602","-87.69460863867191","(41.866991991336, -87.694608638672)"
"2018-12-18T00:00:00.000","Open",,"18-03388109","Pothole in Street",,,,"6300 S NARRAGANSETT AVE","60638","1134830.54602004","1862059.11078004","23","8","64",,"41.77762816475196","-87.78141062035807","(41.777628164752, -87.781410620358)"
"2018-12-18T00:00:00.000","Open",,"18-03387600","Pothole in Street",,,,"2747 N LARAMIE AVE","60639","1141239.63830315","1917871.33251029","31","25","19",,"41.93100789238241","-87.75625884592907","(41.931007892382, -87.756258845929)"
"2018-12-18T00:00:00.000","Open",,"18-03387506","Pothole in Street",,,,"1145 S WASHTENAW AVE","60612","1158537.44587029","1894956.8624811","28","11","29",,"41.867010107834254","-87.69329837456898","(41.867010107834, -87.693298374569)"
"2018-12-18T00:00:00.000","Open",,"18-03389578","Pothole in Street",,,,"2640 N SHEFFIELD AVE","60614","1169170.32437943","1917720.56430567","43","19","7","35","41.93011044391672","-87.6539198075495","(41.930110443917, -87.653919807549)"
"2018-12-18T00:00:00.000","Open",,"18-03389579","Pothole in Street",,,,"2600 N LAKEWOOD AVE","60614","1167191.34012594","1917393.4659754","32","19","7",,"41.92897503655794","-87.66119107601604","(41.928975036558, -87.661191076016)"
"2018-12-18T00:00:00.000","Open",,"18-03389580","Pothole in Street",,,,"1127 W SCHUBERT AVE","60614","1168321.50187901","1918084.14358472","43","19","7","35","41.93064744689892","-87.6573058309955","(41.930647446899, -87.657305830995)"
"2018-12-17T00:00:00.000","Open - Dup",,"18-03383448","Pothole in Street",,,,"6459 S CENTRAL AVE","60638","1140199.81946995","1861100.86308788","13","8","64",,"41.774438983976864","-87.76143851514215","(41.774438983977, -87.761438515142)"
"2018-12-17T00:00:00.000","Completed","2018-12-18T00:00:00.000","18-03378491","Pothole in Street","Final Outcome","Completed Upon Arrival","0","719 N DRAKE AVE","60624","1152585.37098817","1904606.18652342","27","11","23","63","41.89433511721722","-87.71491241815832","(41.894335117217, -87.714912418158)"
"2018-12-17T00:00:00.000","Open",,"18-03381400","Pothole in Street",,,,"1644 N CAMPBELL AVE","60647","1159445.30297113","1910853.05051695","1","14","24",,"41.91162476020431","-87.68984235410377","(41.911624760204, -87.689842354104)"
"2018-12-17T00:00:00.000","Open",,"18-03382923","Pothole in Street",,,,"5046 N AVERS AVE","60625","1149804.01901532","1933256.08799748","39","17","14",,"41.9733138637925","-87.72467756176701","(41.973313863793, -87.724677561767)"
"2018-12-17T00:00:00.000","Open",,"18-03380164","Pothole in Street",,,,"10000 S LOWE AVE","60628","1173734.22041523","1838565.30998811","34","22","73",,"41.71233837166806","-87.63948165944346","(41.712338371668, -87.639481659443)"
"2018-12-17T00:00:00.000","Open",,"18-03379342","Pothole in Street",,,,"4830 S KEATING AVE","60632","1145506.57919804","1872182.16020474","14","8","56",,"41.8048706782867","-87.74200549806393","(41.804870678287, -87.742005498064)"
"2018-12-17T00:00:00.000","Open",,"18-03381920","Pothole in Street",,,,"2370 N NEWLAND AVE","60707","1129700.9822229","1914748.25856803","36","25","18",,"41.9232620326082","-87.79904448015613","(41.923262032608, -87.799044480156)"
"2018-12-17T00:00:00.000","Open - Dup",,"18-03379716","Pothole in Street",,,,"1599 N LA SALLE DR","60610","1174833.52052965","1910995.31348677","2","18","8",,"41.91106533115013","-87.63300048150086","(41.91106533115, -87.633000481501)"
"2018-12-17T00:00:00.000","Open - Dup",,"18-03384651","Pothole in Street",,,,"3700 E 116TH ST","60617","1202574.53596908","1828662.75979885","10","4","52",,"41.68468168923334","-87.53399386018766","(41.684681689233, -87.533993860188)"
"2018-12-17T00:00:00.000","Open",,"18-03382605","Pothole in Street",,,,"9036 S CLAREMONT AVE","60643","1162287.24363194","1844663.99651457","19","22","72",,"41.728964651476446","-87.68122368217455","(41.728964651476, -87.681223682175)"
"2018-12-17T00:00:00.000","Open",,"18-03385110","Pothole in Street",,,,"4180 W 82ND ST","60652","1149961.97427802","1849732.88718016","18","8","70",,"41.74365709218734","-87.72643422579526","(41.743657092187, -87.726434225795)"
"2018-12-17T00:00:00.000","Open - Dup",,"18-03385040","Pothole in Street",,,,"3200 W DIVISION ST","60651","1154811.84069413","1907804.70387224","26","14","23",,"41.902940471512245","-87.70691351268165","(41.902940471512, -87.706913512682)"
"2018-12-17T00:00:00.000","Open",,"18-03384650","Pothole in Street",,,,"6447 S STONY ISLAND AVE","60637","1187987.30001998","1862549.51996782","5","3","42",,"41.77740716847427","-87.58620654970282","(41.777407168474, -87.586206549703)"
"2018-12-17T00:00:00.000","Open - Dup",,"18-03381143","Pothole in Street",,,,"4118 N RIDGEWAY AVE","60618","1150655.57329408","1927110.51711151","39","17","16",,"41.9561571036796","-87.72170494531612","(41.95615710368, -87.721704945316)"
"2018-12-17T00:00:00.000","Open - Dup",,"18-03378504","Pothole in Street",,,,"398 E LOWER WACKER DR","60601","1179158.19671798","1902504.42402091","42","1","32",,"41.88788503584082","-87.61766861893602","(41.887885035841, -87.617668618936)"
"2018-12-17T00:00:00.000","Open",,"18-03380032","Pothole in Street",,,,"7940 S WOLCOTT AVE","60620","1165069.59537199","1852014.84090198","17","6","71",,"41.74903930606346","-87.67082665285308","(41.749039306063, -87.670826652853)"
"2018-12-17T00:00:00.000","Open",,"18-03382198","Pothole in Street",,,,"1348 E 89TH ST","60619","1186757.03007687","1846238.33683425","8","4","48",,"41.73330381435226","-87.59106354295659","(41.733303814352, -87.591063542957)"
"2018-12-17T00:00:00.000","Open",,"18-03382581","Pothole in Street",,,,"1415 W ELMDALE AVE","60660","1165792.9041323","1939964.19139685","48","20","77",,"41.99074014010267","-87.66581300476278","(41.990740140103, -87.665813004763)"
"2018-12-17T00:00:00.000","Open",,"18-03377810","Pothole in Street",,,,"945 W DIVERSEY PKWY","60614","1169394.49998166","1918783.89989337","43","19","7","17","41.93254031399874","-87.65320388258459","(41.932540313999, -87.653203882585)"
"2018-12-17T00:00:00.000","Open",,"18-03382580","Pothole in Street",,,,"5508 S WHIPPLE ST","60629","1156983.41987588","1867954.63147321","14","8","63",,"41.793262715166","-87.70003353845321","(41.793262715166, -87.700033538453)"
"2018-12-17T00:00:00.000","Open - Dup",,"18-03382990","Pothole in Street",,,,"611 S LOCKWOOD AVE","60644","1141104.73241824","1896766.2303002","29","15","25",,"41.872547642677816","-87.75725426576209","(41.872547642678, -87.757254265762)"
"2018-12-17T00:00:00.000","Open",,"18-03382504","Pothole in Street",,,,"7200 W WAVELAND AVE","60634","1127417.48761115","1923637.35986669","38","16","17",,"41.94689279880797","-87.80712131872366","(41.946892798808, -87.807121318724)"
"2018-12-17T00:00:00.000","Open",,"18-03379762","Pothole in Street",,,,"2065 W JARVIS AVE","60645","1161148.69001115","1948778.63523113","49","24","1",,"42.01503302456836","-87.68306810914865","(42.015033024568, -87.683068109149)"
"2018-12-17T00:00:00.000","Open - Dup",,"18-03382585","Pothole in Street",,,,"1067 W MONROE ST","60607","1169302.81937259","1899733.49228872","25","12","28",,"41.88025972510174","-87.65452292137972","(41.880259725102, -87.65452292138)"
"2018-12-17T00:00:00.000","Open",,"18-03384245","Pothole in Street",,,,"5709 N CENTRAL AVE","60646","1137869.61600844","1937631.06608789","39","16","11",,"41.9850426420961","-87.76815215478614","(41.985042642096, -87.768152154786)"
"2018-12-17T00:00:00.000","Open",,"18-03381945","Pothole in Street",,,,"2411 N NEWCASTLE AVE","60707","1130350.13989743","1915276.40242841","36","25","18",,"41.92396375825346","-87.79632883077312","(41.923963758253, -87.796328830773)"
"2018-12-17T00:00:00.000","Open",,"18-03377087","Pothole in Street",,,,"756 W 45TH ST","60609","1171931.22027118","1875015.78561719","11","9","61",,"41.812605574173304","-87.64549895462976","(41.812605574173, -87.64549895463)"
"2018-12-17T00:00:00.000","Open - Dup",,"18-03385674","Pothole in Street",,,,"4115 W 82ND PL","60652","1150328.9656272","1849476.59600037","18","8","70",,"41.74275057788119","-87.72475489936316","(41.742750577881, -87.724754899363)"
"2018-12-17T00:00:00.000","Open",,"18-03382660","Pothole in Street",,,,"1517 W WEBSTER AVE","60614","1165561.67002725","1914721.13048926","2","18","7",,"41.921483884349286","-87.6670918851356","(41.921483884349, -87.667091885136)"
"2018-12-17T00:00:00.000","Open",,"18-03386050","Pothole in Street",,,,"1053 E 92ND ST","60619","1184927.05809962","1844194.53478883","8","4","47",,"41.72752282915539","-87.59764889828494","(41.727522829155, -87.597648898285)"
"2018-12-17T00:00:00.000","Open",,"18-03380123","Pothole in Street",,,,"10300 S WALLACE ST","60628","1174121.86607922","1836581.70509004","34","22","49",,"41.70693203286429","-87.63812235867432","(41.706932032864, -87.638122358674)"
"2018-12-17T00:00:00.000","Open - Dup",,"18-03385359","Pothole in Street",,,,"1000 W 108TH ST","60643","1171570.85810865","1833200.86227797","34","22","75",,"41.697866493817806","-87.64759465514607","(41.697866493818, -87.647594655146)"
"2018-12-17T00:00:00.000","Open",,"18-03385440","Pothole in Street",,,,"750 N OGDEN AVE","60642","1168868.34681368","1905263.17281397","27","12","24","29","41.89554260169958","-87.65542424816536","(41.8955426017, -87.655424248165)"
"2018-12-17T00:00:00.000","Open - Dup",,"18-03378259","Pothole in Street",,,,"10545 S GREEN BAY AVE","60617","1200522.11567957","1835444.43898905","10","4","52",,"41.70320943312109","-87.54119331660218","(41.703209433121, -87.541193316602)"
"2018-12-17T00:00:00.000","Open",,"18-03378149","Pothole in Street",,,,"3428 W 71ST PL","60629","1154752.1261333","1856988.88992858","17","8","66",,"41.763490839819234","-87.70886370751252","(41.763490839819, -87.708863707513)"
"2018-12-17T00:00:00.000","Open - Dup",,"18-03385410","Pothole in Street",,,,"6400 N CENTRAL AVE","60646","1139065.68897259","1942131.004668","41","16","12",,"41.99738872050268","-87.76392151927979","(41.997388720503, -87.76392151928)"
"2018-12-17T00:00:00.000","Open",,"18-03383637","Pothole in Street",,,,"2251 S SPRINGFIELD AVE","60623","1150736.86688949","1888751.87172451","22","10","30",,"41.85010451857165","-87.7220917483531","(41.850104518572, -87.722091748353)"
"2018-12-17T00:00:00.000","Open",,"18-03381474","Pothole in Street",,,,"2410 W GRAND AVE","60612","1160158.11079528","1903398.46117353","26","12","24",,"41.890741273307825","-87.68725402902643","(41.890741273308, -87.687254029026)"
"2018-12-17T00:00:00.000","Open",,"18-03381490","Pothole in Street",,,,"1105 N CHRISTIANA AVE","60651","1153787.83338314","1907168.57506816","26","11","23",,"41.90122253739984","-87.71042463658812","(41.9012225374, -87.710424636588)"
"2018-12-17T00:00:00.000","Open",,"18-03382010","Pothole in Street",,,,"1001 S RACINE AVE","60607","1168528.71277242","1895727.02482459","25","12","28",,"41.86935997046203","-87.65660659387558","(41.869359970462, -87.656606593876)"
"2018-12-17T00:00:00.000","Open - Dup",,"18-03384654","Pothole in Street",,,,"2136 N AUSTIN AVE","60639","1136067.04472008","1913170.22332685","36","25","19",,"41.918985658086655","-87.775697880847","(41.918985658087, -87.775697880847)"
"2018-12-17T00:00:00.000","Open - Dup",,"18-03381051","Pothole in Street",,,,"4118 N RIDGEWAY AVE","60618","1150655.57329408","1927110.51711151","39","17","16",,"41.9561571036796","-87.72170494531612","(41.95615710368, -87.721704945316)"
"2018-12-17T00:00:00.000","Open",,"18-03378374","Pothole in Street",,,,"9400 S WOODLAWN AVE","60619","1185849.18592133","1842902.46292714","8","4","47",,"41.72401247428092","-87.59497952111779","(41.724012474281, -87.594979521118)"
"2018-12-17T00:00:00.000","Open",,"18-03382759","Pothole in Street",,,,"5300 N PIONEER AVE","60656","1120641.61580457","1934042.88859656","41","16","10",,"41.97547435696111","-87.83188863773381","(41.975474356961, -87.831888637734)"
"2018-12-17T00:00:00.000","Open",,"18-03383170","Pothole in Street",,,,"6644 S STONY ISLAND AVE","60637","1188045.24412257","1861257.01433097","5","3","42",,"41.77382462851612","-87.58644875714224","(41.773824628516, -87.586448757142)"
"2018-12-17T00:00:00.000","Open - Dup",,"18-03382056","Pothole in Street",,,,"1001 W MONROE ST","60607","1169787.28988757","1899747.68138926","25","12","28",,"41.88029792411268","-87.65212018836681","(41.880297924113, -87.652120188367)"
"2018-12-17T00:00:00.000","Open",,"18-03383660","Pothole in Street",,,,"4700 W BARRY AVE","60641","1144499.44599419","1920197.04501826","31","25","19",,"41.93714716613836","-87.74441834629596","(41.937147166138, -87.744418346296)"
"2018-12-17T00:00:00.000","Open",,"18-03379525","Pothole in Street",,,,"5300 S FRANCISCO AVE","60632","1157941.59130076","1869368.27810421","14","9","63",,"41.797201394934504","-87.69648504707081","(41.797201394935, -87.696485047071)"
"2018-12-17T00:00:00.000","Open",,"18-03379679","Pothole in Street",,,,"1934 W SCHOOL ST","60657","1162864.43878611","1921925.99639869","32","19","5",,"41.941520660599636","-87.67738366493512","(41.9415206606, -87.677383664935)"
"2018-12-17T00:00:00.000","Open",,"18-03378285","Pothole in Street",,,,"10556 S INDIANAPOLIS AVE","60617","1204904.60220407","1835673.07937259","10","4","52",,"41.70312195660828","-87.5251248470275","(41.703121956608, -87.525124847027)"
"2018-12-17T00:00:00.000","Open - Dup",,"18-03384703","Pothole in Street",,,,"1819 E 103RD ST","60617","1189885.47300423","1837040.98529605","10","4","51",,"41.707768628932584","-87.57989906736378","(41.707768628933, -87.579899067364)"
"2018-12-17T00:00:00.000","Open - Dup",,"18-03382546","Pothole in Street",,,,"2952 N SAYRE AVE","60634","1129073.46450026","1918927.75011361","29","25","18",,"41.93422554958617","-87.80123931568468","(41.934225549586, -87.801239315685)"
"2018-12-17T00:00:00.000","Open",,"18-03378454","Pothole in Street",,,,"4100 S WESTERN AVE","60609","1161049.85397488","1877405.8530677","12","9","58",,"41.819196100264044","-87.68486377651183","(41.819196100264, -87.684863776512)"
"2018-12-17T00:00:00.000","Open - Dup",,"18-03382860","Pothole in Street",,,,"2018 N SAWYER AVE","60647","1154185.6730785","1913316.08009173","26","14","22",,"41.917973013707666","-87.70909012204712","(41.917973013708, -87.709090122047)"
"2018-12-17T00:00:00.000","Open - Dup",,"18-03378243","Pothole in Street",,,,"620 S KOSTNER AVE","60624","1147150.73592304","1896850.70848194","24","11","26",,"41.87289883192081","-87.73535703886408","(41.872898831921, -87.735357038864)"
"2018-12-17T00:00:00.000","Open",,"18-03385577","Pothole in Street",,,,"333 N GREEN ST","60607","1170671.59523026","1902416.9381036","27","12","28",,"41.887808158349756","-87.64854522138359","(41.88780815835, -87.648545221384)"
"2018-12-17T00:00:00.000","Open",,"18-03384577","Pothole in Street","Complaint Crew","Create Work Order",,"6905 W SHAKESPEARE AVE","60707","1130011.38989836","1913602.79313107","29","25","25",,"41.91909363651703","-87.79775670427124","(41.919093636517, -87.797756704271)"
"2018-12-17T00:00:00.000","Completed","2018-12-18T00:00:00.000","18-03378095","Pothole in Street","Final Outcome","Pothole Patched","7","600 W LAKE ST","60661","1172288.98249819","1901697.439973","42","12","28",,"41.88581472403691","-87.64284713389955","(41.885814724037, -87.6428471339)"
"2018-12-17T00:00:00.000","Open - Dup",,"18-03383938","Pothole in Street",,,,"6126 N CENTRAL AVE","60646","1138672.75999472","1940661.77998146","39","16","12",,"41.993321415144095","-87.76541626342281","(41.993321415144, -87.765416263423)"
"2018-12-17T00:00:00.000","Open - Dup",,"18-03380687","Pothole in Street",,,,"2732 N MILWAUKEE AVE","60647","1153794.84453054","1917991.91432765","35","14","22",,"41.9307219977604","-87.7103454809135","(41.93072199776, -87.710345480913)"
"2018-12-17T00:00:00.000","Open - Dup",,"18-03382299","Pothole in Street",,,,"1063 W MONROE ST","60607","1169332.11937259","1899734.39228872","25","12","28",,"41.88026192379877","-87.65437689398802","(41.880261923799, -87.654376893988)"
"2018-12-17T00:00:00.000","Open - Dup",,"18-03385655","Pothole in Street",,,,"4119 W 82ND ST","60652","1150510.51930441","1849769.29057803","18","8","70",,"41.74347485642057","-87.72423771297979","(41.743474856421, -87.72423771298)"
"2018-12-17T00:00:00.000","Open",,"18-03378166","Pothole in Street",,,,"4400 W CONGRESS PKWY","60624","1147139.13706566","1897327.23090185","28","11","26",,"41.87433990121701","-87.73536535884803","(41.874339901217, -87.735365358848)"
"2018-12-17T00:00:00.000","Open",,"18-03379518","Pothole in Street",,,,"10200 S HALSTED ST","60628","1172777.87178041","1837211.18950197","34","22","73","45","41.708643985185354","-87.64302434778298","(41.708643985185, -87.643024347783)"
"2018-12-17T00:00:00.000","Open",,"18-03382273","Pothole in Street",,,,"1354 W SCHUBERT AVE","60614","1166737.94839691","1918042.18477973","32","19","7",,"41.93077804482135","-87.66327897374005","(41.930778044821, -87.66327897374)"
"2018-12-17T00:00:00.000","Open - Dup",,"18-03384499","Pothole in Street",,,,"328 N LAKE SHORE DR","60601","1180122.63110619","1902262.41959965","42","1","32",,"41.88709207291236","-87.61413825449038","(41.887092072912, -87.61413825449)"
"2018-12-17T00:00:00.000","Open",,"18-03378283","Pothole in Street",,,,"5603 W SEMINOLE ST","60646","1137835.15556751","1937545.06988387","45","16","11",,"41.98465596005587","-87.7684540439741","(41.984655960056, -87.768454043974)"
"2018-12-17T00:00:00.000","Open",,"18-03386304","Pothole in Street",,,,"6836 S SOUTH SHORE DR","60649","1193409.40599874","1860100.93993088","5","3","43",,"41.77061952039603","-87.56671434472828","(41.770619520396, -87.566714344728)"
"2018-12-17T00:00:00.000","Open",,"18-03382643","Pothole in Street",,,,"3623 N NORA AVE","60634","1128770.77960261","1923280.91542125","38","16","17",,"41.94607502129917","-87.8019563939807","(41.946075021299, -87.801956393981)"
"2018-12-17T00:00:00.000","Open",,"18-03379918","Pothole in Street",,,,"7600 W PALATINE AVE","60631","1124686.49910696","1941230.00800492","41","16","10",,"41.995212252720805","-87.81682797292893","(41.995212252721, -87.816827972929)"
"2018-12-17T00:00:00.000","Open",,"18-03381921","Pothole in Street",,,,"4400 W BELDEN AVE","60639","1146675.32900141","1914926.85461004","31","25","20",,"41.92264432557193","-87.7365574418826","(41.922644325572, -87.736557441883)"
"2018-12-17T00:00:00.000","Open - Dup",,"18-03379971","Pothole in Street",,,,"2541 N MARSHFIELD AVE","60614","1164905.5763285","1916942.08927879","32","19","7",,"41.92816497615842","-87.66932231266541","(41.928164976158, -87.669322312665)"
"2018-12-17T00:00:00.000","Open - Dup",,"18-03380759","Pothole in Street",,,,"1538 N LAVERGNE AVE","60651","1142759.68263349","1909763.95460798","37","25","25",,"41.908905085348735","-87.75116773989058","(41.908905085349, -87.751167739891)"
"2018-12-17T00:00:00.000","Open",,"18-03382491","Pothole in Street",,,,"3800 N OLCOTT AVE","60634","1125397.36032319","1924343.06227072","38","16","17",,"41.94882449625926","-87.8146176172865","(41.948824496259, -87.814617617286)"
"2018-12-17T00:00:00.000","Open",,"18-03380286","Pothole in Street",,,,"3542 N PULASKI RD","60641","1149096.31226721","1923380.65009403","30","17","16",,"41.94583563191895","-87.72753030453865","(41.945835631919, -87.727530304539)"
"2018-12-17T00:00:00.000","Open",,"18-03382611","Pothole in Street",,,,"3021 N NEWLAND AVE","60634","1129559.36468945","1919405.52007994","36","25","18",,"41.9351089372232","-87.79913507224762","(41.935108937223, -87.799135072248)"
"2018-12-17T00:00:00.000","Open",,"18-03383000","Pothole in Street",,,,"5042 W AINSLIE ST","60630","1141874.20677771","1932111.23581739","45","16","11",,"41.9698828327875","-87.7543828774266","(41.969882832788, -87.754382877427)"
"2018-12-17T00:00:00.000","Open",,"18-03382321","Pothole in Street",,,,"8350 W BELMONT AVE","60634","1119794.79001778","1920234.77940691","38","16","76",,"41.937676833565924","-87.83565526966795","(41.937676833566, -87.835655269668)"
"2018-12-17T00:00:00.000","Open - Dup",,"18-03381946","Pothole in Street",,,,"6711 W GRAND AVE","60707","1131268.820007","1915218.65022619","36","25","18",,"41.92350783399178","-87.79292057686727","(41.923507833992, -87.792920576867)"
"2018-12-17T00:00:00.000","Open",,"18-03381396","Pothole in Street",,,,"3116 N SACRAMENTO AVE","60618","1155832.64361066","1920677.84419468","33","14","21",,"41.93810949639904","-87.70283848162448","(41.938109496399, -87.702838481624)"
"2018-12-17T00:00:00.000","Open",,"18-03379830","Pothole in Street",,,,"2305 W 34TH ST","60608","1161524.13052066","1882086.55220144","12","9","59",,"41.83201089933672","-87.68289224737207","(41.832010899337, -87.682892247372)"
"2018-12-17T00:00:00.000","Open",,"18-03378466","Pothole in Street",,,,"1405 W BELLE PLAINE AVE","60613","1166191.5288731","1927333.52757783","47","19","6",,"41.9560719242627","-87.66458335711005","(41.956071924263, -87.66458335711)"
"2018-12-17T00:00:00.000","Completed - Dup","2018-12-31T00:00:00.000","18-03378790","Pothole in Street",,,,"415 S FINANCIAL PL","60605","1174948.39997362","1898426.27996782","4","1","32",,"41.876479996475894","-87.63295634334027","(41.876479996476, -87.63295634334)"
"2018-12-17T00:00:00.000","Open - Dup",,"18-03382317","Pothole in Street",,,,"4900 N OAK PARK AVE","60656","1130246.04529918","1932177.08548641","41","16","10",,"41.97026117103271","-87.79660953533383","(41.970261171033, -87.796609535334)"
"2018-12-17T00:00:00.000","Open",,"18-03383626","Pothole in Street",,,,"10359 S FAIRFIELD AVE","60655","1159974.15138761","1835841.0185009","19","22","72",,"41.70460766628284","-87.68963711958753","(41.704607666283, -87.689637119588)"
"2018-12-17T00:00:00.000","Open",,"18-03384523","Pothole in Street",,,,"300 S HOMAN AVE","60624","1153764.16231857","1898484.48919117","28","11","27",,"41.877259891814624","-87.71103208695621","(41.877259891815, -87.711032086956)"
"2018-12-17T00:00:00.000","Open",,"18-03383018","Pothole in Street",,,,"10300 S COTTAGE GROVE AVE","60628","1182710.77469903","1836817.85018685","9","5","49","41","41.70740511783126","-87.6066722152349","(41.707405117831, -87.606672215235)"
"2018-12-17T00:00:00.000","Open",,"18-03381825","Pothole in Street",,,,"7558 W DEVON AVE","60631","1125036.81682883","1941926.20672501","41","16","9",,"41.99710778572572","-87.81587891536907","(41.997107785726, -87.815878915369)"
"2018-12-17T00:00:00.000","Open",,"18-03384615","Pothole in Street",,,,"3707 E 116TH ST","60617","1202649.03596908","1828663.15979885","10","4","52",,"41.68446143369229","-87.5337230146384","(41.684461433692, -87.533723014638)"
"2018-12-17T00:00:00.000","Open - Dup",,"18-03378281","Pothole in Street",,,,"5806 W BRYN MAWR AVE","60646","1136477.10052478","1936863.48373126","45","16","11",,"41.983028719895685","-87.77351105649434","(41.983028719896, -87.773511056494)"
"2018-12-17T00:00:00.000","Open",,"18-03379552","Pothole in Street",,,,"2802 W 54TH ST","60632","1158604.646832","1868724.35603331","14","9","63",,"41.79562231141972","-87.69400448637434","(41.79562231142, -87.694004486374)"
"2018-12-17T00:00:00.000","Open",,"18-03380063","Pothole in Street",,,,"6030 N NAGLE AVE","60646","1132611.38529668","1939606.43299118","41","16","10",,"41.99104440231843","-87.78773227744551","(41.991044402318, -87.787732277446)"
"2018-12-17T00:00:00.000","Open",,"18-03378942","Pothole in Street",,,,"1940 W NORTH AVE","60622","1163043.404925","1910661.152875","2","14","24","33","41.91061014015064","-87.67661047795522","(41.910610140151, -87.676610477955)"
"2018-12-17T00:00:00.000","Open",,"18-03386292","Pothole in Street",,,,"2356 E 71ST ST","60649","1193227.469982","1858258.3814703","5","3","43","42","41.76643484190554","-87.5667285266227","(41.766434841906, -87.566728526623)"
"2018-12-17T00:00:00.000","Open",,"18-03378282","Pothole in Street",,,,"5606 W BRYN MAWR AVE","60646","1137798.72709535","1936879.05288981","45","16","11",,"41.98304770582163","-87.76867807380378","(41.983047705822, -87.768678073804)"
"2018-12-17T00:00:00.000","Open",,"18-03383604","Pothole in Street",,,,"1646 N NATOMA AVE","60707","1131831.74507466","1910229.35507342","29","25","25",,"41.910452736392216","-87.7913085628961","(41.910452736392, -87.791308562896)"
"2018-12-17T00:00:00.000","Open",,"18-03385374","Pothole in Street",,,,"10800 S SANGAMON ST","60643","1171903.68002667","1833208.49000147","34","22","75",,"41.697678793022924","-87.64634214647918","(41.697678793023, -87.646342146479)"
"2018-12-17T00:00:00.000","Open - Dup",,"18-03383861","Pothole in Street",,,,"4300 W SCHUBERT AVE","60639","1147257.3372273","1917603.74688422","31","25","20",,"41.929977591103324","-87.73441418623048","(41.929977591103, -87.73441418623)"
"2018-12-17T00:00:00.000","Open",,"18-03383449","Pothole in Street",,,,"3411 S EMERALD AVE","60616","1171858.5224911","1882265.31648973","11","9","60",,"41.83222094054088","-87.64477592217438","(41.832220940541, -87.644775922174)"
"2018-12-17T00:00:00.000","Open",,"18-03382675","Pothole in Street",,,,"2640 W MONROE ST","60612","1158767.89741961","1899585.94372418","27","11","27",,"41.88030732516948","-87.69303585630158","(41.880307325169, -87.693035856302)"
"2018-12-17T00:00:00.000","Open - Dup",,"18-03384653","Pothole in Street",,,,"11203 S AVENUE J","60617","1202544.56399931","1831289.99379387","10","4","52",,"41.691690165121436","-87.53392872671725","(41.691690165121, -87.533928726717)"
"2018-12-17T00:00:00.000","Open",,"18-03383135","Pothole in Street",,,,"3925 W 68TH PL","60629","1151380.93958865","1858890.69367215","13","8","65","3","41.76855589052605","-87.72108699237371","(41.768555890526, -87.721086992374)"
"2018-12-17T00:00:00.000","Open - Dup",,"18-03382924","Pothole in Street",,,,"5046 N AVERS AVE","60625","1149804.01901532","1933256.08799748","39","17","14",,"41.9733138637925","-87.72467756176701","(41.973313863793, -87.724677561767)"
"2018-12-17T00:00:00.000","Open",,"18-03379941","Pothole in Street",,,,"6200 N OLCOTT AVE","60631","1125515.4554321","1940661.89250271","41","16","10",,"41.99358085119744","-87.81381698262697","(41.993580851197, -87.813816982627)"
"2018-12-17T00:00:00.000","Open - Dup",,"18-03383489","Pothole in Street",,,,"9500 S STONY ISLAND AVE","60617","1188504.43430277","1842299.31671488","8","5","51",,"41.72225727300588","-87.58527556507723","(41.722257273006, -87.585275565077)"
"2018-12-17T00:00:00.000","Open",,"18-03381370","Pothole in Street",,,,"2300 N WESTERN AVE","60647","1159980.1389127","1915330.37997532","1","14","22","33","41.923335003623606","-87.6877427986446","(41.923335003624, -87.687742798645)"
"2018-12-17T00:00:00.000","Open - Dup",,"18-03380161","Pothole in Street",,,,"6800 W BELDEN AVE","60707","1130711.1243981","1914323.32090821","36","25","18",,"41.92127775145258","-87.79526007003588","(41.921277751453, -87.795260070036)"
"2018-12-17T00:00:00.000","Open",,"18-03379926","Pothole in Street",,,,"7500 W HORTENSE AVE","60631","1125534.73477741","1941718.51813291","41","16","10",,"41.9965379038021","-87.813736474474","(41.996537903802, -87.813736474474)"
"2018-12-17T00:00:00.000","Open",,"18-03379292","Pothole in Street",,,,"854 E 40TH ST","60653","1182837.77511855","1878432.60420368","4","2","36",,"41.82188761389607","-87.60432147305595","(41.821887613896, -87.604321473056)"
"2018-12-17T00:00:00.000","Open - Dup",,"18-03382952","Pothole in Street",,,,"5046 N AVERS AVE","60625","1149804.01901532","1933256.08799748","39","17","14",,"41.9733138637925","-87.72467756176701","(41.973313863793, -87.724677561767)"
"2018-12-17T00:00:00.000","Open - Dup",,"18-03382202","Pothole in Street",,,,"1043 W MONROE ST","60607","1169478.98988757","1899738.68138926","25","12","28",,"41.880273519341316","-87.65364902536925","(41.880273519341, -87.653649025369)"
"2018-12-17T00:00:00.000","Open",,"18-03382135","Pothole in Street",,,,"4756 W 85TH ST","60652","1146134.84970985","1847749.85468136","18","8","70",,"41.73829900990952","-87.74082751260164","(41.73829900991, -87.740827512602)"
"2018-12-17T00:00:00.000","Open",,"18-03378165","Pothole in Street",,,,"1121 N LATROBE AVE","60651","1141154.95651471","1906966.11871833","37","15","25",,"41.90106680798959","-87.75683367384009","(41.90106680799, -87.75683367384)"
"2018-12-17T00:00:00.000","Open",,"18-03382231","Pothole in Street",,,,"1344 E 88TH ST","60619","1186717.17058041","1846902.79442069","8","4","48","50","41.73512813995258","-87.59118119252408","(41.735128139953, -87.591181192524)"
"2018-12-17T00:00:00.000","Open - Dup",,"18-03383550","Pothole in Street",,,,"10550 S AVENUE E","60617","1203821.48118116","1835952.92229254","10","4","52",,"41.703023006455915","-87.52938437117214","(41.703023006456, -87.529384371172)"
"2018-12-17T00:00:00.000","Open",,"18-03384843","Pothole in Street",,,,"4711 N VIRGINIA AVE","60625","1156969.44120777","1931187.49999078","40","19","4",,"41.96703545019651","-87.6981260789065","(41.967035450197, -87.698126078906)"
"2018-12-17T00:00:00.000","Open",,"18-03385116","Pothole in Street",,,,"4503 S KILDARE BLVD","60632","1148398.25010894","1874430.9871155","14","8","57",,"41.81128664727795","-87.73105647147105","(41.811286647278, -87.731056471471)"
"2018-12-17T00:00:00.000","Open - Dup",,"18-03381642","Pothole in Street",,,,"4010 N PULASKI RD","60641","1149009.23677118","1926348.65989102","39","17","16",,"41.954020826585065","-87.72777414748239","(41.954020826585, -87.727774147482)"
"2018-12-17T00:00:00.000","Open - Dup",,"18-03381377","Pothole in Street",,,,"6000 N CENTRAL AVE","60646","1138470.75402589","1939744.0090788","39","16","12",,"41.99088902192185","-87.76616908690622","(41.990889021922, -87.766169086906)"
"2018-12-17T00:00:00.000","Open",,"18-03385654","Pothole in Street",,,,"4155 W 82ND PL","60652","1150049.87000743","1849468.21099262","18","8","70",,"41.74272561139866","-87.7262279068276","(41.742725611399, -87.726227906828)"
"2018-12-17T00:00:00.000","Open - Dup",,"18-03378708","Pothole in Street",,,,"4200 W CULLOM AVE","60641","1147631.49301898","1928247.45921602","39","17","16",,"41.95917821873021","-87.73271583693095","(41.95917821873, -87.732715836931)"
"2018-12-17T00:00:00.000","Open - Dup",,"18-03378915","Pothole in Street",,,,"2022 W NORTH AVE","60647","1162600.21848325","1910644.74219595","2","14","24","33","41.91058107623684","-87.67826840667618","(41.910581076237, -87.678268406676)"
"2018-12-17T00:00:00.000","Open",,"18-03379758","Pothole in Street",,,,"1402 W WARNER AVE","60613","1166208.79999918","1927666.13998033","47","19","6",,"41.95720274382897","-87.6645329321541","(41.957202743829, -87.664532932154)"
"2018-12-17T00:00:00.000","Open - Dup",,"18-03379447","Pothole in Street",,,,"4856 S KEATING AVE","60632","1145511.2504684","1872007.68292571","14","8","56",,"41.804135476965754","-87.74198749009386","(41.804135476966, -87.741987490094)"
"2018-12-17T00:00:00.000","Open - Dup",,"18-03382183","Pothole in Street",,,,"1049 W MONROE ST","60607","1169434.88988757","1899737.38138926","25","12","28",,"41.880270041162525","-87.65386738598002","(41.880270041163, -87.65386738598)"
"2018-12-17T00:00:00.000","Open",,"18-03381588","Pothole in Street",,,,"6231 W GUNNISON ST","60630","1133536.98998085","1931573.32769506","38","16","15",,"41.968345033215186","-87.78443621708955","(41.968345033215, -87.78443621709)"
"2018-12-17T00:00:00.000","Open - Dup",,"18-03382288","Pothole in Street",,,,"1037 W MONROE ST","60607","1169522.98988757","1899739.98138926","25","12","28",,"41.88027699711","-87.65343066474605","(41.88027699711, -87.653430664746)"
"2018-12-17T00:00:00.000","Open - Dup",,"18-03384454","Pothole in Street",,,,"2726 W FULLERTON AVE","60647","1157669.32999496","1915838.8004238","1","14","22",,"41.92493008639536","-87.69608878206519","(41.924930086395, -87.696088782065)"
"2018-12-17T00:00:00.000","Open - Dup",,"18-03384634","Pothole in Street",,,,"11648 S AVENUE J","60617","1202579.23596908","1828341.65979885","10","4","52",,"41.68312662713374","-87.53419140332903","(41.683126627134, -87.534191403329)"
"2018-12-17T00:00:00.000","Open",,"18-03382506","Pothole in Street",,,,"7300 W WAVELAND AVE","60634","1126760.51431053","1923602.85586689","38","16","17",,"41.94680751945703","-87.80954293156405","(41.946807519457, -87.809542931564)"
"2018-12-17T00:00:00.000","Open",,"18-03380795","Pothole in Street",,,,"1900 S HAMLIN AVE","60623","1151356.47092888","1890364.48000742","24","10","29",,"41.85493775984957","-87.72008458950238","(41.85493775985, -87.720084589502)"
"2018-12-17T00:00:00.000","Open",,"18-03380220","Pothole in Street",,,,"10300 S GREEN ST","60643","1172466.46091697","1836541.04927145","34","22","73","45","41.7068134420736","-87.64418616762808","(41.706813442074, -87.644186167628)"
"2018-12-17T00:00:00.000","Open",,"18-03378054","Pothole in Street",,,,"4142 N WESTERN AVE","60618","1159628.42662471","1927545.24998883","47","19","5","38","41.95711542660115","-87.68870484915179","(41.957115426601, -87.688704849152)"
"2018-12-17T00:00:00.000","Open",,"18-03379483","Pothole in Street",,,,"9900 S GREEN ST","60643","1172391.93988806","1839200.82380657","34","22","73",,"41.714111405033535","-87.64437988550142","(41.714111405034, -87.644379885501)"
"2018-12-17T00:00:00.000","Open",,"18-03378386","Pothole in Street",,,,"2138 N DAYTON ST","60614","1170270.61581711","1914425.39773396","43","18","7",,"41.92113902648173","-87.64997515730734","(41.921139026482, -87.649975157307)"
"2018-12-17T00:00:00.000","Open",,"18-03383524","Pothole in Street",,,,"4834 N LONG AVE","60630","1139493.99281089","1931476.56901999","45","16","11",,"41.968742301512435","-87.7624442097803","(41.968742301512, -87.76244420978)"
"2018-12-17T00:00:00.000","Open",,"18-03383529","Pothole in Street",,,,"5499 W GALE ST","60630","1138791.6002086","1932040.48628687","45","16","11",,"41.96959568063578","-87.76490591295338","(41.969595680636, -87.764905912953)"
"2018-12-17T00:00:00.000","Open",,"18-03385464","Pothole in Street",,,,"5001 S LA CROSSE AVE","60638","1144869.98971519","1871031.38837191","22","8","56",,"41.80204240167932","-87.74408775005476","(41.802042401679, -87.744087750055)"
"2018-12-17T00:00:00.000","Open - Dup",,"18-03382608","Pothole in Street",,,,"1065 W MONROE ST","60607","1169317.51937259","1899733.99228872","25","12","28",,"41.88026076399077","-87.65444968083821","(41.880260763991, -87.654449680838)"
"2018-12-17T00:00:00.000","Open",,"18-03382525","Pothole in Street",,,,"6962 W NELSON ST","60634","1129324.46468945","1919490.82007994","36","25","18",,"41.93547671289403","-87.80053763462963","(41.935476712894, -87.80053763463)"
"2018-12-17T00:00:00.000","Open",,"18-03380110","Pothole in Street",,,,"4399 W FLOURNOY ST","60624","1147158.45161224","1896674.22997204","24","11","26",,"41.87233045967298","-87.73506179588367","(41.872330459673, -87.735061795884)"
"2018-12-17T00:00:00.000","Open",,"18-03383522","Pothole in Street",,,,"7926 S COTTAGE GROVE AVE","60619","1182934.68363419","1852625.24381547","6","6","44","51","41.75045635343617","-87.6053632541433","(41.750456353436, -87.605363254143)"
"2018-12-17T00:00:00.000","Open - Dup",,"18-03384077","Pothole in Street",,,,"811 W 98TH ST","60643","1172588.81652404","1839823.02991431","34","22","73",,"41.71579729345971","-87.64357992208025","(41.71579729346, -87.64357992208)"
"2018-12-17T00:00:00.000","Open - Dup",,"18-03383277","Pothole in Street",,,,"1012 W MONROE ST","60607","1169706.48988757","1899745.28138926","25","12","28",,"41.880510169623626","-87.65257712538585","(41.880510169624, -87.652577125386)"
"2018-12-17T00:00:00.000","Open",,"18-03382926","Pothole in Street",,,,"2550 N PULASKI RD","60639","1149297.78061043","1916324.97000707","31","25","22",,"41.9278135092499","-87.72701303431263","(41.92781350925, -87.727013034313)"
"2018-12-16T00:00:00.000","Open - Dup",,"18-03374341","Pothole in Street",,,,"11500 S HARVARD AVE","60628","1176015.6949836","1828667.65181156","34","5","53",,"41.68512636979275","-87.63142108228581","(41.685126369793, -87.631421082286)"
"2018-12-16T00:00:00.000","Open",,"18-03372827","Pothole in Street",,,,"7056 W SCHOOL ST","60634","1128456.91470141","1921123.36840388","29","16","17",,"41.939974093808104","-87.8034832463987","(41.939974093808, -87.803483246399)"
"2018-12-16T00:00:00.000","Open",,"18-03375948","Pothole in Street",,,,"2335 N TALMAN AVE","60647","1158306.07368167","1915534.49009671","1","14","22",,"41.924111843795316","-87.69359986805657","(41.924111843795, -87.693599868057)"
"2018-12-16T00:00:00.000","Open - Dup",,"18-03373218","Pothole in Street",,,,"6144 N CENTRAL AVE","60646","1138700.75999472","1940765.57998146","39","16","12",,"41.993871618715296","-87.76521560256005","(41.993871618715, -87.76521560256)"
"2018-12-16T00:00:00.000","Open",,"18-03372862","Pothole in Street",,,,"1205 W TAYLOR ST","60607","1168478.11277242","1895729.82482459","28","12","28",,"41.869301892911615","-87.65698266595034","(41.869301892912, -87.65698266595)"
"2018-12-16T00:00:00.000","Open - Dup",,"18-03371519","Pothole in Street",,,,"5199 N CENTRAL PARK AVE","60625","1151454.98000741","1934312.35001181","39","17","13",,"41.975541358400704","-87.71828027637316","(41.975541358401, -87.718280276373)"
"2018-12-16T00:00:00.000","Open - Dup",,"18-03372208","Pothole in Street",,,,"8700 S ANTHONY AVE","60617","1192894.10278993","1847736.55487386","8","4","48",,"41.737063945133926","-87.56896220209047","(41.737063945134, -87.56896220209)"
"2018-12-16T00:00:00.000","Open",,"18-03372661","Pothole in Street",,,,"3935 W IRVING PARK RD","60618","1149328.71342739","1926289.82441232","45","17","16",,"41.95355394833411","-87.72652629768923","(41.953553948334, -87.726526297689)"
"2018-12-16T00:00:00.000","Open",,"18-03372839","Pothole in Street",,,,"12000 S PRINCETON AVE","60628","1176442.04179659","1825356.0729833","34","5","53",,"41.67603078174701","-87.62995973542573","(41.676030781747, -87.629959735426)"
"2018-12-16T00:00:00.000","Open",,"18-03373529","Pothole in Street",,,,"1349 W DEVON AVE","60660","1165923.31981873","1942621.72319717","48","24","77","26","41.99803264740354","-87.66494616230449","(41.998032647404, -87.664946162304)"
"2018-12-16T00:00:00.000","Open - Dup",,"18-03372527","Pothole in Street",,,,"2716 N LONG AVE","60639","1139910.11989171","1917608.84969795","30","25","19",,"41.93006557602317","-87.7614351660394","(41.930065576023, -87.761435166039)"
"2018-12-16T00:00:00.000","Open",,"18-03374196","Pothole in Street",,,,"1400 W 81ST ST","60620","1168406.09353152","1851042.05311252","21","6","71",,"41.74689466168462","-87.65855751772956","(41.746894661685, -87.65855751773)"
"2018-12-16T00:00:00.000","Open - Dup",,"18-03371753","Pothole in Street",,,,"5100 S COTTAGE GROVE AVE","60615","1182448.95712683","1871368.88266898","4","2","40",,"41.802220633424966","-87.60655292996893","(41.802220633425, -87.606552929969)"
"2018-12-16T00:00:00.000","Open - Dup",,"18-03375126","Pothole in Street",,,,"2441 W LOGAN BLVD","60647","1159552.01378094","1917147.97132368","1","14","22",,"41.92826682230092","-87.68908638332968","(41.928266822301, -87.68908638333)"
"2018-12-16T00:00:00.000","Open - Dup",,"18-03373783","Pothole in Street",,,,"9500 S COTTAGE GROVE AVE","60628","1183576.32953423","1842151.06616908","9","5","49","51","41.72197046522736","-87.60334804007711","(41.721970465227, -87.603348040077)"
"2018-12-16T00:00:00.000","Open",,"18-03373031","Pothole in Street",,,,"6700 S HOYNE AVE","60636","1163517.43478747","1860209.25990923","16","7","67",,"41.772001236940966","-87.67629668689248","(41.772001236941, -87.676296686892)"
"2018-12-16T00:00:00.000","Open - Dup",,"18-03371128","Pothole in Street",,,,"2 N AUSTIN BLVD","0","1136390.67476561","1899388.7918119","0","0","0",,"41.880184731363734","-87.77480630239796","(41.880184731364, -87.774806302398)"
"2018-12-16T00:00:00.000","Open",,"18-03372750","Pothole in Street",,,,"3858 N PULASKI RD","60641","1149033.08199979","1925574.95976574","45","17","16",,"41.95188409204342","-87.72770770928415","(41.951884092043, -87.727707709284)"
"2018-12-16T00:00:00.000","Open - Dup",,"18-03373599","Pothole in Street",,,,"7050 W GRACE ST","60634","1128631.93999558","1924448.07939229","38","16","17",,"41.94908715694755","-87.80307588331155","(41.949087156948, -87.803075883312)"
"2018-12-16T00:00:00.000","Open",,"18-03372886","Pothole in Street",,,,"812 S RACINE AVE","60607","1168506.54160041","1896435.17011044","28","12","28",,"41.87133128754764","-87.65696241077886","(41.871331287548, -87.656962410779)"
"2018-12-16T00:00:00.000","Open - Dup",,"18-03375125","Pothole in Street",,,,"2441 W LOGAN BLVD","60647","1159552.01378094","1917147.97132368","1","14","22",,"41.92826682230092","-87.68908638332968","(41.928266822301, -87.68908638333)"
"2018-12-16T00:00:00.000","Open - Dup",,"18-03373596","Pothole in Street",,,,"1434 W ROSEMONT AVE","60660","1165601.3019289","1941994.27996871","48","24","77",,"41.99653651897282","-87.66675502628667","(41.996536518973, -87.666755026287)"
"2018-12-16T00:00:00.000","Open - Dup",,"18-03373598","Pothole in Street",,,,"7104 W GRACE ST","60634","1128348.16398608","1924438.61611066","38","16","17",,"41.94907480827999","-87.80367269986031","(41.94907480828, -87.80367269986)"
"2018-12-16T00:00:00.000","Open",,"18-03373438","Pothole in Street",,,,"1800 S CLARK ST","60616","1175788.92251885","1891549.03829718","25","1","34",,"41.85769201149853","-87.63037123894216","(41.857692011499, -87.630371238942)"
"2018-12-16T00:00:00.000","Open",,"18-03374481","Pothole in Street",,,,"9400 S ASHLAND AVE","60620","1167320.6961983","1842377.71987259","21","22","73","69","41.72294121820967","-87.66286287127305","(41.72294121821, -87.662862871273)"
"2018-12-16T00:00:00.000","Open - Dup",,"18-03376094","Pothole in Street",,,,"5129 W GUNNISON ST","60630","1141308.43867481","1931829.08759463","45","16","11",,"41.96872817010421","-87.75615006585475","(41.968728170104, -87.756150065855)"
"2018-12-16T00:00:00.000","Open",,"18-03374566","Pothole in Street",,,,"8400 W BELMONT AVE","60634","1119547.4598983","1920228.79147008","38","16","76",,"41.937659877212326","-87.83650658082797","(41.937659877212, -87.836506580828)"
"2018-12-16T00:00:00.000","Open",,"18-03372730","Pothole in Street",,,,"4009 N PULASKI RD","60641","1149009.43677118","1926341.95989102","45","17","16",,"41.95396842193148","-87.72747859882783","(41.953968421931, -87.727478598828)"
"2018-12-16T00:00:00.000","Open - Dup",,"18-03373511","Pothole in Street",,,,"3100 S WESTERN AVE","60608","1160917.21688199","1884178.14901723","25","9","31",,"41.83779489972262","-87.68514875102693","(41.837794899723, -87.685148751027)"
"2018-12-16T00:00:00.000","Open",,"18-03375575","Pothole in Street",,,,"7326 W ARDMORE AVE","60631","1126399.48562351","1937680.24622143","41","16","10",,"41.985443274548174","-87.81060588389208","(41.985443274548, -87.810605883892)"
"2018-12-16T00:00:00.000","Open",,"18-03372563","Pothole in Street",,,,"3836 W BERTEAU AVE","60618","1149941.38748807","1927636.62083204","39","17","16",,"41.95745634268154","-87.72433992542699","(41.957456342682, -87.724339925427)"
"2018-12-16T00:00:00.000","Open",,"18-03373453","Pothole in Street",,,,"5027 W DEVON AVE","60646","1141804.08987025","1942140.30030833","39","16","12",,"41.99719339081852","-87.75362227012384","(41.997193390819, -87.753622270124)"
"2018-12-16T00:00:00.000","Open",,"18-03374069","Pothole in Street",,,,"4200 N GREENVIEW AVE","60613","1165313.05351416","1927978.00096957","47","19","6",,"41.9580145192417","-87.66778956345141","(41.958014519242, -87.667789563451)"
"2018-12-16T00:00:00.000","Open",,"18-03373241","Pothole in Street",,,,"1600 N KOLMAR AVE","60639","1145817.93982855","1910245.47219794","37","25","23",,"41.909791994943355","-87.73991372042484","(41.909791994943, -87.739913720425)"
"2018-12-16T00:00:00.000","Open",,"18-03374912","Pothole in Street",,,,"5341 N MEADE AVE","60630","1134453.35297781","1935141.56316738","45","16","11",,"41.978693428707835","-87.78076815612066","(41.978693428708, -87.780768156121)"
"2018-12-16T00:00:00.000","Open - Dup",,"18-03373199","Pothole in Street",,,,"300 E LOWER WACKER DR","60601","1178298.32809411","1902581.23368375","42","1","32",,"41.888082067345245","-87.62050117084912","(41.888082067345, -87.620501170849)"
"2018-12-16T00:00:00.000","Open - Dup",,"18-03372057","Pothole in Street",,,,"1600 N NB OUTER LAKE SHORE DR","60614","1176853.00709931","1911029.69059664","43","18","7",,"41.911304487870105","-87.62587860316864","(41.91130448787, -87.625878603169)"
"2018-12-16T00:00:00.000","Open",,"18-03376377","Pothole in Street",,,,"1941 N HUMBOLDT BLVD","60647","1156063.70679559","1912750.30978247","1","14","22",,"41.91684730632842","-87.70192436398962","(41.916847306328, -87.70192436399)"
"2018-12-16T00:00:00.000","Open",,"18-03373528","Pothole in Street",,,,"1423 W DEVON AVE","60660","1165544.5498824","1942613.21438757","48","24","77","26","41.99801632173976","-87.66633423438455","(41.99801632174, -87.666334234385)"
"2018-12-16T00:00:00.000","Open",,"18-03373245","Pothole in Street",,,,"1600 N KILPATRICK AVE","60639","1144773.60922506","1910218.71881611","37","25","25",,"41.90979116117716","-87.74364426760985","(41.909791161177, -87.74364426761)"
"2018-12-16T00:00:00.000","Open",,"18-03373458","Pothole in Street",,,,"3551 W DEVON AVE","60659","1151354.16810422","1942197.82467761","50","17","13",,"41.99716793395305","-87.71860728000969","(41.997167933953, -87.71860728001)"
"2018-12-16T00:00:00.000","Open - Dup",,"18-03373442","Pothole in Street",,,,"3801 W DEVON AVE","60659","1149875.60766891","1942179.91632205","39","17","13",,"41.99714765905198","-87.72408273549507","(41.997147659052, -87.724082735495)"
"2018-12-16T00:00:00.000","Open - Dup",,"18-03372751","Pothole in Street",,,,"2247 W WABANSIA AVE","60647","1161087.78742433","1911422.47220652","32","14","24","33","41.91250999652171","-87.68429816007354","(41.912509996522, -87.684298160074)"
"2018-12-16T00:00:00.000","Open",,"18-03375915","Pothole in Street",,,,"9910 S HALSTED ST","60628","1172729.81839872","1839138.94299385","34","22","73","45","41.7138346039382","-87.64313501434866","(41.713834603938, -87.643135014349)"
"2018-12-16T00:00:00.000","Open - Dup",,"18-03374083","Pothole in Street",,,,"5900 S STATE ST","60621","1177284.26121793","1865899.99312228","20","2","40",,"41.78726874851543","-87.62565736701293","(41.787268748515, -87.625657367013)"
"2018-12-15T00:00:00.000","Open",,"18-03369752","Pothole in Street",,,,"4830 N KEELER AVE","60630","1147513.18751477","1931769.79671929","39","17","14",,"41.9690934770321","-87.73313830295962","(41.969093477032, -87.73313830296)"
"2018-12-15T00:00:00.000","Open - Dup",,"18-03364895","Pothole in Street",,,,"10133 S ARTESIAN AVE","60655","1161823.40792607","1837372.61547553","19","22","72","20","41.709029227458814","-87.68283555972683","(41.709029227459, -87.682835559727)"
"2018-12-15T00:00:00.000","Open - Dup",,"18-03368779","Pothole in Street",,,,"3518 W 62ND PL","60629","1154027.5711329","1862954.62567695","23","8","66",,"41.779877332746246","-87.71123496185413","(41.779877332746, -87.711234961854)"
"2018-12-15T00:00:00.000","Open - Dup",,"18-03365133","Pothole in Street",,,,"1800 S WESTERN AVE","60608","1160643.96316663","1891326.66991828","28","10","31",,"41.85747437096779","-87.68596860468548","(41.857474370968, -87.685968604685)"
"2018-12-15T00:00:00.000","Open - Dup",,"18-03366964","Pothole in Street",,,,"5334 W GIDDINGS ST","60630","1139928.36958769","1930916.82801532","45","16","15",,"41.966413597044436","-87.76087777738171","(41.966413597044, -87.760877777382)"
"2018-12-15T00:00:00.000","Open",,"18-03366444","Pothole in Street",,,,"12100 S STONY ISLAND AVE","60633","1191314.39889813","1825246.12838158","10","4","51",,"41.67538462666333","-87.57553071866162","(41.675384626663, -87.575530718662)"
"2018-12-15T00:00:00.000","Completed - Dup","2018-12-17T00:00:00.000","18-03364263","Pothole in Street",,,,"799 W GRAND AVE","60654","1170954.17731639","1903683.95789707","27","12","24",,"41.8910758893113","-87.64752724013721","(41.891075889311, -87.647527240137)"
"2018-12-15T00:00:00.000","Open",,"18-03366632","Pothole in Street",,,,"5159 N CENTRAL AVE","60630","1137841.16410299","1934047.20111292","45","16","11",,"41.97517487358322","-87.768344200415","(41.975174873583, -87.768344200415)"
"2018-12-15T00:00:00.000","Open - Dup",,"18-03368463","Pothole in Street",,,,"1600 N NB OUTER LAKE SHORE DR","60614","1176853.00709931","1911029.69059664","43","18","7",,"41.911304487870105","-87.62587860316864","(41.91130448787, -87.625878603169)"
"2018-12-15T00:00:00.000","Open - Dup",,"18-03365788","Pothole in Street",,,,"2300 W ADAMS ST","60612","1161109.49292452","1899029.66841099","27","12","28",,"41.878731779316865","-87.68402713284112","(41.878731779317, -87.684027132841)"
"2018-12-15T00:00:00.000","Open",,"18-03364965","Pothole in Street",,,,"600 S CENTRAL AVE","60644","1139150.09611752","1896761.21989853","29","15","25",,"41.872772222188686","-87.76473185047905","(41.872772222189, -87.764731850479)"
"2018-12-15T00:00:00.000","Open",,"18-03369283","Pothole in Street",,,,"7650 S KOSTNER AVE","60652","1148224.57221787","1853874.65460722","18","8","65",,"41.75351095269303","-87.73247660663556","(41.753510952693, -87.732476606636)"
"2018-12-15T00:00:00.000","Open",,"18-03369236","Pothole in Street",,,,"7100 S SOUTH CHICAGO AVE","60619","1182784.75537804","1858113.19493051","5","3","69",,"41.76571672629447","-87.60558402698705","(41.765716726294, -87.605584026987)"
"2018-12-15T00:00:00.000","Open",,"18-03366149","Pothole in Street",,,,"7200 W BERWYN AVE","60656","1127121.01999865","1934405.7600032","41","16","10",,"41.976446951085094","-87.80796861074285","(41.976446951085, -87.807968610743)"
"2018-12-15T00:00:00.000","Open - Dup",,"18-03364716","Pothole in Street",,,,"2730 W FULLERTON AVE","60647","1157637.52999496","1915838.1004238","1","14","22",,"41.92492812377578","-87.69625430688542","(41.924928123776, -87.696254306885)"
"2018-12-15T00:00:00.000","Open",,"18-03364450","Pothole in Street",,,,"1578 N CLYBOURN AVE","60642","1170589.55979346","1910669.44431177","2","18","8",,"41.910301282773744","-87.6488789122808","(41.910301282774, -87.648878912281)"
"2018-12-15T00:00:00.000","Open",,"18-03364785","Pothole in Street",,,,"7050 W GRACE ST","60634","1128631.93999558","1924448.07939229","38","16","17",,"41.94908715694755","-87.80307588331155","(41.949087156948, -87.803075883312)"
"2018-12-15T00:00:00.000","Open - Dup",,"18-03369928","Pothole in Street",,,,"2406 N FRANCISCO AVE","60647","1156637.93001589","1915818.34803123","1","14","22",,"41.92506765707111","-87.70001918882875","(41.925067657071, -87.700019188829)"
"2018-12-15T00:00:00.000","Open - Dup",,"18-03368276","Pothole in Street",,,,"1600 N NB OUTER LAKE SHORE DR","60614","1176853.00709931","1911029.69059664","43","18","7",,"41.911304487870105","-87.62587860316864","(41.91130448787, -87.625878603169)"
"2018-12-15T00:00:00.000","Open",,"18-03365264","Pothole in Street",,,,"1314 N AUSTIN BLVD",,"1136122.83201932","1908126.96750761","0","0","0",,"41.9042932573337","-87.77558503164006","(41.904293257334, -87.77558503164)"
"2018-12-15T00:00:00.000","Open - Dup",,"18-03369937","Pothole in Street",,,,"400 S CENTRAL AVE","60644","1139126.01899696","1897454.09002589","29","15","25",,"41.87468009194542","-87.76480397994328","(41.874680091945, -87.764803979943)"
"2018-12-15T00:00:00.000","Open",,"18-03367529","Pothole in Street",,,,"3154 N ALBANY AVE","60618","1155265.64081789","1920903.83712719","33","14","21",,"41.93918468111073","-87.70494985401515","(41.939184681111, -87.704949854015)"
"2018-12-15T00:00:00.000","Open",,"18-03368050","Pothole in Street",,,,"3800 N OAK PARK AVE","60634","1130384.1104148","1924503.34001044","38","16","17",,"41.94912349832509","-87.79628180860355","(41.949123498325, -87.796281808604)"
"2018-12-15T00:00:00.000","Open - Dup",,"18-03368370","Pothole in Street",,,,"4000 W LAWRENCE AVE","60630","1148861.93592875","1931598.86432521","39","17","14",,"41.96835128527914","-87.72809167198088","(41.968351285279, -87.728091671981)"
"2018-12-15T00:00:00.000","Open",,"18-03366146","Pothole in Street",,,,"7200 W BRYN MAWR AVE","60631","1127368.67866766","1936751.46001994","41","16","10",,"41.98287646838373","-87.80707684142614","(41.982876468384, -87.807076841426)"
"2018-12-15T00:00:00.000","Open",,"18-03364713","Pothole in Street",,,,"10400 S MICHIGAN AVE","60628","1178901.03012278","1836040.61362681","9","5","49","41","41.70534195183082","-87.62064503337304","(41.705341951831, -87.620645033373)"
"2018-12-15T00:00:00.000","Open - Dup",,"18-03369066","Pothole in Street",,,,"300 E WACKER DR","60601","1178307.38047035","1902572.1000208","42","1","32",,"41.88807333160907","-87.6205944613368","(41.888073331609, -87.620594461337)"
"2018-12-15T00:00:00.000","Completed","2018-12-31T00:00:00.000","18-03365265","Pothole in Street","Final Outcome","Pothole Patched","17","8200 S SPRINGFIELD AVE","60652","1151820.39858102","1849922.06443075","18","8","70",,"41.74400762888819","-87.71944367239192","(41.744007628888, -87.719443672392)"
"2018-12-15T00:00:00.000","Open",,"18-03369450","Pothole in Street",,,,"6500 S STONY ISLAND AVE","60637","1188003.25646923","1862207.25992413","5","3","42",,"41.77693127269161","-87.58647360023576","(41.776931272692, -87.586473600236)"
"2018-12-15T00:00:00.000","Open",,"18-03365562","Pothole in Street",,,,"4500 W NORTH AVE","60639","1146128.43982855","1910252.97219794","37","25","23",,"41.90982971151685","-87.73861095911464","(41.909829711517, -87.738610959115)"
"2018-12-15T00:00:00.000","Open",,"18-03366557","Pothole in Street",,,,"7922 S SPRINGFIELD AVE","60652","1151767.66851896","1851663.2000844","18","8","70",,"41.74878519012281","-87.71958955264662","(41.748785190123, -87.719589552647)"
"2018-12-15T00:00:00.000","Open",,"18-03369235","Pothole in Street",,,,"6700 S SOUTH CHICAGO AVE","60637","1180072.53810839","1860678.21039057","20","3","69",,"41.77280150149144","-87.615429082211","(41.772801501491, -87.615429082211)"
"2018-12-15T00:00:00.000","Open",,"18-03366732","Pothole in Street",,,,"14 W 65TH ST","60621","1177233.51410732","1861911.94012891","20","3","69",,"41.776530275146044","-87.6258160713982","(41.776530275146, -87.625816071398)"
"2018-12-15T00:00:00.000","Open",,"18-03367122","Pothole in Street",,,,"1940 S HOMAN AVE","60623","1154008.69998469","1890218.88000947","24","10","29",,"41.854122396958275","-87.71034132640797","(41.854122396958, -87.710341326408)"
"2018-12-15T00:00:00.000","Open - Dup",,"18-03369502","Pothole in Street",,,,"300 E WACKER DR","60601","1178307.38047035","1902572.1000208","42","1","32",,"41.88807333160907","-87.6205944613368","(41.888073331609, -87.620594461337)"
"2018-12-15T00:00:00.000","Open - Dup",,"18-03369915","Pothole in Street",,,,"2745 W FULLERTON AVE","60647","1157565.22999496","1915836.6004238","1","14","22",,"41.924703456345554","-87.69680035983875","(41.924703456346, -87.696800359839)"
"2018-12-15T00:00:00.000","Open",,"18-03365426","Pothole in Street",,,,"7600 S GREENWOOD AVE","60619","1185056.4984129","1854843.66226784","8","6","69",,"41.75681492835959","-87.5975159018675","(41.75681492836, -87.597515901867)"
"2018-12-15T00:00:00.000","Open - Dup",,"18-03364715","Pothole in Street",,,,"2666 W FULLERTON AVE","60647","1158301.07987183","1915851.8203788","1","14","22",,"41.92494196691","-87.69491046030078","(41.92494196691, -87.694910460301)"
"2018-12-15T00:00:00.000","Completed - Dup","2018-12-17T00:00:00.000","18-03368215","Pothole in Street",,,,"100 N MICHIGAN AVE","60602","1177299.6140023","1900836.66107586","42","1","32",,"41.88328915138877","-87.62454939639862","(41.883289151389, -87.624549396399)"
"2018-12-15T00:00:00.000","Open",,"18-03368825","Pothole in Street",,,,"3651 W 61ST ST","60629","1153051.20801045","1863916.34448282","23","8","65",,"41.78230907907711","-87.71517236844971","(41.782309079077, -87.71517236845)"
"2018-12-15T00:00:00.000","Open",,"18-03364784","Pothole in Street",,,,"7104 W GRACE ST","60634","1128348.16398608","1924438.61611066","38","16","17",,"41.94907480827999","-87.80367269986031","(41.94907480828, -87.80367269986)"
"2018-12-15T00:00:00.000","Open",,"18-03364007","Pothole in Street",,,,"360 N NB OUTER LAKE SHORE DR","60601","1180122.76770918","1902747.12998773","42","18","8",,"41.88843841160744","-87.61412199324374","(41.888438411607, -87.614121993244)"
"2018-12-15T00:00:00.000","Open - Dup",,"18-03365628","Pothole in Street",,,,"4500 W NORTH AVE","60639","1146128.43982855","1910252.97219794","37","25","23",,"41.90982971151685","-87.73861095911464","(41.909829711517, -87.738610959115)"
"2018-12-15T00:00:00.000","Open",,"18-03367496","Pothole in Street",,,,"6801 W NORTH AVE",,,,"0","0","0",,"41.90891507095367","-87.79492289670353","(41.908915070954, -87.794922896704)"
"2018-12-15T00:00:00.000","Open - Dup",,"18-03368358","Pothole in Street",,,,"4600 N HAMLIN AVE","60625","1150229.09983033","1930299.38420775","35","17","14",,"41.96469287717533","-87.72318300967568","(41.964692877175, -87.723183009676)"
"2018-12-15T00:00:00.000","Open",,"18-03366879","Pothole in Street",,,,"1903 N HAMLIN AVE","60647","1150743.16643399","1912376.1607678","26","25","22",,"41.91555124127364","-87.7214700364322","(41.915551241274, -87.721470036432)"
"2018-12-15T00:00:00.000","Open",,"18-03365672","Pothole in Street",,,,"1600 N NB OUTER LAKE SHORE DR","60614","1176853.00709931","1911029.69059664","43","18","7",,"41.911304487870105","-87.62587860316864","(41.91130448787, -87.625878603169)"
"2018-12-15T00:00:00.000","Open",,"18-03367381","Pothole in Street",,,,"3944 N WESTERN AVE","60618","1159667.55046758","1926218.63998162","47","19","5","38","41.95351429360543","-87.6885994380359","(41.953514293605, -87.688599438036)"
"2018-12-15T00:00:00.000","Open - Dup",,"18-03366871","Pothole in Street",,,,"3800 S KEDZIE AVE","60632","1155658.52537301","1879230.3615698","12","9","58",,"41.82435630760823","-87.7045936543129","(41.824356307608, -87.704593654313)"
"2018-12-15T00:00:00.000","Open - Dup",,"18-03369505","Pothole in Street",,,,"4804 W DIVERSEY AVE","60639","1143877.11159556","1918186.09006891","31","25","19",,"41.931639692058404","-87.74687268445575","(41.931639692058, -87.746872684456)"
"2018-12-15T00:00:00.000","Open - Dup",,"18-03367311","Pothole in Street",,,,"3100 S WESTERN AVE","60608","1160917.21688199","1884178.14901723","25","9","31",,"41.83779489972262","-87.68514875102693","(41.837794899723, -87.685148751027)"
"2018-12-15T00:00:00.000","Open",,"18-03368609","Pothole in Street",,,,"2905 S ARCHER AVE","60608","1168304.71889378","1885625.48909534","11","9","60",,"41.84159452199756","-87.65779370130038","(41.841594521998, -87.6577937013)"
"2018-12-15T00:00:00.000","Completed","2018-12-17T00:00:00.000","18-03366015","Pothole in Street","Final Outcome","Pothole Patched","4","230 N OGDEN AVE","60607","1166960.81857621","1901783.11118761","27","12","28",,"41.885849434411156","-87.662603973878","(41.885849434411, -87.662603973878)"
"2018-12-15T00:00:00.000","Open",,"18-03364664","Pothole in Street",,,,"5443 S UNION AVE","60609","1172563.43049261","1868603.8339044","20","9","61",,"41.79490031060324","-87.64259619329245","(41.794900310603, -87.642596193292)"
"2018-12-15T00:00:00.000","Open",,"18-03368826","Pothole in Street",,,,"6221 S CENTRAL PARK AVE","60629","1153387.27189462","1863031.24012791","23","8","66",,"41.779925652594194","-87.71263140911812","(41.779925652594, -87.712631409118)"
"2018-12-15T00:00:00.000","Open",,"18-03368390","Pothole in Street",,,,"4705 W CORNELIA AVE","60641","1144541.40573112","1922990.80790155","30","17","15",,"41.94459388143892","-87.74416836222622","(41.944593881439, -87.744168362226)"
"2018-12-15T00:00:00.000","Open - Dup",,"18-03366797","Pothole in Street",,,,"5000 S COTTAGE GROVE AVE","60615","1182432.0224895","1872035.73636799","4","2","38","47","41.80403387486271","-87.60659434924774","(41.804033874863, -87.606594349248)"
"2018-12-15T00:00:00.000","Open - Dup",,"18-03365248","Pothole in Street",,,,"5315 W GIDDINGS ST","60630","1140112.86151403","1930936.64536577","45","16","15",,"41.96633527633701","-87.76016128819064","(41.966335276337, -87.760161288191)"
"2018-12-15T00:00:00.000","Open",,"18-03367440","Pothole in Street",,,,"4144 N SOUTHPORT AVE","60613","1166228.49999918","1927703.03998033","47","19","6",,"41.95748623656048","-87.6644207558246","(41.95748623656, -87.664420755825)"
"2018-12-14T00:00:00.000","Open",,"18-03360309","Pothole in Street",,,,"4100 N PARKSIDE AVE","60634","1137946.13593242","1926696.02001869","38","16","15",,"41.955082008812056","-87.7684331858972","(41.955082008812, -87.768433185897)"
"2018-12-14T00:00:00.000","Open",,"18-03359536","Pothole in Street",,,,"7800 S HONORE ST","60620","1165374.30800253","1852954.88643406","17","6","71",,"41.75200654211845","-87.66969200140511","(41.752006542118, -87.669692001405)"
"2018-12-14T00:00:00.000","Open - Dup",,"18-03359733","Pothole in Street",,,,"7120 W SCHUBERT AVE","60707","1128396.800705","1917152.9116948","29","25","18",,"41.92908264167881","-87.80361258564035","(41.929082641679, -87.80361258564)"
"2018-12-14T00:00:00.000","Open",,"18-03359836","Pothole in Street",,,,"3100 E 126TH ST","60633","1198747.45769291","1822110.93377044","10","4","51",,"41.66680000108971","-87.54822079152619","(41.66680000109, -87.548220791526)"
"2018-12-14T00:00:00.000","Open",,"18-03359795","Pothole in Street","Final Outcome","Pothole Patched","12","634 E 113TH ST","60628","1182608.7031892","1830167.07429272","9","5","50",,"41.68929619158864","-87.60699060192792","(41.689296191589, -87.606990601928)"
"2018-12-14T00:00:00.000","Open - Dup",,"18-03360263","Pothole in Street",,,,"6800 W BELDEN AVE","60707","1130711.1243981","1914323.32090821","36","25","18",,"41.92127775145258","-87.79526007003588","(41.921277751453, -87.795260070036)"
"2018-12-14T00:00:00.000","Open",,"18-03360341","Pothole in Street",,,,"4200 N AUSTIN AVE","60634","1135598.34588307","1927303.46801956","38","16","15",,"41.95679065134189","-87.77705031717367","(41.956790651342, -87.777050317174)"
"2018-12-14T00:00:00.000","Open - Dup",,"18-03357698","Pothole in Street",,,,"301 E WACKER DR","60601","1178301.64638254","1902519.03068981","42","1","32",,"41.88771437729888","-87.6206747740109","(41.887714377299, -87.620674774011)"
"2018-12-14T00:00:00.000","Open - Dup",,"18-03357237","Pothole in Street",,,,"1510 N DEARBORN PKWY","60610","1175652.43112478","1910445.09990457","2","18","8",,"41.909823461438016","-87.63031030724655","(41.909823461438, -87.630310307247)"
"2018-12-14T00:00:00.000","Completed","2018-12-14T00:00:00.000","18-03360697","Pothole in Street","Final Outcome","Pothole Patched","26","2800 W DIVERSEY AVE","60647","1157229.59461954","1918486.81659225","33","14","21",,"41.93220539506452","-87.6976792438691","(41.932205395065, -87.697679243869)"
"2018-12-14T00:00:00.000","Open",,"18-03360330","Pothole in Street",,,,"4100 N MARMORA AVE","60634","1136284.3375712","1926654.80421741","38","16","15",,"41.95499859259565","-87.77454361920374","(41.954998592596, -87.774543619204)"
"2018-12-14T00:00:00.000","Open - Dup",,"18-03358492","Pothole in Street",,,,"341 N COLUMBUS DR","60601","1178307.38047035","1902572.1000208","42","1","32",,"41.8878846470662","-87.6205117403242","(41.887884647066, -87.620511740324)"
"2018-12-14T00:00:00.000","Open",,"18-03358886","Pothole in Street",,,,"6300 S BELL AVE","60636","1162487.07998543","1862820.69999476","16","8","66","3","41.77914283555344","-87.67999894142017","(41.779142835553, -87.67999894142)"
"2018-12-14T00:00:00.000","Open",,"18-03357784","Pothole in Street",,,,"11100 S MICHIGAN AVE","60628","1178787.87827853","1831381.67750363","9","5","49","40","41.69255976259198","-87.62119369539766","(41.692559762592, -87.621193695398)"
"2018-12-14T00:00:00.000","Open",,"18-03360060","Pothole in Street",,,,"7000 S GREEN ST","60621","1171843.10848436","1858435.83107392","6","7","68",,"41.76690777798583","-87.6458264157106","(41.766907777986, -87.645826415711)"
"2018-12-14T00:00:00.000","Open",,"18-03360307","Pothole in Street",,,,"4300 N MAJOR AVE","60634","1137572.01162211","1928018.09501439","38","16","15",,"41.958669586487076","-87.7697761600792","(41.958669586487, -87.769776160079)"
"2018-12-14T00:00:00.000","Open",,"18-03362057","Pothole in Street",,,,"2517 N HALSTED ST","60614","1170511.07003315","1917091.01000108","43","19","7","35","41.927960793026365","-87.64870433110315","(41.927960793026, -87.648704331103)"
"2018-12-14T00:00:00.000","Open",,"18-03357572","Pothole in Street",,,,"10031 S PAXTON AVE","60617","1192824.50188817","1838894.35637466","7","4","51",,"41.71249446473107","-87.56926095125115","(41.712494464731, -87.569260951251)"
"2018-12-14T00:00:00.000","Open",,"18-03359282","Pothole in Street",,,,"4231 N MONTICELLO AVE","60618","1151298.91431224","1927880.75227313","35","17","16",,"41.95836049491823","-87.71903089482367","(41.958360494918, -87.719030894824)"
"2018-12-14T00:00:00.000","Open - Dup",,"18-03362525","Pothole in Street",,,,"2734 N MEADE AVE","60639","1135265.84757627","1917535.59901227","30","25","19",,"41.930329947625744","-87.77851580199457","(41.930329947626, -87.778515801995)"
"2018-12-14T00:00:00.000","Open",,"18-03360045","Pothole in Street",,,,"11100 S BISHOP ST","60643","1168533.94097783","1831137.35448258","34","22","75",,"41.69207086882711","-87.65873985739503","(41.692070868827, -87.658739857395)"
"2018-12-14T00:00:00.000","Open",,"18-03358741","Pothole in Street",,,,"8210 S BLACKSTONE AVE","60619","1187590.77253365","1850843.46670865","8","4","45",,"41.745614857771415","-87.5883446476021","(41.745614857771, -87.588344647602)"
"2018-12-14T00:00:00.000","Open",,"18-03360054","Pothole in Street",,,,"11100 S MARSHFIELD AVE","60643","1167924.40611315","1831121.4747124","34","22","75",,"41.69207319817085","-87.66100305798643","(41.692073198171, -87.661003057986)"
"2018-12-14T00:00:00.000","Open - Dup",,"18-03359619","Pothole in Street",,,,"9500 S STONY ISLAND AVE","60617","1188504.43430277","1842299.31671488","8","5","51",,"41.72225727300588","-87.58527556507723","(41.722257273006, -87.585275565077)"
"2018-12-14T00:00:00.000","Completed","2018-12-14T00:00:00.000","18-03361147","Pothole in Street","Final Outcome","Pothole Patched","3","4700 N VIRGINIA AVE","60625","1157036.34120777","1931099.69999078","40","19","4",,"41.96668975571444","-87.69814737943724","(41.966689755714, -87.698147379437)"
"2018-12-14T00:00:00.000","Completed - Dup","2018-12-17T00:00:00.000","18-03361281","Pothole in Street",,,,"100 S DEARBORN ST","60603","1175954.03392397","1899910.31908193","42","1","32",,"41.88068672140957","-87.62951525745761","(41.88068672141, -87.629515257458)"
"2018-12-14T00:00:00.000","Open - Dup",,"18-03360462","Pothole in Street",,,,"5056 N CENTRAL PARK AVE","60625","1151468.87681059","1933486.23839405","39","17","13",,"41.97371727159852","-87.71854895409085","(41.973717271599, -87.718548954091)"
"2018-12-14T00:00:00.000","Open",,"18-03360063","Pothole in Street",,,,"359 E 111TH ST","60628","1180619.54576997","1831437.87198893","9","5","49",,"41.69262697086107","-87.61349415155583","(41.692626970861, -87.613494151556)"
"2018-12-14T00:00:00.000","Open - Dup",,"18-03360336","Pothole in Street",,,,"4300 N MONITOR AVE","60634","1136574.58688891","1927992.53847589","38","16","15",,"41.958664104869165","-87.77344478340777","(41.958664104869, -87.773444783408)"
"2018-12-14T00:00:00.000","Open",,"18-03358358","Pothole in Street",,,,"10303 S LAWNDALE AVE","60655","1153484.14641526","1836052.19590292","19","22","74",,"41.70586867059771","-87.71341663561078","(41.705868670598, -87.713416635611)"
"2018-12-14T00:00:00.000","Open - Dup",,"18-03362517","Pothole in Street",,,,"7900 S HAMLIN AVE","60652","1152425.33206738","1851918.08449451","18","8","70",,"41.74947325542915","-87.71717306219841","(41.749473255429, -87.717173062198)"
"2018-12-14T00:00:00.000","Completed - Dup","2018-12-17T00:00:00.000","18-03361303","Pothole in Street",,,,"41 W ADAMS ST","60603","1175962.47148343","1899443.50409864","42","1","32",,"41.87932707149282","-87.6294215049074","(41.879327071493, -87.629421504907)"
"2018-12-14T00:00:00.000","Open - Dup",,"18-03361162","Pothole in Street",,,,"2199 S HARDING AVE","60623","1150396.47169458","1889090.55057306","24","10","29",,"41.85166059016445","-87.7233522335862","(41.851660590164, -87.723352233586)"
"2018-12-14T00:00:00.000","Open - Dup",,"18-03358092","Pothole in Street",,,,"6436 S TALMAN AVE","60629","1159816.19581291","1861849.56021163","17","8","66",,"41.77614498816483","-87.68980419843382","(41.776144988165, -87.689804198434)"
"2018-12-14T00:00:00.000","Open",,"18-03358543","Pothole in Street",,,,"12604 S INDIANA AVE","60628","1179876.12000866","1821279.73998245","9","5","53",,"41.664750413270255","-87.61753679473406","(41.66475041327, -87.617536794734)"
"2018-12-14T00:00:00.000","Open",,"18-03360310","Pothole in Street",,,,"4200 N MARMORA AVE","60634","1136263.46920868","1927319.26009654","38","16","15",,"41.95682146634144","-87.77460540621017","(41.956821466341, -87.77460540621)"
"2018-12-14T00:00:00.000","Open - Dup",,"18-03362678","Pothole in Street",,,,"323 E LOWER WACKER DR","60601","1178500.12809411","1902563.23368375","42","1","32",,"41.887526695734984","-87.61963741497823","(41.887526695735, -87.619637414978)"
"2018-12-14T00:00:00.000","Open",,"18-03360025","Pothole in Street","Final Outcome","Pothole Patched","14","150 E 81ST ST","60619","1178558.2027764","1851331.08450748","6","6","44",,"41.74749048438656","-87.61975353530336","(41.747490484387, -87.619753535303)"
"2018-12-14T00:00:00.000","Open",,"18-03360343","Pothole in Street",,,,"4300 N AUSTIN AVE","60634","1135577.97109616","1927968.67221855","38","16","15",,"41.958616561804476","-87.77710906510092","(41.958616561804, -87.777109065101)"
"2018-12-14T00:00:00.000","Open - Dup",,"18-03360251","Pothole in Street",,,,"10900 S LONGWOOD DR","60643","1164970.79007704","1832320.05998667","19","22","75",,"41.69542763293476","-87.67175305703175","(41.695427632935, -87.671753057032)"
"2018-12-14T00:00:00.000","Open",,"18-03359527","Pothole in Street",,,,"7700 S WINCHESTER AVE","60620","1164693.74640374","1853602.19081948","17","6","71",,"41.75379752005542","-87.6721682886467","(41.753797520055, -87.672168288647)"
"2018-12-14T00:00:00.000","Open",,"18-03360340","Pothole in Street",,,,"4100 N MONITOR AVE","60634","1136616.78970362","1926663.17226986","38","16","15",,"41.95501535261023","-87.77332148441151","(41.95501535261, -87.773321484412)"
"2018-12-14T00:00:00.000","Open",,"18-03355983","Pothole in Street",,,,"4519 N MASON AVE","60630","1135864.28700366","1929447.40760826","38","16","15",,"41.962827884274056","-87.77573245248078","(41.962827884274, -87.775732452481)"
"2018-12-14T00:00:00.000","Open",,"18-03355732","Pothole in Street",,,,"505 N ASHLAND AVE","60622","1165636.6342308","1903627.93911803","1","12","24",,"41.89114005929022","-87.66699947330164","(41.89114005929, -87.666999473302)"
"2018-12-14T00:00:00.000","Open",,"18-03361576","Pothole in Street",,,,"4815 W ARGYLE ST","60630","1143349.06920275","1932810.96250432","45","16","12",,"41.97156165995293","-87.74854786539677","(41.971561659953, -87.748547865397)"
"2018-12-14T00:00:00.000","Open",,"18-03360058","Pothole in Street","Final Outcome","Pothole Patched","44","100 E 84TH ST","60619","1178614.71039703","1849337.29287038","6","6","44",,"41.74199310910466","-87.6210597002936","(41.741993109105, -87.621059700294)"
"2018-12-14T00:00:00.000","Open",,"18-03360754","Pothole in Street",,,,"3255 N MARMORA AVE","60634","1136469.66618826","1921258.44399353","30","16","15","2","41.9401469572139","-87.77369714716059","(41.940146957214, -87.773697147161)"
"2018-12-14T00:00:00.000","Open - Dup",,"18-03362488","Pothole in Street",,,,"2720 N MEADE AVE","60639","1135268.74757627","1917441.29901227","30","25","19",,"41.92993219971535","-87.77850309617365","(41.929932199715, -87.778503096174)"
"2018-12-14T00:00:00.000","Open",,"18-03360737","Pothole in Street",,,,"5115 S CAMPBELL AVE","60632","1160567.95081994","1870678.823325","14","9","63",,"41.8006285835849","-87.68652023062195","(41.800628583585, -87.686520230622)"
"2018-12-14T00:00:00.000","Open",,"18-03360033","Pothole in Street","Final Outcome","Pothole Patched","31","15 E 82ND ST","60619","1177861.50131696","1850644.62999077","6","6","44",,"41.7453795287027","-87.62373344607198","(41.745379528703, -87.623733446072)"
"2018-12-14T00:00:00.000","Open",,"18-03359729","Pothole in Street",,,,"7150 W SCHUBERT AVE","60707","1128078.66947843","1917146.12248522","29","25","18",,"41.92906950775079","-87.80483627397982","(41.929069507751, -87.80483627398)"
"2018-12-14T00:00:00.000","Open - Dup",,"18-03361832","Pothole in Street",,,,"4412 W GEORGE ST","60641","1146410.54730641","1918915.93891235","31","25","20",,"41.933591652083386","-87.73739538093778","(41.933591652083, -87.737395380938)"
"2018-12-14T00:00:00.000","Completed - Dup","2018-12-14T00:00:00.000","18-03359493","Pothole in Street",,,,"2718 W MONTROSE AVE","60618","1157363.7300334","1929115.92147918","33","17","14","60","41.96136942297828","-87.69689245583815","(41.961369422978, -87.696892455838)"
"2018-12-14T00:00:00.000","Completed - Dup","2018-12-17T00:00:00.000","18-03356155","Pothole in Street",,,,"799 W GRAND AVE","60654","1170954.17731639","1903683.95789707","27","12","24",,"41.8910758893113","-87.64752724013721","(41.891075889311, -87.647527240137)"
"2018-12-14T00:00:00.000","Open",,"18-03356061","Pothole in Street",,,,"4400 W 35TH PL","60632","1147583.32506934","1881460.4896719","22","10","30",,"41.83079106178359","-87.73408231468633","(41.830791061784, -87.734082314686)"
"2018-12-14T00:00:00.000","Open - Dup",,"18-03357932","Pothole in Street",,,,"4348 W GRAND AVE","60639","1146972.7476683","1910275.92502015","36","25","23",,"41.90987702827536","-87.7354853999699","(41.909877028275, -87.73548539997)"
"2018-12-14T00:00:00.000","Open - Dup",,"18-03361655","Pothole in Street",,,,"6500 W 64TH ST","60638","1134187.23143385","1861377.64028573","23","8","64",,"41.775924572734226","-87.7837653394065","(41.775924572734, -87.783765339406)"
"2018-12-14T00:00:00.000","Open",,"18-03358710","Pothole in Street",,,,"9000 S COTTAGE GROVE AVE","60619","1183136.66499763","1845474.30481671","8","6","44","51","41.73113028503603","-87.60483500332792","(41.731130285036, -87.604835003328)"
"2018-12-14T00:00:00.000","Open",,"18-03360046","Pothole in Street","Final Outcome","Pothole Patched","17","200 E 82ND ST","60619","1179018.08779296","1850679.86410084","6","6","44",,"41.745668138759875","-87.61954110374394","(41.74566813876, -87.619541103744)"
"2018-12-14T00:00:00.000","Open",,"18-03356770","Pothole in Street",,,,"400 W 28TH ST","60616","1174053.57540033","1886381.89806965","11","9","34",,"41.84374792470481","-87.63680117443113","(41.843747924705, -87.636801174431)"
"2018-12-14T00:00:00.000","Open",,"18-03357234","Pothole in Street",,,,"916 N DAMEN AVE","60622","1162901.99660293","1906184.199923","2","12","24",,"41.89828116936385","-87.67726727896064","(41.898281169364, -87.677267278961)"
"2018-12-14T00:00:00.000","Open",,"18-03360200","Pothole in Street",,,,"7406 W EVERELL AVE","60631","1125925.94852952","1940306.8619172","41","16","10",,"41.99265422913503","-87.81237484194003","(41.992654229135, -87.81237484194)"
"2018-12-14T00:00:00.000","Open",,"18-03357651","Pothole in Street",,,,"8126 W GREGORY ST","60656","1121016.3600043","1935787.14596828","41","16","10",,"41.98033842094528","-87.83039008867848","(41.980338420945, -87.830390088678)"
"2018-12-14T00:00:00.000","Open",,"18-03361189","Pothole in Street",,,,"3200 W BRYN MAWR AVE","60659","1154030.63927197","1937038.65998421","39","17","13",,"41.98317645731145","-87.70893943216761","(41.983176457311, -87.708939432168)"
"2018-12-14T00:00:00.000","Open",,"18-03356482","Pothole in Street",,,,"5915 S DAN RYAN EXPRESS SR","60621","1175658.67392241","1865738.90861405","20","7","68",,"41.78674457993747","-87.63134708485649","(41.786744579937, -87.631347084856)"
"2018-12-14T00:00:00.000","Open",,"18-03360036","Pothole in Street","Final Outcome","Pothole Patched","18","100 E 82ND ST","60619","1178576.54732465","1850666.59921358","6","6","44",,"41.74564207709505","-87.62115995903984","(41.745642077095, -87.62115995904)"
"2018-12-14T00:00:00.000","Open - Dup",,"18-03358590","Pothole in Street",,,,"4101 W LAWRENCE AVE","60630","1148184.28292467","1931584.01352369","39","17","14",,"41.968104654363614","-87.73053778099141","(41.968104654364, -87.730537780991)"
"2018-12-14T00:00:00.000","Open",,"18-03361720","Pothole in Street",,,,"1002 E 87TH ST","60619","1184313.61803435","1847500.74949482","8","4","44","50","41.73682220284279","-87.60024350062355","(41.736822202843, -87.600243500624)"
"2018-12-14T00:00:00.000","Open",,"18-03357083","Pothole in Street",,,,"7159 W 57TH ST","60638","1129345.81008045","1865899.86589068","23","8","56",,"41.78825451591673","-87.80124981648798","(41.788254515917, -87.801249816488)"
"2018-12-14T00:00:00.000","Completed - Dup","2018-12-17T00:00:00.000","18-03358947","Pothole in Street",,,,"3550 W FOSTER AVE","60625","1151579.83990404","1934315.18290097","39","17","13",,"41.97575317361492","-87.71795857863768","(41.975753173615, -87.717958578638)"
"2018-12-14T00:00:00.000","Open",,"18-03361336","Pothole in Street",,,,"6299 S INDIANA AVE","60637","1178697.3507273","1863268.17576991","20","3","40",,"41.78022230061535","-87.62028638868955","(41.780222300615, -87.62028638869)"
"2018-12-14T00:00:00.000","Open - Dup",,"18-03361665","Pothole in Street",,,,"6700 W 64TH ST","60638","1132856.53081708","1861341.76467621","23","8","64",,"41.775850523371275","-87.78864287782638","(41.775850523371, -87.788642877826)"
"2018-12-14T00:00:00.000","Open - Dup",,"18-03360313","Pothole in Street",,,,"3506 W HOLLYWOOD AVE","60659","1151955.42927581","1937650.74487936","39","17","13",,"41.98489740429518","-87.71657371113349","(41.984897404295, -87.716573711133)"
"2018-12-14T00:00:00.000","Open",,"18-03361654","Pothole in Street",,,,"2350 W 112TH ST","60643","1163060.26998211","1830256.04001618","19","22","75",,"41.68993500324726","-87.68060928274424","(41.689935003247, -87.680609282744)"
"2018-12-14T00:00:00.000","Open - Dup",,"18-03359692","Pothole in Street",,,,"5600 W MONTROSE AVE","60634","1138216.0573064","1928698.95041638","38","16","15",,"41.96059349545158","-87.76730626505186","(41.960593495452, -87.767306265052)"
"2018-12-14T00:00:00.000","Open",,"18-03357169","Pothole in Street",,,,"10715 S ALBANY AVE","60655","1157557.19860786","1833413.00912471","19","22","74",,"41.698425553061284","-87.69856863212677","(41.698425553061, -87.698568632127)"
"2018-12-14T00:00:00.000","Open",,"18-03361266","Pothole in Street",,,,"1725 W JACKSON BLVD","60612","1164855.68808726","1898674.14551714","27","12","28",,"41.877457721728234","-87.6702656620153","(41.877457721728, -87.670265662015)"
"2018-12-14T00:00:00.000","Open",,"18-03361500","Pothole in Street",,,,"3443 N PAGE AVE","60634","1121810.47521992","1921844.62540825","38","16","17",,"41.942427327094805","-87.82758012797771","(41.942427327095, -87.827580127978)"
"2018-12-14T00:00:00.000","Open",,"18-03359289","Pothole in Street",,,,"3730 W FULLERTON AVE","60647","1150979.16507091","1915694.27208114","31","25","22",,"41.92466650126917","-87.72072428514568","(41.924666501269, -87.720724285146)"
"2018-12-14T00:00:00.000","Completed","2018-12-14T00:00:00.000","18-03360800","Pothole in Street","Final Outcome","Completed Upon Arrival","0","7000 W BARRY AVE","60634","1129044.16998017","1919896.65986903","29","25","18",,"41.936599942823804","-87.80123702614033","(41.936599942824, -87.80123702614)"
"2018-12-14T00:00:00.000","Open",,"18-03361719","Pothole in Street",,,,"2619 W 86TH ST","60652","1160334.77003401","1847433.71996999","18","8","70",,"41.73693782564858","-87.68832517013396","(41.736937825649, -87.688325170134)"
"2018-12-14T00:00:00.000","Open",,"18-03358709","Pothole in Street",,,,"5600 S DREXEL AVE","60637","1183191.76002074","1868070.96999494","5","2","41",,"41.79309143660869","-87.60393042229163","(41.793091436609, -87.603930422292)"
"2018-12-14T00:00:00.000","Open",,"18-03360093","Pothole in Street",,,,"2819 E 95TH ST","60617","1196494.2900175","1842505.01578287","10","4","51",,"41.72260027156503","-87.55573441077465","(41.722600271565, -87.555734410775)"
"2018-12-14T00:00:00.000","Open",,"18-03357191","Pothole in Street",,,,"2400 W IRVING PARK RD","60618","1159659.64501828","1926492.05129768","47","19","5","38","41.954120696614304","-87.68858958151804","(41.954120696614, -87.688589581518)"
"2018-12-14T00:00:00.000","Open",,"18-03361038","Pothole in Street",,,,"10144 S STATE ST","60628","1178046.68452566","1837616.48007802","9","5","49",,"41.70946952750681","-87.62371458429658","(41.709469527507, -87.623714584297)"
"2018-12-14T00:00:00.000","Open",,"18-03360065","Pothole in Street",,,,"10926 S LONGWOOD DR","60643","1164973.89007704","1832218.15998667","19","22","75",,"41.694908565225695","-87.6717374103577","(41.694908565226, -87.671737410358)"
"2018-12-14T00:00:00.000","Open",,"18-03360183","Pothole in Street",,,,"3500 W GRENSHAW ST","60624","1153212.24250248","1894835.84831018","24","11","29",,"41.86738420111949","-87.71313391890325","(41.867384201119, -87.713133918903)"
"2018-12-14T00:00:00.000","Open",,"18-03360332","Pothole in Street",,,,"4300 N MARMORA AVE","60634","1136242.64679382","1927984.50252783","38","16","15",,"41.95864857764994","-87.77466468942549","(41.95864857765, -87.774664689425)"
"2018-12-14T00:00:00.000","Open - Dup",,"18-03360305","Pothole in Street",,,,"1600 N AUSTIN AVE","60639","1136064.68327255","1910015.45267395","29","25","25",,"41.90939056630653","-87.7756631010805","(41.909390566307, -87.77566310108)"
"2018-12-14T00:00:00.000","Open - Dup",,"18-03359700","Pothole in Street",,,,"824 W 87TH ST","60620","1172227.70761927","1847163.56650953","21","6","71",,"41.73616599592239","-87.64485711761948","(41.736165995922, -87.644857117619)"
"2018-12-14T00:00:00.000","Open - Dup",,"18-03357221","Pothole in Street",,,,"2018 W NORTH AVE","60647","1162625.71848325","1910645.44219595","2","14","24","33","41.910583643852554","-87.67810342196974","(41.910583643853, -87.67810342197)"
"2018-12-14T00:00:00.000","Open",,"18-03359839","Pothole in Street",,,,"1600 N LAKE SHORE DR","60614","1176689.23258486","1911038.66657716","43","18","7",,"41.911224555610815","-87.6264825724256","(41.911224555611, -87.626482572426)"
"2018-12-14T00:00:00.000","Completed","2018-12-14T00:00:00.000","18-03360709","Pothole in Street","Final Outcome","Pothole Patched","10","2844 W GRACE ST","60618","1156639.41707381","1925123.97961186","33","17","16",,"41.95042902348595","-87.6999704207997","(41.950429023486, -87.6999704208)"
"2018-12-14T00:00:00.000","Open",,"18-03357946","Pothole in Street",,,,"6308 N HARLEM AVE","60631","1127374.56729307","1941462.45201457","41","16","9",,"41.995688080012066","-87.80696129020262","(41.995688080012, -87.806961290203)"
"2018-12-14T00:00:00.000","Open",,"18-03362015","Pothole in Street",,,,"5700 N OCTAVIA AVE","60631","1126634.84858547","1937237.65141036","41","16","10",,"41.98417461451307","-87.80980477429797","(41.984174614513, -87.809804774298)"
"2018-12-14T00:00:00.000","Open",,"18-03359682","Pothole in Street",,,,"800 W MONTROSE AVE","60613","1170124.00038189","1929426.62978197","46","19","3","34","41.961952099022184","-87.6499773331093","(41.961952099022, -87.649977333109)"
"2018-12-14T00:00:00.000","Open - Dup",,"18-03359288","Pothole in Street",,,,"2666 W FULLERTON AVE","60647","1158301.07987183","1915851.8203788","1","14","22",,"41.92494196691","-87.69491046030078","(41.92494196691, -87.694910460301)"
"2018-12-14T00:00:00.000","Open",,"18-03359817","Pothole in Street",,,,"1725 N LA SALLE DR","60614","1174809.18148846","1911930.39072949","43","18","7",,"41.91371701645605","-87.63306982825203","(41.913717016456, -87.633069828252)"
"2018-12-14T00:00:00.000","Open",,"18-03359131","Pothole in Street",,,,"5440 S RICHMOND ST","60632","1157634.97267069","1868425.2925934","14","9","63",,"41.79422477626473","-87.69762318454727","(41.794224776265, -87.697623184547)"
"2018-12-14T00:00:00.000","Open",,"18-03356018","Pothole in Street",,,,"4005 W BELMONT AVE","60641","1149132.29367639","1920978.26587567","31","25","21",,"41.938982814649364","-87.72745908462802","(41.938982814649, -87.727459084628)"
"2018-12-14T00:00:00.000","Completed - Dup","2018-12-31T00:00:00.000","18-03359290","Pothole in Street",,,,"4300 S WENTWORTH AVE","60609","1175648.38580534","1876475.1979188","3","9","37",,"41.81639453372854","-87.6313400897933","(41.816394533729, -87.631340089793)"
"2018-12-13T00:00:00.000","Completed","2018-12-18T00:00:00.000","18-03352764","Pothole in Street","Final Outcome","Pothole Patched","4","205 E MONROE DR","60603","1177798.61391507","1899973.44361656","42","1","32",,"41.880743141405794","-87.62244934027387","(41.880743141406, -87.622449340274)"
"2018-12-13T00:00:00.000","Completed","2018-12-31T00:00:00.000","18-03346591","Pothole in Street","Final Outcome","Pothole Patched","9","8518 S SPRINGFIELD AVE","60652","1151904.26190917","1847669.03310521","18","8","70",,"41.73785306796871","-87.71924906462462","(41.737853067969, -87.719249064625)"
"2018-12-13T00:00:00.000","Open",,"18-03349317","Pothole in Street",,,,"2440 W 63RD ST","60629","1161080.86527829","1862811.81449598","16","8","66","3","41.7793442633867","-87.68529586267398","(41.779344263387, -87.685295862674)"
"2018-12-13T00:00:00.000","Open",,"18-03351215","Pothole in Street",,,,"1359 W 104TH ST","60643","1168963.4551001","1835802.00353342","34","22","72",,"41.70483976955376","-87.65731445520075","(41.704839769554, -87.657314455201)"
"2018-12-13T00:00:00.000","Open",,"18-03351156","Pothole in Street",,,,"3700 W NORTH AVE","60647","1151441.11287228","1910379.96948625","26","25","23",,"41.91007656187643","-87.71898784853823","(41.910076561876, -87.718987848538)"
"2018-12-13T00:00:00.000","Open",,"18-03352271","Pothole in Street",,,,"4101 W LAWRENCE AVE","60630","1148184.28292467","1931584.01352369","39","17","14",,"41.968104654363614","-87.73053778099141","(41.968104654364, -87.730537780991)"
"2018-12-13T00:00:00.000","Open - Dup",,"18-03349980","Pothole in Street",,,,"10857 S EGGLESTON AVE","60628","1175216.31801214","1832906.96520961","34","22","49",,"41.69630181215359","-87.63391434198239","(41.696301812154, -87.633914341982)"
"2018-12-13T00:00:00.000","Open - Dup",,"18-03351233","Pothole in Street",,,,"1353 W 104TH ST","60643","1168986.4551001","1835802.50353342","34","22","72",,"41.704843638750674","-87.65702982971601","(41.704843638751, -87.657029829716)"
"2018-12-13T00:00:00.000","Open",,"18-03348942","Pothole in Street",,,,"398 E LOWER WACKER DR","60601","1179158.19671798","1902504.42402091","42","1","32",,"41.88788503584082","-87.61766861893602","(41.887885035841, -87.617668618936)"
"2018-12-13T00:00:00.000","Open",,"18-03349537","Pothole in Street",,,,"2900 W 62ND ST","60629","1158111.31710384","1863395.97079318","16","8","66",,"41.781011521507125","-87.69594382001863","(41.781011521507, -87.695943820019)"
"2018-12-13T00:00:00.000","Open",,"18-03346638","Pothole in Street",,,,"519 W ARLINGTON PL","60614","1172420.47312762","1916731.14151165","43","19","7","23","41.92667594193231","-87.6419989198988","(41.926675941932, -87.641998919899)"
"2018-12-13T00:00:00.000","Open",,"18-03351265","Pothole in Street",,,,"6336 W FOSTER AVE","60630","1132898.79142801","1934193.03580906","45","16","11",,"41.97576459505513","-87.78672560198292","(41.975764595055, -87.786725601983)"
"2018-12-13T00:00:00.000","Open",,"18-03349163","Pothole in Street",,,,"4656 W LELAND AVE","60630","1144401.48002425","1930838.05158752","39","17","16",,"41.96634190354003","-87.74509761113767","(41.96634190354, -87.745097611138)"
"2018-12-13T00:00:00.000","Open",,"18-03349224","Pothole in Street",,,,"7321 N OKETO AVE","60631","1126063.51201538","1948046.95107013","41","16","9",,"42.014057262329835","-87.81133961669948","(42.01405726233, -87.811339616699)"
"2018-12-13T00:00:00.000","Open",,"18-03351152","Pothole in Street",,,,"1415 W 122ND ST","60643","1169049.90137492","1823810.48349483","34","5","53",,"41.6720194207608","-87.6569346067756","(41.672019420761, -87.656934606776)"
"2018-12-13T00:00:00.000","Completed","2018-12-14T00:00:00.000","18-03350362","Pothole in Street","Final Outcome","Pothole Patched","2","2649 W MONTROSE AVE","60618","1157742.33069692","1929122.08051075","33","17","16",,"41.961158158806505","-87.6955571128361","(41.961158158807, -87.695557112836)"
"2018-12-13T00:00:00.000","Completed","2018-12-13T00:00:00.000","18-03352129","Pothole in Street","Final Outcome","Pothole Patched","1","2246 N GENEVA TER","60614","1171893.82679403","1915287.24989851","43","18","7","35","41.92330498643634","-87.6439801073231","(41.923304986436, -87.643980107323)"
"2018-12-13T00:00:00.000","Completed - Dup","2018-12-31T00:00:00.000","18-03354347","Pothole in Street",,,,"3045 W 41ST ST","60632","1156724.68447402","1877290.95006826","15","9","58",,"41.81893656453618","-87.70127179018633","(41.818936564536, -87.701271790186)"
"2018-12-13T00:00:00.000","Completed","2018-12-14T00:00:00.000","18-03350333","Pothole in Street","Final Outcome","Pothole Patched","6","1451 W WINONA ST","60640","1165553.36431809","1934300.0166039","47","20","3","22","41.97521365259304","-87.66670048274115","(41.975213652593, -87.666700482741)"
"2018-12-13T00:00:00.000","Completed - Dup","2018-12-14T00:00:00.000","18-03352822","Pothole in Street",,,,"2135 W AINSLIE ST","60625","1161108.54022464","1932518.51920621","47","20","4","31","41.97040829002569","-87.68305652080167","(41.970408290026, -87.683056520802)"
"2018-12-13T00:00:00.000","Open - Dup",,"18-03351134","Pothole in Street",,,,"5199 N CENTRAL PARK AVE","60625","1151454.98000741","1934312.35001181","39","17","13",,"41.975541358400704","-87.71828027637316","(41.975541358401, -87.718280276373)"
"2018-12-13T00:00:00.000","Completed","2018-12-14T00:00:00.000","18-03352699","Pothole in Street","Final Outcome","Pothole Patched","1","2647 W EASTWOOD AVE","60625","1157783.7118257","1930732.90703188","47","19","4",,"41.96557627290253","-87.69558682665935","(41.965576272903, -87.695586826659)"
"2018-12-13T00:00:00.000","Completed","2018-12-13T00:00:00.000","18-03352876","Pothole in Street","Final Outcome","Pothole Patched","3","8900 S CARPENTER ST","60620","1170876.53990696","1845703.49211644","21","22","73",,"41.73200176442294","-87.64974008563641","(41.732001764423, -87.649740085636)"
"2018-12-13T00:00:00.000","Open - Dup",,"18-03351175","Pothole in Street",,,,"1400 W 122ND ST","60643","1169209.20137492","1823847.38349483","34","5","53",,"41.6722512580941","-87.656401124544","(41.672251258094, -87.656401124544)"
"2018-12-13T00:00:00.000","Open - Dup",,"18-03349923","Pothole in Street",,,,"7115 N OLCOTT AVE","60631","1125487.62072747","1946658.37667909","41","16","9",,"42.01019771589758","-87.81348958633421","(42.010197715898, -87.813489586334)"
"2018-12-13T00:00:00.000","Open - Dup",,"18-03350326","Pothole in Street",,,,"718 W 110TH ST","60628","1173411.27172886","1831917.85946838","34","22","49",,"41.69430490071275","-87.6408939886346","(41.694304900713, -87.640893988635)"
"2018-12-13T00:00:00.000","Open",,"18-03354930","Pothole in Street",,,,"4616 S LECLAIRE AVE","60638","1143135.45557414","1873548.75279637","22","8","56",,"41.80880349221437","-87.75067447729616","(41.808803492214, -87.750674477296)"
"2018-12-13T00:00:00.000","Open - Dup",,"18-03351198","Pothole in Street",,,,"3601 W NORTH AVE","60647","1152085.35508797","1910394.87389402","26","25","23",,"41.90988374801486","-87.71675134304142","(41.909883748015, -87.716751343041)"
"2018-12-13T00:00:00.000","Open",,"18-03354514","Pothole in Street",,,,"4800 W AUGUSTA BLVD","60651","1144177.779918","1906218.88591175","37","15","25",,"41.89878961375351","-87.74602339004822","(41.898789613754, -87.746023390048)"
"2018-12-13T00:00:00.000","Open",,"18-03350449","Pothole in Street",,,,"58 W 104TH ST","60628","1177710.96788659","1836007.35280951","34","5","49",,"41.70542319342193","-87.62565393241418","(41.705423193422, -87.625653932414)"
"2018-12-13T00:00:00.000","Open - Dup",,"18-03350013","Pothole in Street",,,,"3110 W DIVISION ST","60622","1155358.94448745","1907816.34871944","26","14","24",,"41.902962375889395","-87.70481177048107","(41.902962375889, -87.704811770481)"
"2018-12-13T00:00:00.000","Open - Dup",,"18-03350987","Pothole in Street","Final Outcome","Pothole Patched","3","5817 N CENTRAL AVE","60646","1137876.1185099","1938180.74097024","39","16","11",,"41.986444153795375","-87.76811956795373","(41.986444153795, -87.768119567954)"
"2018-12-13T00:00:00.000","Completed","2018-12-24T00:00:00.000","18-03349474","Pothole in Street","Final Outcome","Pothole Patched","10","4854 S LAFLIN ST","60609","1167154.80022778","1872545.44943189","20","9","61",,"41.805196995003556","-87.66259410895951","(41.805196995004, -87.66259410896)"
"2018-12-13T00:00:00.000","Open",,"18-03351500","Pothole in Street",,,,"4200 W NORTH AVE","60639","1148088.5257679","1910302.1549294","26","25","23",,"41.909928420721066","-87.73131793908917","(41.909928420721, -87.731317939089)"
"2018-12-13T00:00:00.000","Completed","2018-12-14T00:00:00.000","18-03352669","Pothole in Street","Final Outcome","Pothole Patched","2","2405 W SUNNYSIDE AVE","60625","1159503.73809922","1929816.27003421","47","19","4","21","41.96302821128456","-87.68898000332467","(41.963028211285, -87.688980003325)"
"2018-12-13T00:00:00.000","Completed","2018-12-13T00:00:00.000","18-03351101","Pothole in Street","Final Outcome","Pothole Patched","2","5917 N CENTRAL AVE","60646","1138359.95382641","1939168.74808686","39","16","11",,"41.98916661302085","-87.76624002170944","(41.989166613021, -87.766240021709)"
"2018-12-13T00:00:00.000","Completed","2018-12-14T00:00:00.000","18-03352832","Pothole in Street","Final Outcome","Pothole Patched","4","4858 N HAMILTON AVE","60625","1161129.84022464","1932282.91920621","47","20","4","31","41.970450636131446","-87.6830637029868","(41.970450636131, -87.683063702987)"
"2018-12-13T00:00:00.000","Completed","2018-12-14T00:00:00.000","18-03349654","Pothole in Street","Final Outcome","Pothole Patched","4","5611 N WESTERN AVE","60659","1159310.85999497","1937188.03002487","40","20","4",,"41.983541994869526","-87.68931219573751","(41.98354199487, -87.689312195738)"
"2018-12-13T00:00:00.000","Completed","2018-12-13T00:00:00.000","18-03352886","Pothole in Street","Final Outcome","Pothole Patched","20","1132 W 91ST ST","60620","1170253.26917437","1844450.77837303","21","22","73",,"41.72876787361288","-87.65197861212252","(41.728767873613, -87.651978612123)"
"2018-12-13T00:00:00.000","Open - Dup",,"18-03350577","Pothole in Street",,,,"3400 W NORTH AVE","60647","1153406.81158771","1910426.28957124","26","14","23",,"41.91016284680269","-87.71195386769125","(41.910162846803, -87.711953867691)"
"2018-12-13T00:00:00.000","Open - Dup",,"18-03350605","Pothole in Street",,,,"3401 W NORTH AVE","60647","1153397.11158771","1910426.08957124","26","14","23",,"41.90994333506405","-87.71194978316811","(41.909943335064, -87.711949783168)"
"2018-12-13T00:00:00.000","Open - Dup",,"18-03355575","Pothole in Street",,,,"6723 S WENTWORTH AVE","60621","1176120.76410795","1860395.79072971","6","7","69",,"41.77199585120445","-87.62978994392712","(41.771995851204, -87.629789943927)"
"2018-12-13T00:00:00.000","Open - Dup",,"18-03351396","Pothole in Street",,,,"3901 W NORTH AVE","60647","1150083.00599979","1910350.78008228","26","25","23",,"41.90980178212476","-87.72414177302362","(41.909801782125, -87.724141773024)"
"2018-12-13T00:00:00.000","Open - Dup",,"18-03352101","Pothole in Street",,,,"1208 W 122ND ST","60643","1170452.26390294","1823881.56271652","34","5","53",,"41.67231786550702","-87.65186950723258","(41.672317865507, -87.651869507233)"
"2018-12-13T00:00:00.000","Open",,"18-03349863","Pothole in Street",,,,"10724 S EGGLESTON AVE","60628","1175188.53690292","1833791.44491419","34","22","49",,"41.69896927775523","-87.63428886712119","(41.698969277755, -87.634288867121)"
"2018-12-13T00:00:00.000","Open",,"18-03352783","Pothole in Street",,,,"4505 N LEAVITT ST","60625","1160875.62032719","1929904.42837677","47","19","4",,"41.963382891920055","-87.68374468563373","(41.96338289192, -87.683744685634)"
"2018-12-13T00:00:00.000","Open - Dup",,"18-03350797","Pothole in Street",,,,"8 W 110TH ST","60628","1178159.74519049","1832030.0679951","34","5","49",,"41.6945105952303","-87.62350189912702","(41.69451059523, -87.623501899127)"
