Season,Facility ID,Latitude,Longitude,Street1,Street2,City,State,Postal Code,Country,Facility Name,URL,Phone,Contact,Begin Date,End Date,Begin Time,End Time,Begin DateTime,End DateTime,Recurrence Days,Hours,Eligibility,Cost,Notes,Record ID,Location,Boundaries - ZIP Codes,Community Areas,Zip Codes,Census Tracts,Wards
2016-2017,272,41.96739,-87.7599,4777 NORTH MILWAUKEE AVENUE,,CHICAGO,IL,60630,United States of America,CVS/pharmacy,http://www.cvs.com,773-205-3270,,10/01/2016,09/01/2020,,,,,"Sunday, Monday, Tuesday, Wednesday, Thursday, Friday, Saturday","Mon: 8:00 AM-9:00 PM, Tue: 8:00 AM-9:00 PM, Wed: 8:00 AM-9:00 PM, Thu: 8:00 AM-9:00 PM, Fri: 8:00 AM-9:00 PM, Sat: 9:00 AM-5:00 PM, Sun: 9:00 AM-5:00 PM",,Call for details.,Minimum Age Requirement for Flu Shot: 10.,2016-2017_272,"(41.96739, -87.7599)",48,15,21869,260,50
2016-2017,127,41.9244041,-87.7665174,5600 W FULLERTON AVE,,CHICAGO,IL,60639,United States of America,Walgreens,http://www.Walgreens.com,773-745-1640,Pharmacy,10/01/2016,09/01/2020,,,,,"Sunday, Monday, Tuesday, Wednesday, Thursday, Friday, Saturday","Mon-Fri: Midnight - Mindnight, Sat: Midnight - Mindnight, Sun: Midnight - Mindnight",,Call for details.,,2016-2017_127,"(41.9244041, -87.7665174)",2,19,22615,58,21
2016-2017,196,41.993701,-87.6900988,6140 N WESTERN AVE,,CHICAGO,IL,60659,United States of America,Walgreens,http://www.Walgreens.com,773-764-50,Pharmacy,10/01/2016,09/01/2020,,,,,"Sunday, Monday, Tuesday, Wednesday, Thursday, Friday, Saturday","Mon-Fri: 8:00 AM-10:00 PM, Sat: 9:00 AM-5:00 PM, Sun: 9:00 AM-5:00 PM",,Call for details.,,2016-2017_196,"(41.993701, -87.6900988)",50,20,4450,31,24
2016-2017,40,41.801751,-87.630697,5101 S. Wentworth Ave.,,Chicago,IL,60609,United States of America,Chicago Police Department - 2nd District,,312-745-3490,PO Melvin Bailey,10/26/2015,10/26/2015,9:00:00,15:00:00,10/26/2015 09:00:00 AM,10/26/2015 03:00:00 PM,Monday,,,"No cost to individual. If insured, insurance will be billed.",Free to individual. Insurance will be billed.,2016-2017_40,"(41.801751, -87.630697)",37,3,14924,224,9
2016-2017,148,41.706799,-87.620699,10300 S MICHIGAN AVE,,CHICAGO,IL,60628,United States of America,Walgreens,http://www.Walgreens.com,773-468-602,Pharmacy,10/01/2016,09/01/2020,,,,,"Sunday, Monday, Tuesday, Wednesday, Thursday, Friday, Saturday","Mon-Fri: 8:00 AM-10:00 PM, Sat: 9:00 AM-5:00 PM, Sun: 10:00 AM-5:00 PM",,Call for details.,,2016-2017_148,"(41.706799, -87.620699)",19,45,21861,236,43
2016-2017,83,41.844099,-87.724799,4005 W 26TH ST,,CHICAGO,IL,60623,United States of America,Walgreens,http://www.Walgreens.com,773-521-9504,Pharmacy,10/01/2016,09/01/2020,,,,,"Sunday, Monday, Tuesday, Wednesday, Thursday, Friday, Saturday","Mon-Fri: 8:00 AM-10:00 PM, Sat: 9:00 AM-5:00 PM, Sun: 10:00 AM-5:00 PM",,Call for details.,,2016-2017_83,"(41.844099, -87.724799)",57,32,21569,194,28
2016-2017,125,41.8814413,-87.6853785,2340 W MADISON ST,,CHICAGO,IL,60612,United States of America,Walgreens,http://www.Walgreens.com,312-226-7913,Pharmacy,10/01/2016,09/01/2020,,,,,"Sunday, Monday, Tuesday, Wednesday, Thursday, Friday, Saturday","Mon-Fri: 9:00 AM-5:00 PM, Sat: 9:00 AM-5:00 PM, Sun: 9:00 AM-5:00 PM",,Call for details.,,2016-2017_125,"(41.8814413, -87.6853785)",28,29,21184,37,46
2016-2017,87,41.8962701,-87.6692183,1650 W CHICAGO AVE,,CHICAGO,IL,60622,United States of America,Walgreens,http://www.Walgreens.com,312-829-6186,Pharmacy,10/01/2016,09/01/2020,,,,,"Sunday, Monday, Tuesday, Wednesday, Thursday, Friday, Saturday","Mon-Fri: 9:00 AM-5:00 PM, Sat: 9:00 AM-5:00 PM, Sun: 9:00 AM-5:00 PM",,Call for details.,,2016-2017_87,"(41.8962701, -87.6692183)",4,25,21560,518,41
2016-2017,112,41.965499,-87.667099,1500 W WILSON AVE,,CHICAGO,IL,60640,United States of America,Walgreens,http://www.Walgreens.com,773-907-8995,Pharmacy,10/01/2016,09/01/2020,,,,,"Sunday, Monday, Tuesday, Wednesday, Thursday, Friday, Saturday","Mon-Fri: 8:00 AM-10:00 PM, Sat: 9:00 AM-5:00 PM, Sun: 10:00 AM-6:00 PM",,Call for details.,,2016-2017_112,"(41.965499, -87.667099)",15,31,22616,559,18
2016-2017,51,41.9674,-87.6491,4700 N. Marine Drive,,Chicago,IL,60640,United States of America,46th Ward-Weiss Hospital,,773-878-4646,Caitlin Mc Elroy,11/05/2015,11/05/2015,10:00:00,14:00:00,11/05/2015 10:00:00 AM,11/05/2015 02:00:00 PM,Thursday,,,"No cost to individual. If insured, insurance will be billed.",Free to individual. Insurance will be billed.,2016-2017_51,"(41.9674, -87.6491)",15,31,22616,636,39
2016-2017,102,41.9751784,-87.7676689,5230 N MILWAUKEE AVE,,CHICAGO,IL,60630,United States of America,Walgreens,http://www.Walgreens.com,773-736-8920,Pharmacy,10/01/2016,09/01/2020,,,,,"Sunday, Monday, Tuesday, Wednesday, Thursday, Friday, Saturday","Mon-Fri: 8:00 AM-10:00 PM, Sat: 9:00 AM-5:00 PM, Sun: 10:00 AM-5:00 PM",,Call for details.,,2016-2017_102,"(41.9751784, -87.7676689)",48,11,21869,780,50
2016-2017,32,41.882847,-87.630614,77 W. Washington St.,2nd Floor,Chicago,IL,60602,United States of America,42nd Ward-FUMC Chicago Temple,,312-236-4548 ext. 120,Nuntida Sirisornbatwattana,10/19/2016,10/19/2016,11:00:00,15:00:00,10/19/2016 11:00:00 AM,10/19/2016 03:00:00 PM,Wednesday,,,"No cost to individual. If insured, insurance will be billed.",Free to individual. Insurance will be billed.,2016-2017_32,"(41.882847, -87.630614)",41,38,14310,92,36
2016-2017,256,41.93005,-87.76645,2722 NORTH CENTRAL AVENUE,,CHICAGO,IL,60639,United States of America,CVS/pharmacy,http://www.cvs.com,773-804-1692,,10/01/2016,09/01/2020,,,,,"Sunday, Monday, Tuesday, Wednesday, Thursday, Friday, Saturday","Mon: 8:00 AM-10:00 PM, Tue: 8:00 AM-10:00 PM, Wed: 8:00 AM-10:00 PM, Thu: 8:00 AM-10:00 PM, Fri: 8:00 AM-10:00 PM, Sat: 9:00 AM-6:00 PM, Sun: 9:00 AM-6:00 PM",,Call for details.,Minimum Age Requirement for Flu Shot: 10.,2016-2017_256,"(41.93005, -87.76645)",2,19,22615,58,21
2016-2017,207,41.9398795,-87.6625923,1333 W BELMONT AVE,,CHICAGO,IL,60657,United States of America,Walgreens,http://www.Walgreens.com,773-549-9485,Pharmacy,10/01/2016,09/01/2020,,,,,"Sunday, Monday, Tuesday, Wednesday, Thursday, Friday, Saturday","Mon-Fri: 8:00 AM-7:00 PM, Sat: 9:00 AM-5:00 PM, Sun: 9:00 AM-5:00 PM",,Call for details.,,2016-2017_207,"(41.9398795, -87.6625923)",22,57,4449,741,25
2016-2017,91,41.924299,-87.639499,2317 N CLARK ST,,CHICAGO,IL,60614,United States of America,Walgreens,http://www.Walgreens.com,773-929-7488,Pharmacy,10/01/2016,09/01/2020,,,,,"Sunday, Monday, Tuesday, Wednesday, Thursday, Friday, Saturday","Mon-Fri: 9:00 AM-5:00 PM, Sat: 9:00 AM-5:00 PM, Sun: 9:00 AM-5:00 PM",,Call for details.,,2016-2017_91,"(41.924299, -87.639499)",16,68,21190,207,34
2016-2017,25,41.8231,-87.6785833,2210 W. Pershing Rd.,,Chicago,IL,60609,United States of America,12th Ward-McKinley Park,,562-676-8395,Jennifer Nunez,10/16/2015,10/16/2015,9:00:00,13:00:00,10/16/2015 09:00:00 AM,10/16/2015 01:00:00 PM,Friday,,,"No cost to individual. If insured, insurance will be billed.",Free to individual. Insurance will be billed.,2016-2017_25,"(41.8231, -87.6785833)",37,56,14924,719,1
2016-2017,281,41.87979,-87.62729,137 SOUTH STATE STREET,,CHICAGO,IL,60603,United States of America,CVS/pharmacy,http://www.cvs.com,312-609-1215,,10/01/2016,09/01/2020,,,,,"Sunday, Monday, Tuesday, Wednesday, Thursday, Friday, Saturday","Mon: 7:00 AM-7:00 PM, Tue: 7:00 AM-7:00 PM, Wed: 7:00 AM-7:00 PM, Thu: 7:00 AM-7:00 PM, Fri: 7:00 AM-7:00 PM, Sat: Closed, Sun: Closed",,Call for details.,Minimum Age Requirement for Flu Shot: 10.,2016-2017_281,"(41.87979, -87.62729)",34,38,14311,367,36
2016-2017,73,41.7796924,-87.6414279,641 W 63RD ST,Lower Level,CHICAGO,IL,60621,United States of America,Englewood Neighborhood Health Center,http://www.cityofchicago.org/city/en/depts/cdph/supp_info/clinical_health/immunizations_walk-inclinics.html,312-745-1000,,10/01/2016,09/01/2020,,,,,"Thursday, Friday","Thursdays: 9:00 AM-4:30 PM, Fridays: 8:00 AM to 3:30 PM",,"No cost to individual. If insured, insurance will be billed.",Free to individual. Insurance will be billed.,2016-2017_73,"(41.7796924, -87.6414279)",11,66,21559,435,4
2016-2017,179,41.9534185,-87.7280564,4001 W IRVING PARK RD,,CHICAGO,IL,60641,United States of America,Walgreens,http://www.Walgreens.com,773-685-3527,Pharmacy,10/01/2016,09/01/2020,,,,,"Sunday, Monday, Tuesday, Wednesday, Thursday, Friday, Saturday","Mon-Fri: 8:00 AM-10:00 PM, Sat: 9:00 AM-5:00 PM, Sun: 9:00 AM-5:00 PM",,Call for details.,,2016-2017_179,"(41.9534185, -87.7280564)",21,16,22618,295,50
2016-2017,80,41.9688122,-87.688439,4801 N LINCOLN AVE,,CHICAGO,IL,60625,United States of America,Walgreens,http://www.Walgreens.com,773-561-2526,Pharmacy,10/01/2016,09/01/2020,,,,,"Sunday, Monday, Tuesday, Wednesday, Thursday, Friday, Saturday","Mon-Fri: 8:00 AM-10:00 PM, Sat: 9:00 AM-5:00 PM, Sun: 10:00 AM-6:00 PM",,Call for details.,,2016-2017_80,"(41.9688122, -87.688439)",20,6,21849,54,18
2016-2017,287,41.8779,-87.63343,175 WEST JACKSON BOULEVARD,,CHICAGO,IL,60604,United States of America,CVS/pharmacy,http://www.cvs.com,312-356-8311,,10/01/2016,09/01/2020,,,,,"Sunday, Monday, Tuesday, Wednesday, Thursday, Friday, Saturday","Mon: 6:30 AM-7:00 PM, Tue: 6:30 AM-7:00 PM, Wed: 6:30 AM-7:00 PM, Thu: 6:30 AM-7:00 PM, Fri: 6:30 AM-7:00 PM, Sat: Closed, Sun: Closed",,Call for details.,Minimum Age Requirement for Flu Shot: 10.,2016-2017_287,"(41.8779, -87.63343)",29,38,14912,92,36
2016-2017,168,41.867291,-87.626941,2 E ROOSEVELT RD,,CHICAGO,IL,60605,United States of America,Walgreens,http://www.Walgreens.com,312-212-1583,Pharmacy,10/01/2016,09/01/2020,,,,,"Sunday, Monday, Tuesday, Wednesday, Thursday, Friday, Saturday","Mon-Fri: 9:00 AM-9:00 PM, Sat: 10:00 AM-5:00 PM, Sun: 10:00 AM-6:00 PM",,Call for details.,,2016-2017_168,"(41.867291, -87.626941)",35,34,14913,374,9
2016-2017,176,41.757226,-87.586265,7544 S STONY ISLAND AVE,,CHICAGO,IL,60649,United States of America,Walgreens,http://www.Walgreens.com,773-667-6959,Pharmacy,10/01/2016,09/01/2020,,,,,"Sunday, Monday, Tuesday, Wednesday, Thursday, Friday, Saturday","Mon-Fri: 9:00 AM-9:00 PM, Sat: 9:00 AM-5:00 PM, Sun: 9:00 AM-5:00 PM",,Call for details.,,2016-2017_176,"(41.757226, -87.586265)",61,39,22538,188,35
2016-2017,6,41.9093,-87.7756,6272 W. North Ave.,,Chicago,IL,60639,United States of America,29th Ward Office,,773-261-4646,Qiana Bradley,09/29/2015,09/29/2015,10:00:00,14:00:00,09/29/2015 10:00:00 AM,09/29/2015 02:00:00 PM,Tuesday,,,"No cost to individual. If insured, insurance will be billed.",Free to individual. Insurance will be billed.,2016-2017_6,"(41.9093, -87.7756)",2,26,22615,597,7
2016-2017,106,41.802899,-87.606799,5036 S COTTAGE GROVE AVE,,CHICAGO,IL,60615,United States of America,Walgreens,http://www.Walgreens.com,773-373-6266,Pharmacy,10/01/2016,09/01/2020,,,,,"Sunday, Monday, Tuesday, Wednesday, Thursday, Friday, Saturday","Mon-Fri: 8:00 AM-10:00 PM, Sat: 9:00 AM-5:00 PM, Sun: 10:00 AM-6:00 PM",,Call for details.,,2016-2017_106,"(41.802899, -87.606799)",10,4,21192,165,10
2016-2017,14,41.7662,-87.5687,2325 E. 71st St.,,Chicago,IL,60649,United States of America,5th Ward Office,,773-324-5555,Kimberly A. Webb,10/06/2015,10/06/2015,11:00:00,15:00:00,10/06/2015 11:00:00 AM,10/06/2015 03:00:00 PM,Tuesday,,,"No cost to individual. If insured, insurance will be billed.",Free to individual. Insurance will be billed.,2016-2017_14,"(41.7662, -87.5687)",24,39,22538,453,33
2016-2017,260,41.69261,-87.68078,11055 SOUTH WESTERN AVENUE,,CHICAGO,IL,60643,United States of America,CVS/pharmacy,http://www.cvs.com,773-445-1798,,10/01/2016,09/01/2020,,,,,"Sunday, Monday, Tuesday, Wednesday, Thursday, Friday, Saturday","Mon: 8:00 AM-10:00 PM, Tue: 8:00 AM-10:00 PM, Wed: 8:00 AM-10:00 PM, Thu: 8:00 AM-10:00 PM, Fri: 8:00 AM-10:00 PM, Sat: 9:00 AM-6:00 PM, Sun: 9:00 AM-6:00 PM",,Call for details.,Minimum Age Requirement for Flu Shot: 10.,2016-2017_260,"(41.69261, -87.68078)",13,74,22212,380,42
2016-2017,156,41.807599,-87.723299,3943 W 47TH ST,,CHICAGO,IL,60632,United States of America,Walgreens,http://www.Walgreens.com,773-927-523,Pharmacy,10/01/2016,09/01/2020,,,,,"Sunday, Monday, Tuesday, Wednesday, Thursday, Friday, Saturday","Mon-Fri: 9:00 AM-5:00 PM, Sat: 9:00 AM-5:00 PM, Sun: 9:00 AM-5:00 PM",,Call for details.,,2016-2017_156,"(41.807599, -87.723299)",56,54,22248,563,8
2016-2017,7,41.9819768,-87.66,5533 N. Broadway St.,,Chicago,IL,60640,United States of America,48th Ward Office,,773-784-5277,Ginger Williams,10/01/2015,10/01/2015,9:00:00,14:00:00,10/01/2015 09:00:00 AM,10/01/2015 02:00:00 PM,Thursday,,,"No cost to individual. If insured, insurance will be billed.",Free to individual. Insurance will be billed.,2016-2017_7,"(41.9819768, -87.66)",15,76,22616,145,16
2016-2017,140,41.910099,-87.745099,4748 W NORTH AVE,,CHICAGO,IL,60639,United States of America,Walgreens,http://www.Walgreens.com,773-745-6642,Pharmacy,10/01/2016,09/01/2020,,,,,"Sunday, Monday, Tuesday, Wednesday, Thursday, Friday, Saturday","Mon-Fri: Midnight - Mindnight, Sat: Midnight - Mindnight, Sun: Midnight - Mindnight",,Call for details.,,2016-2017_140,"(41.910099, -87.745099)",2,26,22615,62,45
2016-2017,31,41.783716,-87.606406,6100 S. Cottage Grove Ave.,,Chicago,IL,60637,United States of America,20th Ward  - Metro Squash,,,,10/08/2016,10/08/2016,9:00:00,13:00:00,10/08/2016 09:00:00 AM,10/08/2016 01:00:00 PM,Saturday,,,"No cost to individual. If insured, insurance will be billed.",Free to individual. Insurance will be billed.,2016-2017_31,"(41.783716, -87.606406)",60,9,22260,471,4
2016-2017,134,41.9843153,-87.6607155,5625 N RIDGE AVE,,CHICAGO,IL,60660,United States of America,Walgreens,http://www.Walgreens.com,773-989-7546,Pharmacy,10/01/2016,09/01/2020,,,,,"Sunday, Monday, Tuesday, Wednesday, Thursday, Friday, Saturday","Mon-Fri: Midnight - Mindnight, Sat: Midnight - Mindnight, Sun: Midnight - Mindnight",,Call for details.,,2016-2017_134,"(41.9843153, -87.6607155)",14,76,4451,539,16
2016-2017,200,41.954084,-87.65428,953 W IRVING PARK RD,,CHICAGO,IL,60613,United States of America,Walgreens,http://www.Walgreens.com,773-935-6414,Pharmacy,10/01/2016,09/01/2020,,,,,"Sunday, Monday, Tuesday, Wednesday, Thursday, Friday, Saturday","Mon-Fri: 8:00 AM-10:00 PM, Sat: 9:00 AM-5:00 PM, Sun: 9:00 AM-5:00 PM",,Call for details.,,2016-2017_200,"(41.954084, -87.65428)",53,57,21186,83,39
2016-2017,230,41.94106,-87.72754,3311 NORTH PULASKI ROAD,,CHICAGO,IL,60641,United States of America,CVS/pharmacy,http://www.cvs.com,773-685-5260,,10/01/2016,09/01/2020,,,,,"Sunday, Monday, Tuesday, Wednesday, Thursday, Friday, Saturday","Mon: 8:00 AM-10:00 PM, Tue: 8:00 AM-10:00 PM, Wed: 8:00 AM-10:00 PM, Thu: 8:00 AM-10:00 PM, Fri: 8:00 AM-10:00 PM, Sat: 9:00 AM-6:00 PM, Sun: 9:00 AM-6:00 PM",,Call for details.,Minimum Age Requirement for Flu Shot: 10.,2016-2017_230,"(41.94106, -87.72754)",21,16,22618,329,21
2016-2017,43,41.8595,-87.690849,2602 W. 16th St.,,Chicago,IL,60608,United States of America,28th Ward Office,,773-533-0900,Trina Mangrum,10/29/2015,10/29/2015,11:00:00,15:00:00,10/29/2015 11:00:00 AM,10/29/2015 03:00:00 PM,Thursday,,,"No cost to individual. If insured, insurance will be billed.",Free to individual. Insurance will be billed.,2016-2017_43,"(41.8595, -87.690849)",43,30,14920,16,23
2016-2017,145,41.9536669,-87.7074624,3153 W IRVING PARK RD,,CHICAGO,IL,60618,United States of America,Walgreens,http://www.Walgreens.com,773-588-9196,Pharmacy,10/01/2016,09/01/2020,,,,,"Sunday, Monday, Tuesday, Wednesday, Thursday, Friday, Saturday","Mon-Fri: 8:00 AM-10:00 PM, Sat: 8:00 AM-10:00 PM, Sun: 8:00 AM-10:00 PM",,Call for details.,,2016-2017_145,"(41.9536669, -87.7074624)",39,16,21538,372,20
2016-2017,85,41.911404,-87.6344718,1601 N WELLS ST,,CHICAGO,IL,60614,United States of America,Walgreens,http://www.Walgreens.com,312-642-4008,Pharmacy,10/01/2016,09/01/2020,,,,,"Sunday, Monday, Tuesday, Wednesday, Thursday, Friday, Saturday","Mon-Fri: 8:00 AM-10:00 PM, Sat: 8:00 AM-10:00 PM PM, Sun: 8:00 AM-10:00 PM",,Call for details.,,2016-2017_85,"(41.911404, -87.6344718)",16,68,21190,271,11
2016-2017,259,41.7069,-87.67003,1930 WEST 103RD STREET,,CHICAGO,IL,60643,United States of America,CVS/pharmacy,http://www.cvs.com,773-239-8041,,10/01/2016,09/01/2020,,,,,"Sunday, Monday, Tuesday, Wednesday, Thursday, Friday, Saturday","Mon: 8:00 AM-10:00 PM, Tue: 8:00 AM-10:00 PM, Wed: 8:00 AM-10:00 PM, Thu: 8:00 AM-10:00 PM, Fri: 8:00 AM-10:00 PM, Sat: 9:00 AM-6:00 PM, Sun: 9:00 AM-5:00 PM",,Call for details.,Minimum Age Requirement for Flu Shot: 10.,2016-2017_259,"(41.7069, -87.67003)",13,71,22212,628,42
2016-2017,161,41.7780851,-87.7721799,6016 W 63RD ST,,CHICAGO,IL,60638,United States of America,Walgreens,http://www.Walgreens.com,773-788-180,Pharmacy,10/01/2016,09/01/2020,,,,,"Sunday, Monday, Tuesday, Wednesday, Thursday, Friday, Saturday","Mon-Fri: 8:00 AM-10:00 PM, Sat: 9:00 AM-5:00 PM, Sun: 9:00 AM-5:00 PM",,Call for details.,,2016-2017_161,"(41.7780851, -87.7721799)",7,62,22268,265,15
2016-2017,177,41.9178116,-87.6884002,2001 N MILWAUKEE AVE,,CHICAGO,IL,60647,United States of America,Walgreens,http://www.Walgreens.com,773-772-2370,Pharmacy,10/01/2016,09/01/2020,,,,,"Sunday, Monday, Tuesday, Wednesday, Thursday, Friday, Saturday","Mon-Fri: Midnight - Mindnight, Sat: Midnight - Mindnight, Sun: Midnight - Mindnight",,Call for details.,,2016-2017_177,"(41.9178116, -87.6884002)",1,23,22535,323,41
2016-2017,322,41.903616,-87.631125,1165 N CLARK,,CHICAGO,IL,60610,United States of America,CVS/pharmacy,www.minuteclinic.com,312-280-8140,,10/01/2016,09/01/2020,,,,,"Monday, Tuesday, Wednesday, Thursday, Friday, Saturday, Sunday","Mon: 8:30 AM-7:30 PM, Tue: 8:30 AM-7:30 PM, Wed: 8:30 AM-7:30 PM, Thu: 8:30 AM-7:30 PM, Fri: 8:30 AM-7:30 PM, Sat: 9:00 AM-5:30 PM, Sun: 9:00 AM-4:30 PM",,,,2016-2017_322,"(41.903616, -87.631125)",54,37,14926,310,11
2016-2017,96,41.886999,-87.624699,300 N MICHIGAN AVE,,CHICAGO,IL,60601,United States of America,Walgreens,http://www.Walgreens.com,312-558-9079,Pharmacy,10/01/2016,09/01/2020,,,,,"Sunday, Monday, Tuesday, Wednesday, Thursday, Friday, Saturday","Mon-Fri: 8:00 AM-6:00 PM, Sat: Closed, Sun: Closed",,Call for details.,,2016-2017_96,"(41.886999, -87.624699)",42,38,14309,580,36
2016-2017,15,41.9442,-87.7397,3501 N. Kilbourn Ave.,,Chicago,IL,60641,United States of America,30th Ward-Kilbourn Park,,773-794-3095,Lucy Macedo,10/07/2015,10/07/2015,11:00:00,15:00:00,10/07/2015 11:00:00 AM,10/07/2015 03:00:00 PM,Wednesday,,,"No cost to individual. If insured, insurance will be billed.",Free to individual. Insurance will be billed.,2016-2017_15,"(41.9442, -87.7397)",21,16,22618,328,21
2016-2017,77,41.7955471,-87.5880337,1554 E 55TH ST,,CHICAGO,IL,60615,United States of America,Walgreens,http://www.Walgreens.com,773-667-1177,Pharmacy,10/01/2016,09/01/2020,,,,,"Sunday, Monday, Tuesday, Wednesday, Thursday, Friday, Saturday","Mon-Fri: 8:00 AM-10:00 PM, Sat: 8:00 AM-10:00 PM, Sun: 8:00 AM-10:00 PM",,Call for details.,,2016-2017_77,"(41.7955471, -87.5880337)",10,8,21192,500,33
2016-2017,139,41.984699,-87.822699,5753 N CANFIELD AVE,,CHICAGO,IL,60631,United States of America,Walgreens,http://www.Walgreens.com,773-631-2851,Pharmacy,10/01/2016,09/01/2020,,,,,"Sunday, Monday, Tuesday, Wednesday, Thursday, Friday, Saturday","Mon-Fri: 9:00 AM-9:00 PM, Sat: 9:00 AM-5:00 PM, Sun: 9:00 AM-5:00 PM",,Call for details.,,2016-2017_139,"(41.984699, -87.822699)",17,36,22243,734,29
2016-2017,214,41.882184,-87.628675,2 North State St,,CHICAGO,IL,60601,United States of America,Walgreens,http://www.Walgreens.com,312-3320216,Pharmacy,10/01/2016,09/01/2020,,,,,"Sunday, Monday, Tuesday, Wednesday, Thursday, Friday, Saturday","Mon-Fri: 7:00 AM-9:00 PM, Sat: 9:00 AM-6:00 PM, Sun: 9:00 AM 6:00 PM",,Call for details.,,2016-2017_214,"(41.882184, -87.628675)",41,38,14310,92,36
2016-2017,219,41.70541,-87.72028,3951 WEST 103RD STREET,,CHICAGO,IL,60655,United States of America,CVS/pharmacy,http://www.cvs.com,773-881-3359,,10/01/2016,09/01/2020,,,,,"Monday, Tuesday, Wednesday, Thursday, Friday",Open 24 Hours,,Call for details.,Minimum Age Requirement for Flu Shot: 10.,2016-2017_219,"(41.70541, -87.72028)",33,73,4447,316,42
2016-2017,114,41.8806382,-87.7555278,5222 W MADISON ST,,CHICAGO,IL,60644,United States of America,Walgreens,http://www.Walgreens.com,773-287-380,Pharmacy,10/01/2016,09/01/2020,,,,,"Sunday, Monday, Tuesday, Wednesday, Thursday, Friday, Saturday","Mon-Fri: 8:00 AM-10:00 PM, Sat: 9:00 AM-5:00 PM, Sun: 10:00 AM-5:00 PM",,Call for details.,,2016-2017_114,"(41.8806382, -87.7555278)",32,26,22216,674,23
2016-2017,279,41.88585,-87.62034,205 NORTH COLUMBUS DRIVE,,CHICAGO,IL,60601,United States of America,CVS/pharmacy,http://www.cvs.com,312-861-0315,,10/01/2016,09/01/2020,,,,,"Sunday, Monday, Tuesday, Wednesday, Thursday, Friday, Saturday","Mon: 7:00 AM-9:00 PM, Tue: 7:00 AM-9:00 PM, Wed: 7:00 AM-9:00 PM, Thu: 7:00 AM-9:00 PM, Fri: 7:00 AM-9:00 PM, Sat:  9:00 AM-5:00 PM, Sun: 9:00 AM-5:00 PM",,Call for details.,Minimum Age Requirement for Flu Shot: 10.,2016-2017_279,"(41.88585, -87.62034)",42,38,14309,580,36
2016-2017,23,41.9973,-87.7011182,2845 W. Devon Ave.,,Chicago,IL,60659,United States of America,50th Ward-Croatian Cultural Center,,773-262-1050,Shelly Lyon,10/15/2015,10/15/2015,10:00:00,14:00:00,10/15/2015 10:00:00 AM,10/15/2015 02:00:00 PM,Thursday,,,"No cost to individual. If insured, insurance will be billed.",Free to individual. Insurance will be billed.,2016-2017_23,"(41.9973, -87.7011182)",50,20,4450,30,27
2016-2017,119,41.8659711,-87.7115222,3401 W ROOSEVELT RD,,CHICAGO,IL,60624,United States of America,Walgreens,http://www.Walgreens.com,773-542-1232,Pharmacy,10/01/2016,09/01/2020,,,,,"Sunday, Monday, Tuesday, Wednesday, Thursday, Friday, Saturday","Mon-Fri: 8:00 AM-10:00 PM, Sat: 9:00 AM-5:00 PM, Sun: 10:00 AM-5:00 PM",,Call for details.,,2016-2017_119,"(41.8659711, -87.7115222)",57,30,21572,772,14
2016-2017,231,41.93822,-87.64878,3101 NORTH CLARK STREET,,CHICAGO,IL,60657,United States of America,CVS/pharmacy,http://www.cvs.com,773-477-3333,,10/01/2016,09/01/2020,,,,,"Sunday, Monday, Tuesday, Wednesday, Thursday, Friday, Saturday","Mon: 8:00 AM-10:00 PM, Tue: 8:00 AM-10:00 PM, Wed: 8:00 AM-10:00 PM, Thu: 8:00 AM-10:00 PM, Fri: 8:00 AM-10:00 PM, Sat: 9:00 AM-6:00 PM, Sun: 9:00 AM-6:00 PM",,Call for details.,Minimum Age Requirement for Flu Shot: 10.,2016-2017_231,"(41.93822, -87.64878)",22,57,4449,682,25
2016-2017,270,41.93285,-87.68753,2815 NORTH WESTERN AVENUE,,CHICAGO,IL,60618,United States of America,CVS/pharmacy,http://www.cvs.com,773-486-4102,,10/01/2016,09/01/2020,,,,,"Sunday, Monday, Tuesday, Wednesday, Thursday, Friday, Saturday","Mon: 8:00 AM-9:00 PM, Tue: 8:00 AM-9:00 PM, Wed: 8:00 AM-9:00 PM, Thu: 8:00 AM-9:00 PM, Fri: 8:00 AM-9:00 PM, Sat: 9:00 AM-6:00 PM, Sun: 9:00 AM-6:00 PM",,Call for details.,Minimum Age Requirement for Flu Shot: 10.,2016-2017_270,"(41.93285, -87.68753)",39,23,21538,240,40
2016-2017,227,41.9482,-87.66363,3637 NORTH SOUTHPORT AVENUE,,CHICAGO,IL,60613,United States of America,CVS/pharmacy,http://www.cvs.com,773-348-5282,,10/01/2016,09/01/2020,,,,,"Sunday, Monday, Tuesday, Wednesday, Thursday, Friday, Saturday","Mon: 8:00 AM-10:00 PM, Tue: 8:00 AM-10:00 PM, Wed: 8:00 AM-10:00 PM, Thu: 8:00 AM-10:00 PM, Fri: 8:00 AM-10:00 PM, Sat: 9:00 AM-6:00 PM, Sun: 9:00 AM-6:00 PM",,Call for details.,Minimum Age Requirement for Flu Shot: 10.,2016-2017_227,"(41.9482, -87.66363)",53,57,21186,728,25
2016-2017,63,41.8735,-87.7047735,3153 W. Harrison St.,,Chicago,IL,60612,United States of America,Chicago Police Department - 11th District,,312-746-7073,Officer Daniel Allen,11/17/2015,11/17/2015,9:00:00,15:00:00,11/17/2015 09:00:00 AM,11/17/2015 03:00:00 PM,Tuesday,,,"No cost to individual. If insured, insurance will be billed.",Free to individual. Insurance will be billed.,2016-2017_63,"(41.8735, -87.7047735)",28,28,21184,36,14
2016-2017,290,41.890177,-87.63728,344 W HUBBARD ST,,CHICAGO,IL,60654,United States of America,CVS/pharmacy,www.minuteclinic.com,312-222-2570,,10/01/2016,09/01/2020,,,,,"Monday, Tuesday, Wednesday, Thursday, Friday, Saturday, Sunday","Mon: 8:30 AM-7:30 PM, Tue: 8:30 AM-7:30 PM, Wed: 8:30 AM-7:30 PM, Thu: 8:30 AM-7:30 PM, Fri: 8:30 AM-7:30 PM, Sat: 9:00 AM-5:30 PM, Sun: 9:00 AM-4:30 PM",,Call for details.,,2016-2017_290,"(41.890177, -87.63728)",55,37,4446,652,36
2016-2017,251,41.77719,-87.7223,6315 SOUTH PULASKI ROAD,,CHICAGO,IL,60629,United States of America,CVS/pharmacy,http://www.cvs.com,773-284-7070,,10/01/2016,09/01/2020,,,,,"Sunday, Monday, Tuesday, Wednesday, Thursday, Friday, Saturday","Mon: 8:00 AM-10:00 PM, Tue: 8:00 AM-10:00 PM, Wed: 8:00 AM-10:00 PM, Thu: 8:00 AM-10:00 PM, Fri: 8:00 AM-10:00 PM, Sat: 9:00 AM-6:00 PM, Sun: 9:00 AM-6:00 PM",,Call for details.,Minimum Age Requirement for Flu Shot: 10.,2016-2017_251,"(41.77719, -87.7223)",58,63,21867,238,15
2016-2017,41,41.6926,-87.6050028,727 E. 111th St.,,Chicago,IL,60628,United States of America,Chicago Police Department - 5th District,,312-747-3101,Officer Paula Guice,10/28/2015,10/28/2015,9:00:00,15:00:00,10/28/2015 09:00:00 AM,10/28/2015 03:00:00 PM,Wednesday,,,"No cost to individual. If insured, insurance will be billed.",Free to individual. Insurance will be billed.,2016-2017_41,"(41.6926, -87.6050028)",19,47,21861,601,43
2016-2017,66,41.7225,-87.5694,2249 E 95th St.,,Chicago,IL,60617,United States of America,7th Ward Office,,773-731-7777,Georgette Carter,11/20/2015,11/20/2015,10:00:00,14:00:00,11/20/2015 10:00:00 AM,11/20/2015 02:00:00 PM,Friday,,,"No cost to individual. If insured, insurance will be billed.",Free to individual. Insurance will be billed.,2016-2017_66,"(41.7225, -87.5694)",25,48,21202,252,37
2016-2017,62,41.8069,-87.67355,1936 W. 48th St.,,Chicago,IL,60609,United States of America,St Michael the Archangel Parish,,773-523-1248,Sandra Garcia,11/15/2015,11/15/2015,9:00:00,14:00:00,11/15/2015 09:00:00 AM,11/15/2015 02:00:00 PM,Sunday,,,"No cost to individual. If insured, insurance will be billed.",Free to individual. Insurance will be billed.,2016-2017_62,"(41.8069, -87.67355)",37,59,14924,709,3
2016-2017,160,41.939799,-87.653999,1001 W BELMONT AVE,,CHICAGO,IL,60657,United States of America,Walgreens,http://www.Walgreens.com,773-477-1151,Pharmacy,10/01/2016,09/01/2020,,,,,"Sunday, Monday, Tuesday, Wednesday, Thursday, Friday, Saturday","Mon-Fri: 9:00 AM-7:00 PM, Sat: Closed, Sun: Closed",,Call for details.,,2016-2017_160,"(41.939799, -87.653999)",22,57,4449,681,25
2016-2017,189,41.9241737,-87.7878119,6460 W FULLERTON AVE,,CHICAGO,IL,60707,United States of America,Walgreens,http://www.Walgreens.com,773-637-4440,Pharmacy,10/01/2016,09/01/2020,,,,,"Sunday, Monday, Tuesday, Wednesday, Thursday, Friday, Saturday","Mon-Fri: 9:00 AM-9:00 PM, Sat: 9:00 AM-5:00 PM, Sun: 9:00 AM-5:00 PM",,Call for details.,,2016-2017_189,"(41.9241737, -87.7878119)",3,19,4454,137,44
2016-2017,192,41.9755789,-87.6926931,5158 N LINCOLN AVE,,CHICAGO,IL,60625,United States of America,Walgreens,http://www.Walgreens.com,773-907-8490,Pharmacy,10/01/2016,09/01/2020,,,,,"Sunday, Monday, Tuesday, Wednesday, Thursday, Friday, Saturday","Mon-Fri: 9:00 AM-9:00 PM, Sat: 9:00 AM-5:00 PM, Sun: 9:00 AM-5:00 PM",,Call for details.,,2016-2017_192,"(41.9755789, -87.6926931)",20,6,21849,28,24
2016-2017,82,41.8441569,-87.7019104,3045 W 26TH ST,,CHICAGO,IL,60623,United States of America,Walgreens,http://www.Walgreens.com,773-254-3316,Pharmacy,10/01/2016,09/01/2020,,,,,"Sunday, Monday, Tuesday, Wednesday, Thursday, Friday, Saturday","Mon-Fri: 8:00 AM-10:00 PM, Sat: 9:00 AM-5:00 PM, Sun: 10:00 AM-5:00 PM",,Call for details.,,2016-2017_82,"(41.8441569, -87.7019104)",57,32,21569,124,1
2016-2017,298,41.705411,-87.720278,3951 W 103RD ST,,CHICAGO,IL,60655,United States of America,CVS/pharmacy,www.minuteclinic.com,773-881-3359,,10/01/2016,09/01/2020,,,,,"Monday, Tuesday, Wednesday, Thursday, Friday, Saturday, Sunday","Mon: 8:30 AM-7:30 PM, Tue: 8:30 AM-7:30 PM, Wed: 8:30 AM-7:30 PM, Thu: 8:30 AM-7:30 PM, Fri: 8:30 AM-7:30 PM, Sat: 9:00 AM-5:30 PM, Sun: 9:00 AM-4:30 PM",,Call for details.,,2016-2017_298,"(41.705411, -87.720278)",33,73,4447,316,42
2016-2017,104,41.8395415,-87.6467929,3000 S HALSTED ST,,CHICAGO,IL,60608,United States of America,Walgreens,http://www.Walgreens.com,312-225-537,Pharmacy,10/01/2016,09/01/2020,,,,,"Sunday, Monday, Tuesday, Wednesday, Thursday, Friday, Saturday","Mon-Fri: 9:00 AM-5:00 PM, Sat: 9:00 AM-5:00 PM, Sun: 9:00 AM-5:00 PM",,Call for details.,,2016-2017_104,"(41.8395415, -87.6467929)",43,58,14920,59,48
2016-2017,35,41.8028686,-87.6261,5046 S. State St.,,Chicago,IL,60609,United States of America,3rd Ward Office,,773-373-9273,Thomas Stovall,09/30/2016,09/30/2016,9:00:00,13:00:00,09/30/2016 09:00:00 AM,09/30/2016 01:00:00 PM,Friday,,,"No cost to individual. If insured, insurance will be billed.",Free to individual. Insurance will be billed.,2016-2017_35,"(41.8028686, -87.6261)",37,4,14924,415,9
2016-2017,88,41.9428398,-87.6896891,3358 N WESTERN AVE,,CHICAGO,IL,60618,United States of America,Walgreens,http://www.Walgreens.com,773-327-2111,Pharmacy,10/01/2016,09/01/2020,,,,,"Sunday, Monday, Tuesday, Wednesday, Thursday, Friday, Saturday","Mon-Fri: 9:00 AM-5:00 PM, Sat: 9:00 AM-5:00 PM, Sun: 9:00 AM-5:00 PM",,Call for details.,,2016-2017_88,"(41.9428398, -87.6896891)",39,46,21538,110,18
2016-2017,162,41.736528,-87.6634281,8636 S ASHLAND AVE,,CHICAGO,IL,60620,United States of America,Walgreens,http://www.Walgreens.com,773-238-1268,Pharmacy,10/01/2016,09/01/2020,,,,,"Sunday, Monday, Tuesday, Wednesday, Thursday, Friday, Saturday","Mon-Fri: 8:00 AM-10:00 PM, Sat: 9:00 AM-5:00 PM, Sun: 9:00 AM-5:00 PM",,Call for details.,,2016-2017_162,"(41.736528, -87.6634281)",59,70,21554,532,13
2016-2017,49,41.857594,-87.66095,1805 S. Loomis Ave.,,Chicago,IL,60608,United States of America,25th Ward-Ruby Lozano Library,,773-523-4100,Jackson Chiu,11/04/2015,11/04/2015,11:00:00,15:00:00,11/04/2015 11:00:00 AM,11/04/2015 03:00:00 PM,Wednesday,,,"No cost to individual. If insured, insurance will be billed.",Free to individual. Insurance will be billed.,2016-2017_49,"(41.857594, -87.66095)",43,33,14920,365,26
2016-2017,65,41.749267,-87.614909,8001 S M L King Drive,,Chicago,IL,60619,United States of America,6th Ward Office,,773-635-0006,Brian Sleet,11/19/2015,11/19/2015,9:00:00,14:00:00,11/19/2015 09:00:00 AM,11/19/2015 02:00:00 PM,Thursday,,,"No cost to individual. If insured, insurance will be billed.",Free to individual. Insurance will be billed.,2016-2017_65,"(41.749267, -87.614909)",61,40,21546,11,32
2016-2017,255,41.79981,-87.59466,1228 EAST 53RD STREET,,CHICAGO,IL,60637,United States of America,CVS/pharmacy,http://www.cvs.com,773-752-1425,,10/01/2016,09/01/2020,,,,,"Sunday, Monday, Tuesday, Wednesday, Thursday, Friday, Saturday","Mon: 8:00 AM-10:00 PM, Tue: 8:00 AM-10:00 PM, Wed: 8:00 AM-10:00 PM, Thu: 8:00 AM-10:00 PM, Fri: 8:00 AM-10:00 PM, Sat: 9:00 AM-6:00 PM, Sun: 10:00 AM-6:00 PM",,Call for details.,Minimum Age Requirement for Flu Shot: 10.,2016-2017_255,"(41.79981, -87.59466)",10,8,21192,499,10
2016-2017,124,41.960699,-87.707799,4343 N KEDZIE AVE,,CHICAGO,IL,60618,United States of America,Walgreens,http://www.Walgreens.com,773-604-4419,Pharmacy,10/01/2016,09/01/2020,,,,,"Sunday, Monday, Tuesday, Wednesday, Thursday, Friday, Saturday","Mon-Fri: 8:00 AM-10:00 PM, Sat: 9:00 AM-5:00 PM, Sun: 10:00 AM-5:00 PM",,Call for details.,,2016-2017_124,"(41.960699, -87.707799)",39,16,21538,214,20
2016-2017,234,41.7069,-87.6428,745 WEST 103 ROAD STREET,,CHICAGO,IL,60628,United States of America,CVS/pharmacy,http://www.cvs.com,773-233-3942,,10/01/2016,09/01/2020,,,,,"Monday, Tuesday, Wednesday, Thursday, Friday","Mon: 8:00 AM-10:00 PM, Tue: 8:00 AM-10:00 PM, Wed: 8:00 AM-10:00 PM, Thu: 8:00 AM-10:00 PM, Fri: 8:00 AM-10:00 PM, Sat: 9:00 AM-6:00 PM, Sun: 9:00 AM-5:00 PM",,Call for details.,Minimum Age Requirement for Flu Shot: 10.,2016-2017_234,"(41.7069, -87.6428)",19,45,21861,525,22
2016-2017,103,42.0116257,-87.8182459,7652 W TOUHY AVE,,CHICAGO,IL,60631,United States of America,Walgreens,http://www.Walgreens.com,773-631-5903,Pharmacy,10/01/2016,09/01/2020,,,,,"Sunday, Monday, Tuesday, Wednesday, Thursday, Friday, Saturday","Mon-Fri: 7:00 AM-7:30 PM, Sat: 9:00 AM-5:00 PM, Sun: 10:00 AM-5:00 PM",,Call for details.,,2016-2017_103,"(42.0116257, -87.8182459)",17,77,22243,653,29
2016-2017,171,41.939589,-87.725187,3222 N MILWAUKEE AVE,,CHICAGO,IL,60618,United States of America,Walgreens,http://www.Walgreens.com,773-481-5876,Pharmacy,10/01/2016,09/01/2020,,,,,"Sunday, Monday, Tuesday, Wednesday, Thursday, Friday, Saturday","Mon-Fri: 8:00 AM-10:00 PM, Sat: 8:00 AM-10:00 PM PM, Sun: 8:00 AM-10:00 PM",,Call for details.,,2016-2017_171,"(41.939589, -87.725187)",39,22,21538,138,21
2016-2017,22,41.8062408,-87.7174101,4808 S. Archer Ave.,,Chicago,IL,60632,United States of America,14th Ward-Polish Highlanders,,773-471-1414,Pete Andrews,10/14/2015,10/14/2015,9:00:00,14:00:00,10/14/2015 09:00:00 AM,10/14/2015 02:00:00 PM,Wednesday,,,"No cost to individual. If insured, insurance will be billed.",Free to individual. Insurance will be billed.,2016-2017_22,"(41.8062408, -87.7174101)",56,54,22248,698,8
2016-2017,274,41.88097,-87.7061,3146 WEST MADISON,,CHICAGO,IL,60612,United States of America,CVS/pharmacy,http://www.cvs.com,773-826-9072,,10/01/2016,09/01/2020,,,,,"Sunday, Monday, Tuesday, Wednesday, Thursday, Friday, Saturday","Mon: 8:00 AM-9:00 PM, Tue: 8:00 AM-9:00 PM, Wed: 8:00 AM-9:00 PM, Thu: 8:00 AM-9:00 PM, Fri: 8:00 AM-9:00 PM, Sat: 9:00 AM-6:00 PM, Sun: 9:00 AM-5:00 PM",,Call for details.,Minimum Age Requirement for Flu Shot: 10.,2016-2017_274,"(41.88097, -87.7061)",28,28,21184,737,23
2016-2017,273,41.93853,-87.78574,6355 WEST BELMONT,,CHICAGO,IL,60634,United States of America,CVS/pharmacy,http://www.cvs.com,773-385-5687,,10/01/2016,09/01/2020,,,,,"Sunday, Monday, Tuesday, Wednesday, Thursday, Friday, Saturday","Mon: 8:00 AM-9:00 PM, Tue: 8:00 AM-9:00 PM, Wed: 8:00 AM-9:00 PM, Thu: 8:00 AM-9:00 PM, Fri: 8:00 AM-9:00 PM, Sat: 9:00 AM-6:00 PM, Sun: 9:00 AM-6:00 PM",,Call for details.,Minimum Age Requirement for Flu Shot: 10.,2016-2017_273,"(41.93853, -87.78574)",52,17,22254,459,44
2016-2017,61,41.8469,-87.7311,2434 S. Kildare Ave.,,Chicago,IL,60623,United States of America,22nd Ward-El Valor Children & Family Center,,773-762-1771,Victor Vera/Amanda Cortes,11/14/2015,11/14/2015,10:00:00,14:00:00,11/14/2015 10:00:00 AM,11/14/2015 02:00:00 PM,Saturday,,,"No cost to individual. If insured, insurance will be billed.",Free to individual. Insurance will be billed.,2016-2017_61,"(41.8469, -87.7311)",57,32,21569,194,28
2016-2017,84,41.8319645,-87.6164123,3405 S KING DR,,CHICAGO,IL,60616,United States of America,Walgreens,http://www.Walgreens.com,312-326-4058,Pharmacy,10/01/2016,09/01/2020,,,,,"Sunday, Monday, Tuesday, Wednesday, Thursday, Friday, Saturday","Mon-Fri: Midnight - Mindnight, Sat: Midnight - Mindnight, Sun: Midnight - Mindnight",,Call for details.,,2016-2017_84,"(41.8319645, -87.6164123)",40,1,21194,581,10
2016-2017,58,41.9492722,-87.8069,3821 N. Harlem Ave.,,Chicago,IL,60634,United States of America,38th Ward Office,,773-283-3838,Maurita Gavin,11/09/2015,11/09/2015,10:00:00,14:00:00,11/09/2015 10:00:00 AM,11/09/2015 02:00:00 PM,Monday,,,"No cost to individual. If insured, insurance will be billed.",Free to individual. Insurance will be billed.,2016-2017_58,"(41.9492722, -87.8069)",52,17,22254,444,19
2016-2017,78,41.786099,-87.723199,4000 W 59TH ST,,CHICAGO,IL,60629,United States of America,Walgreens,http://www.Walgreens.com,773-581-2345,Pharmacy,10/01/2016,09/01/2020,,,,,"Sunday, Monday, Tuesday, Wednesday, Thursday, Friday, Saturday","Mon-Fri: 8:00 AM-10:00 PM, Sat: 9:00 AM-5:00 PM, Sun: 10:00 AM-6:00 PM",,Call for details.,,2016-2017_78,"(41.786099, -87.723199)",58,60,21867,773,15
2016-2017,81,41.8966569,-87.6240688,757 N MICHIGAN AVE,,CHICAGO,IL,60611,United States of America,Walgreens,http://www.Walgreens.com,312-664-8686,Pharmacy,10/01/2016,09/01/2020,,,,,"Sunday, Monday, Tuesday, Wednesday, Thursday, Friday, Saturday","Mon-Fri: Midnight - Mindnight, Sat: Midnight - Mindnight, Sun: Midnight - Mindnight",,Call for details.,,2016-2017_81,"(41.8966569, -87.6240688)",6,37,21182,158,11
2016-2017,257,41.90945,-87.73597,1550 NORTH KOSTNER AVENUE,,CHICAGO,IL,60639,United States of America,CVS/pharmacy,http://www.cvs.com,773-489-7484,,10/01/2016,09/01/2020,,,,,"Sunday, Monday, Tuesday, Wednesday, Thursday, Friday, Saturday","Mon: 8:00 AM-10:00 PM, Tue: 8:00 AM-10:00 PM, Wed: 8:00 AM-10:00 PM, Thu: 8:00 AM-10:00 PM, Fri: 8:00 AM-10:00 PM, Sat: 9:00 AM-5:00 PM, Sun: 9:00 AM-5:00 PM",,Call for details.,Minimum Age Requirement for Flu Shot: 10.,2016-2017_257,"(41.90945, -87.73597)",5,24,22615,286,49
2016-2017,128,41.7207702,-87.6635087,1633 W 95TH ST,,CHICAGO,IL,60643,United States of America,Walgreens,http://www.Walgreens.com,773-445-9277,Pharmacy,10/01/2016,09/01/2020,,,,,"Sunday, Monday, Tuesday, Wednesday, Thursday, Friday, Saturday","Mon-Fri: Midnight - Mindnight, Sat: Midnight - Mindnight, Sun: Midnight - Mindnight",,Call for details.,,2016-2017_128,"(41.7207702, -87.6635087)",13,71,22212,628,42
2016-2017,2,41.8177,-87.6063391,809 E. 42nd Place,,Chicago,IL,60653,United States of America,4th Ward-Prince Hall Grand Lodge,,773-536-8103,Chris Tripplet,09/26/2015,09/26/2015,10:00:00,14:00:00,09/26/2015 10:00:00 AM,09/26/2015 02:00:00 PM,Saturday,,,"No cost to individual. If insured, insurance will be billed.",Free to individual. Insurance will be billed.,2016-2017_2,"(41.8177, -87.6063391)",36,2,4301,220,10
2016-2017,138,41.9547148,-87.7476248,4040 N CICERO AVE,,CHICAGO,IL,60641,United States of America,Walgreens,http://www.Walgreens.com,773-283-5321,Pharmacy,10/01/2016,09/01/2020,,,,,"Sunday, Monday, Tuesday, Wednesday, Thursday, Friday, Saturday","Mon-Fri: 8:00 AM-10:00 PM, Sat: 8:00 AM-10:00 PM, Sun: 8:00 AM-10:00 PM",,Call for details.,,2016-2017_138,"(41.9547148, -87.7476248)",21,15,22618,259,50
2016-2017,157,41.8250592,-87.6851899,3798 S WESTERN AVE,,CHICAGO,IL,60609,United States of America,Walgreens,http://www.Walgreens.com,773-254-6383,Pharmacy,10/01/2016,09/01/2020,,,,,"Sunday, Monday, Tuesday, Wednesday, Thursday, Friday, Saturday","Mon-Fri: 9:00 AM-7:00 PM, Sat: 9:00 AM-5:00 PM, Sun: 9:00 AM-5:00 PM",,Call for details.,,2016-2017_157,"(41.8250592, -87.6851899)",56,56,14924,2,1
2016-2017,178,41.8856012,-87.6307608,191 N CLARK ST,,CHICAGO,IL,60601,United States of America,Walgreens,http://www.Walgreens.com,312-634-152,Pharmacy,10/01/2016,09/01/2020,,,,,"Sunday, Monday, Tuesday, Wednesday, Thursday, Friday, Saturday","Mon-Fri: 6:30 AM-7:00 PM, Sat: Closed, Sun: Closed",,Call for details.,,2016-2017_178,"(41.8856012, -87.6307608)",42,38,14309,92,36
2016-2017,142,41.9386553,-87.745968,4745 W BELMONT AVE,,CHICAGO,IL,60641,United States of America,Walgreens,http://www.Walgreens.com,773-481-211,Pharmacy,10/01/2016,09/01/2020,,,,,"Sunday, Monday, Tuesday, Wednesday, Thursday, Friday, Saturday","Mon-Fri: 9:00 AM-5:00 PM, Sat: 9:00 AM-5:00 PM, Sun: 9:00 AM-5:00 PM",,Call for details.,,2016-2017_142,"(41.9386553, -87.745968)",21,19,22618,460,17
2016-2017,165,41.6778309,-87.6803192,11833 S WESTERN AVE,,CHICAGO,IL,60643,United States of America,Walgreens,http://www.Walgreens.com,773-233-2245,Pharmacy,10/01/2016,09/01/2020,,,,,"Sunday, Monday, Tuesday, Wednesday, Thursday, Friday, Saturday","Mon-Fri: 8:00 AM-10:00 PM, Sat: 9:00 AM-5:00 PM, Sun: 9:00 AM-6:00 PM",,Call for details.,,2016-2017_165,"(41.6778309, -87.6803192)",13,74,22212,378,42
2016-2017,190,41.9109501,-87.7260581,1627 N PULASKI RD,,CHICAGO,IL,60639,United States of America,Walgreens,http://www.Walgreens.com,773-772-5432,Pharmacy,10/01/2016,09/01/2020,,,,,"Sunday, Monday, Tuesday, Wednesday, Thursday, Friday, Saturday","Mon-Fri: 8:00 AM-10:00 PM, Sat: 9:00 AM-5:00 PM, Sun: 9:00 AM-5:00 PM",,Call for details.,,2016-2017_190,"(41.9109501, -87.7260581)",1,24,22615,391,49
2016-2017,17,41.9104,-87.6959765,2740 W. North Ave.,,Chicago,IL,60647,United States of America,1st Ward Office,,773-278-0101,Carlos Diaz,10/08/2015,10/08/2015,10:00:00,14:00:00,10/08/2015 10:00:00 AM,10/08/2015 02:00:00 PM,Thursday,,,"No cost to individual. If insured, insurance will be billed.",Free to individual. Insurance will be billed.,2016-2017_17,"(41.9104, -87.6959765)",1,25,22535,299,41
2016-2017,185,41.765839,-87.576106,7109 S JEFFERY BLVD,,CHICAGO,IL,60649,United States of America,Walgreens,http://www.Walgreens.com,773-324-1880,Pharmacy,10/01/2016,09/01/2020,,,,,"Sunday, Monday, Tuesday, Wednesday, Thursday, Friday, Saturday","Mon-Fri: Midnight - Mindnight, Sat: Midnight - Mindnight, Sun: Midnight - Mindnight",,Call for details.,,2016-2017_185,"(41.765839, -87.576106)",24,39,22538,453,33
2016-2017,143,41.751299,-87.575499,2015 E 79TH ST,,CHICAGO,IL,60649,United States of America,Walgreens,http://www.Walgreens.com,773-734-2492,Pharmacy,10/01/2016,09/01/2020,,,,,"Sunday, Monday, Tuesday, Wednesday, Thursday, Friday, Saturday","Mon-Fri: 9:00 AM-9:00 PM, Sat: 9:00 AM-5:00 PM, Sun: 10:00 AM-6:00 PM",,Call for details.,,2016-2017_143,"(41.751299, -87.575499)",25,42,22538,507,35
2016-2017,282,41.88054,-87.63254,120 SOUTH LASALLE STREET,,CHICAGO,IL,60603,United States of America,CVS/pharmacy,http://www.cvs.com,312-750-0884,,10/01/2016,09/01/2020,,,,,"Monday, Tuesday, Wednesday, Thursday, Friday","Mon: 7:00 AM-7:00 PM, Tue: 7:00 AM-7:00 PM, Wed: 7:00 AM-7:00 PM, Thu: 7:00 AM-7:00 PM, Fri: 7:00 AM-7:00 PM, Sat: Closed, Sun: Closed",,Call for details.,Minimum Age Requirement for Flu Shot: 10.,2016-2017_282,"(41.88054, -87.63254)",34,38,14311,92,36
2016-2017,64,41.9183843,-87.7647511,5555 W. Grand Ave.,,Chicago,IL,60639,United States of America,Chicago Police Department - 25th District,,312-746-4496,,11/18/2015,11/18/2015,9:00:00,15:00:00,11/18/2015 09:00:00 AM,11/18/2015 03:00:00 PM,Wednesday,,,"No cost to individual. If insured, insurance will be billed.",Free to individual. Insurance will be billed.,2016-2017_64,"(41.9183843, -87.7647511)",2,19,22615,307,45
2016-2017,44,41.881494,-87.686759,4 N. Western Ave.,,Chicago,IL,60612,United States of America,27th Ward Office,,312-432-1995,Diamond Segreti,10/30/2015,10/30/2015,11:00:00,15:00:00,10/30/2015 11:00:00 AM,10/30/2015 03:00:00 PM,Friday,,,"No cost to individual. If insured, insurance will be billed.",Free to individual. Insurance will be billed.,2016-2017_44,"(41.881494, -87.686759)",28,29,21184,37,46
2016-2017,135,41.853189,-87.635159,316 W CERMAK RD,,CHICAGO,IL,60616,United States of America,Walgreens,http://www.Walgreens.com,312-791-392,Pharmacy,10/01/2016,09/01/2020,,,,,"Sunday, Monday, Tuesday, Wednesday, Thursday, Friday, Saturday","Mon-Fri: 9:00 AM-9:00 PM, Sat: 9:00 AM-5:00 PM, Sun: 9:00 AM-5:00 PM",,Call for details.,,2016-2017_135,"(41.853189, -87.635159)",40,35,21194,3,26
2016-2017,152,41.807899,-87.684699,4710 S WESTERN AVE,,CHICAGO,IL,60609,United States of America,Walgreens,http://www.Walgreens.com,773-579-366,Pharmacy,10/01/2016,09/01/2020,,,,,"Sunday, Monday, Tuesday, Wednesday, Thursday, Friday, Saturday","Mon-Fri: 8:00 AM-8:00 PM, Sat: 9:00 AM-5:00 PM, Sun: 10:00 AM-5:00 PM",,Call for details.,,2016-2017_152,"(41.807899, -87.684699)",56,55,22248,85,3
2016-2017,72,41.6891382,-87.6208626,11255 S MICHIGAN AVE,,CHICAGO,IL,60628,United States of America,Roseland Community WIC,http://www.cityofchicago.org/city/en/depts/cdph/supp_info/clinical_health/immunizations_walk-inclinics.html,773-785-1173,,10/01/2016,09/01/2020,,,,,"Monday, Tuesday, Wednesday","Mondays, Tuesdays, Wednesdays: 8:00 AM to 3:30 PM. Closed 2nd Wed every month 12 to 4 PM",,"No cost to individual. If insured, insurance will be billed.",Free to individual. Insurance will be billed.  Closed 2nd Wed every month 12 to 4 PM,2016-2017_72,"(41.6891382, -87.6208626)",19,45,21861,253,43
2016-2017,59,41.9397,-87.6888,2452 W. Belmont Ave.,,Chicago,IL,60618,United States of America,Chicago Police Department - 19th District,,312-744-8445,Detective Colomba Rodriguez,11/10/2015,11/10/2015,9:00:00,15:00:00,11/10/2015 09:00:00 AM,11/10/2015 03:00:00 PM,Tuesday,,,"No cost to individual. If insured, insurance will be billed.",Free to individual. Insurance will be billed.,2016-2017_59,"(41.9397, -87.6888)",39,46,21538,110,18
2016-2017,8,41.7378276,-87.6048752,8539 S. Cottage Grove Ave.,,Chicago,IL,60619,United States of America,8th Ward Office,,773-874-3300,Linda Bryant,10/01/2015,10/01/2015,11:00:00,15:00:00,10/01/2015 11:00:00 AM,10/01/2015 03:00:00 PM,Thursday,,,"No cost to individual. If insured, insurance will be billed.",Free to individual. Insurance will be billed.,2016-2017_8,"(41.7378276, -87.6048752)",61,40,21546,140,32
2016-2017,249,41.84332,-87.72483,2634 SOUTH PULASKI ROAD,,CHICAGO,IL,60623,United States of America,CVS/pharmacy,http://www.cvs.com,773-522-2622,,10/01/2016,09/01/2020,,,,,"Sunday, Monday, Tuesday, Wednesday, Thursday, Friday, Saturday","Mon: 8:00 AM-10:00 PM, Tue: 8:00 AM-10:00 PM, Wed: 8:00 AM-10:00 PM, Thu: 8:00 AM-10:00 PM, Fri: 8:00 AM-10:00 PM, Sat: 9:00 AM-6:00 PM, Sun: 9:00 AM-5:00 PM",,Call for details.,Minimum Age Requirement for Flu Shot: 10.,2016-2017_249,"(41.84332, -87.72483)",57,32,21569,194,28
2016-2017,158,41.8134578,-87.7046719,4385 S ARCHER AVE,,CHICAGO,IL,60632,United States of America,Walgreens,http://www.Walgreens.com,773-247-6804,Pharmacy,10/01/2016,09/01/2020,,,,,"Sunday, Monday, Tuesday, Wednesday, Thursday, Friday, Saturday","Mon-Fri: 9:00 AM-9:00 PM, Sat: 9:00 AM-5:00 PM, Sun: 9:00 AM-5:00 PM",,Call for details.,,2016-2017_158,"(41.8134578, -87.7046719)",56,55,22248,640,8
2016-2017,10,41.8558347,-87.6659,1919 S. Ashland Ave.,,Chicago,IL,60608,United States of America,St. Pius V Parish,,312-226-6161,Liz Leon,10/04/2015,10/04/2015,10:00:00,14:00:00,10/04/2015 10:00:00 AM,10/04/2015 02:00:00 PM,Sunday,,,"No cost to individual. If insured, insurance will be billed.",Free to individual. Insurance will be billed.,2016-2017_10,"(41.8558347, -87.6659)",43,33,14920,270,26
2016-2017,252,41.9636,-87.72818,4540 NORTH PULASKI ROAD,,CHICAGO,IL,60630,United States of America,CVS/pharmacy,http://www.cvs.com,773-283-5777,,10/01/2016,09/01/2020,,,,,"Monday, Tuesday, Wednesday, Thursday, Friday","Mon: 8:00 AM-10:00 PM, Tue: 8:00 AM-10:00 PM, Wed: 8:00 AM-10:00 PM, Thu: 8:00 AM-10:00 PM, Fri: 8:00 AM-10:00 PM, Sat: 9:00 AM-6:00 PM, Sun: 9:00 AM-6:00 PM",,Call for details.,Minimum Age Requirement for Flu Shot: 10.,2016-2017_252,"(41.9636, -87.72818)",48,14,21869,257,38
2016-2017,262,41.91933,-87.69008,2053 NORTH MILWAUKEE AVENUE,,CHICAGO,IL,60647,United States of America,CVS/pharmacy,http://www.cvs.com,773-342-0014,,10/01/2016,09/01/2020,,,,,"Sunday, Monday, Tuesday, Wednesday, Thursday, Friday, Saturday","Mon: 8:00 AM-10:00 PM, Tue: 8:00 AM-10:00 PM, Wed: 8:00 AM-10:00 PM, Thu: 8:00 AM-10:00 PM, Fri: 8:00 AM-10:00 PM, Sat: 9:00 AM-6:00 PM, Sun: 9:00 AM-6:00 PM",,Call for details.,Minimum Age Requirement for Flu Shot: 10.,2016-2017_262,"(41.91933, -87.69008)",1,23,22535,323,41
2016-2017,19,41.883911,-87.632012,121 N. LaSalle St.,,Chicago,IL,60602,United States of America,City Hall - 2nd Floor Lobby,,312-746-6129,Rosemarie Lake,10/28/2016,10/28/2016,9:00:00,14:00:00,10/28/2016 09:00:00 AM,10/28/2016 02:00:00 PM,Friday,,,"No cost to individual. If insured, insurance will be billed.",Free to individual. Insurance will be billed.,2016-2017_19,"(41.883911, -87.632012)",41,38,14310,92,36
2016-2017,18,41.929471,-87.6745948,2657 N. Clybourn Ave.,,Chicago,IL,60614,United States of America,32nd Ward Office,,773-248-1330,Mara Martinez,10/08/2015,10/08/2015,10:00:00,15:00:00,10/08/2015 10:00:00 AM,10/08/2015 03:00:00 PM,Thursday,,,"No cost to individual. If insured, insurance will be billed.",Free to individual. Insurance will be billed.,2016-2017_18,"(41.929471, -87.6745948)",16,68,21190,743,40
2016-2017,141,41.880299,-87.646699,111 S HALSTED ST,,CHICAGO,IL,60661,United States of America,Walgreens,http://www.Walgreens.com,312-463-9142,Pharmacy,10/01/2016,09/01/2020,,,,,"Sunday, Monday, Tuesday, Wednesday, Thursday, Friday, Saturday","Mon-Fri: Midnight - Mindnight, Sat: Midnight - Mindnight, Sun: Midnight - Mindnight",,Call for details.,,2016-2017_141,"(41.880299, -87.646699)",45,29,4452,786,46
2016-2017,79,41.932899,-87.648099,740 W DIVERSEY PKWY,,CHICAGO,IL,60614,United States of America,Walgreens,http://www.Walgreens.com,773-929-1097,Pharmacy,10/01/2016,09/01/2020,,,,,"Sunday, Monday, Tuesday, Wednesday, Thursday, Friday, Saturday","Mon-Fri: 9:00 AM-7:00 PM, Sat: 9:00 AM-5:00 PM, Sun: 9:00 AM-5:00 PM",,Call for details.,,2016-2017_79,"(41.932899, -87.648099)",22,57,21190,684,25
2016-2017,331,41.759525,-87.669401,1818 W. 74th St.,,Chicago,IL,60636,United States of America,Gift From God Ministry Church,,,,10/02/2016,10/02/2016,10:30:00,14:30:00,10/02/2016 10:30:00 AM,10/02/2016 02:30:00 PM,Sunday,,,"No cost to individual. If insured, insurance will be billed.",,2016-2017_331,"(41.759525, -87.669401)",23,65,22257,433,31
2016-2017,330,41.948197,-87.663631,3637 N SOUTHPORT AVE,,CHICAGO,IL,60613,United States of America,CVS/pharmacy,www.minuteclinic.com,773-348-5282,,10/01/2016,09/01/2020,,,,,"Monday, Tuesday, Wednesday, Thursday, Friday, Saturday, Sunday","Mon: 8:30 AM-7:30 PM, Tue: 8:30 AM-7:30 PM, Wed: 8:30 AM-7:30 PM, Thu: 8:30 AM-7:30 PM, Fri: 8:30 AM-7:30 PM, Sat: 9:00 AM-5:30 PM, Sun: 9:00 AM-4:30 PM",,,,2016-2017_330,"(41.948197, -87.663631)",53,57,21186,728,25
2016-2017,90,41.7730989,-87.5877363,1533 E 67TH ST,,CHICAGO,IL,60637,United States of America,Walgreens,http://www.Walgreens.com,773-493-733,Pharmacy,10/01/2016,09/01/2020,,,,,"Sunday, Monday, Tuesday, Wednesday, Thursday, Friday, Saturday","Mon-Fri: 8:00 AM-10:00 PM, Sat: 9:00 AM-5:00 PM, Sun: 10:00 AM-5:00 PM",,Call for details.,,2016-2017_90,"(41.7730989, -87.5877363)",60,39,22260,416,33
2016-2017,174,41.899966,-87.62833,933 N STATE ST,,CHICAGO,IL,60610,United States of America,Walgreens,http://www.Walgreens.com,312-943-671,Pharmacy,10/01/2016,09/01/2020,,,,,"Sunday, Monday, Tuesday, Wednesday, Thursday, Friday, Saturday","Mon-Fri: 8:00 AM-10:00 PM, Sat: 9:00 AM-5:00 PM, Sun: 9:00 AM-6:00 PM",,Call for details.,,2016-2017_174,"(41.899966, -87.62833)",54,37,14926,230,11
2016-2017,50,41.7796,-87.6658529,1650 W. 63rd St.,,Chicago,IL,60636,United States of America,15th Ward Office,,773-823-1539,Frank Arroyo,11/05/2015,11/05/2015,9:00:00,14:00:00,11/05/2015 09:00:00 AM,11/05/2015 02:00:00 PM,Thursday,,,"No cost to individual. If insured, insurance will be billed.",Free to individual. Insurance will be billed.,2016-2017_50,"(41.7796, -87.6658529)",23,65,22257,276,3
2016-2017,118,41.7960886,-87.761744,5874 S ARCHER AVE,,CHICAGO,IL,60638,United States of America,Walgreens,http://www.Walgreens.com,773-284-7419,Pharmacy,10/01/2016,09/01/2020,,,,,"Sunday, Monday, Tuesday, Wednesday, Thursday, Friday, Saturday","Mon-Fri: 8:00 AM-10:00 PM, Sat: 9:00 AM-5:00 PM, Sun: 10:00 AM-5:00 PM",,Call for details.,,2016-2017_118,"(41.7960886, -87.761744)",7,53,22268,607,8
2016-2017,243,41.72896,-87.55483,9142 SOUTH CHICAGO AVENUE,,CHICAGO,IL,60617,United States of America,CVS/pharmacy,http://www.cvs.com,773-768-9036,,10/01/2016,09/01/2020,,,,,"Sunday, Monday, Tuesday, Wednesday, Thursday, Friday, Saturday","Mon: 8:00 AM-10:00 PM, Tue: 8:00 AM-10:00 PM, Wed: 8:00 AM-10:00 PM, Thu: 8:00 AM-10:00 PM, Fri: 8:00 AM-10:00 PM, Sat: 9:00 AM-6:00 PM, Sun: 9:00 AM-6:00 PM",,Call for details.,Minimum Age Requirement for Flu Shot: 10.,2016-2017_243,"(41.72896, -87.55483)",25,44,21202,493,37
2016-2017,261,41.92479,-87.72591,3940 WEST FULLERTON AVENUE,,CHICAGO,IL,60647,United States of America,CVS/pharmacy,http://www.cvs.com,773-486-0343,,10/01/2016,09/01/2020,,,,,"Sunday, Monday, Tuesday, Wednesday, Thursday, Friday, Saturday","Mon: 8:00 AM-10:00 PM, Tue: 8:00 AM-10:00 PM, Wed: 8:00 AM-10:00 PM, Thu: 8:00 AM-10:00 PM, Fri: 8:00 AM-10:00 PM, Sat: 9:00 AM-6:00 PM, Sun: 9:00 AM-6:00 PM",,Call for details.,Minimum Age Requirement for Flu Shot: 10.,2016-2017_261,"(41.92479, -87.72591)",1,23,22535,107,17
2016-2017,123,41.937799,-87.649499,3046 N HALSTED ST,,CHICAGO,IL,60657,United States of America,Walgreens,http://www.Walgreens.com,773-325-413,Pharmacy,10/01/2016,09/01/2020,,,,,"Sunday, Monday, Tuesday, Wednesday, Thursday, Friday, Saturday","Mon-Fri: 8:00 AM-10:00 PM, Sat: 8:00 AM-10:00 PM, Sun: 8:00 AM-10:00 PM",,Call for details.,,2016-2017_123,"(41.937799, -87.649499)",22,57,4449,681,25
2016-2017,45,41.8307806,-87.6234139,3510 S. Michigan Ave.,,Chicago,IL,60653,United States of America,Chicago Police Department - HQ,,312-745-5225,SGT. Janet kemper,10/30/2015,10/30/2015,9:00:00,15:00:00,10/30/2015 09:00:00 AM,10/30/2015 03:00:00 PM,Friday,,,"No cost to individual. If insured, insurance will be billed.",Free to individual. Insurance will be billed.,2016-2017_45,"(41.8307806, -87.6234139)",36,1,4301,446,9
2016-2017,126,41.9089627,-87.7651214,1546 N CENTRAL AVE,,CHICAGO,IL,60651,United States of America,Walgreens,http://www.Walgreens.com,773-622-8185,Pharmacy,10/01/2016,09/01/2020,,,,,"Sunday, Monday, Tuesday, Wednesday, Thursday, Friday, Saturday","Mon-Fri: 8:00 AM-10:00 PM, Sat: 9:00 AM-5:00 PM, Sun: 10:00 AM-5:00 PM",,Call for details.,,2016-2017_126,"(41.9089627, -87.7651214)",5,26,22615,599,45
2016-2017,105,41.7952673,-87.6290395,5401 S WENTWORTH AVE,,CHICAGO,IL,60609,United States of America,Walgreens,http://www.Walgreens.com,773-268-5664,Pharmacy,10/01/2016,09/01/2020,,,,,"Sunday, Monday, Tuesday, Wednesday, Thursday, Friday, Saturday","Mon-Fri: 9:00 AM-5:00 PM, Sat: 9:00 AM-5:00 PM, Sun: 9:00 AM-5:00 PM",,Call for details.,,2016-2017_105,"(41.7952673, -87.6290395)",37,3,14924,224,9
2016-2017,248,41.90351,-87.66775,1200 NORTH ASHLAND AVENUE,,CHICAGO,IL,60622,United States of America,CVS/pharmacy,http://www.cvs.com,773-342-5917,,10/01/2016,09/01/2020,,,,,"Sunday, Monday, Tuesday, Wednesday, Thursday, Friday, Saturday","Mon: 8:00 AM-10:00 PM, Tue: 8:00 AM-10:00 PM, Wed: 8:00 AM-10:00 PM, Thu: 8:00 AM-10:00 PM, Fri: 8:00 AM-10:00 PM, Sat: 9:00 AM-6:00 PM, Sun: 9:00 AM-6:00 PM",,Call for details.,Minimum Age Requirement for Flu Shot: 10.,2016-2017_248,"(41.90351, -87.66775)",4,25,21560,481,41
2016-2017,121,41.940199,-87.644599,3201 N BROADWAY ST,,CHICAGO,IL,60657,United States of America,Walgreens,http://www.Walgreens.com,773-327-3591,Pharmacy,10/01/2016,09/01/2020,,,,,"Sunday, Monday, Tuesday, Wednesday, Thursday, Friday, Saturday","Mon-Fri: Midnight - Mindnight, Sat: Midnight - Mindnight, Sun: Midnight - Mindnight",,Call for details.,,2016-2017_121,"(41.940199, -87.644599)",22,57,4449,730,25
2016-2017,183,41.9239578,-87.74718,4817 W FULLERTON AVE,,CHICAGO,IL,60639,United States of America,Walgreens,http://www.Walgreens.com,773-889-7411,Pharmacy,10/01/2016,09/01/2020,,,,,"Sunday, Monday, Tuesday, Wednesday, Thursday, Friday, Saturday","Mon-Fri: 9:00 AM-9:00 PM, Sat: 9:00 AM-5:00 PM, Sun: 9:00 AM-5:00 PM",,Call for details.,,2016-2017_183,"(41.9239578, -87.74718)",2,19,22615,306,17
2016-2017,137,41.9379316,-87.7964046,6809 W BELMONT AVE,,CHICAGO,IL,60634,United States of America,Walgreens,http://www.Walgreens.com,773-237-6273,Pharmacy,10/01/2016,09/01/2020,,,,,"Sunday, Monday, Tuesday, Wednesday, Thursday, Friday, Saturday","Mon-Fri: 8:00 AM-10:00 PM, Sat: 9:00 AM-5:00 PM, Sun: 10:00 AM-5:00 PM",,Call for details.,,2016-2017_137,"(41.9379316, -87.7964046)",52,18,22254,397,44
2016-2017,57,41.86665,-87.7303,1158 S. Keeler Ave.,,Chicago,IL,60624,United States of America,24th Ward Office,,773-533-2400,Donna Holt,11/09/2015,11/09/2015,10:00:00,14:00:00,11/09/2015 10:00:00 AM,11/09/2015 02:00:00 PM,Monday,,,"No cost to individual. If insured, insurance will be billed.",Free to individual. Insurance will be billed.,2016-2017_57,"(41.86665, -87.7303)",30,30,21572,98,14
2016-2017,204,41.9923135,-87.6602598,6121 N BROADWAY,,CHICAGO,IL,60660,United States of America,Walgreens,http://www.Walgreens.com,773-764-8961,Pharmacy,10/01/2016,09/01/2020,,,,,"Sunday, Monday, Tuesday, Wednesday, Thursday, Friday, Saturday","Mon-Fri: 8:00 AM-10:00 PM, Sat: 9:00 AM-5:00 PM, Sun: 9:00 AM-6:00 PM",,Call for details.,,2016-2017_204,"(41.9923135, -87.6602598)",14,76,4451,46,16
2016-2017,37,41.8952,-87.7489367,4926 W. Chicago Ave.,,Chicago,IL,60651,United States of America,37th Ward Office,,773-379-0960,Bettye Pulphus,10/24/2015,10/24/2015,11:00:00,15:00:00,10/24/2015 11:00:00 AM,10/24/2015 03:00:00 PM,Saturday,,,"No cost to individual. If insured, insurance will be billed.",Free to individual. Insurance will be billed.,2016-2017_37,"(41.8952, -87.7489367)",5,26,4299,585,45
2016-2017,28,41.984633,-87.791646,6530 W. Bryn Mawr Ave.,,Chicago,IL,60631,United States of America,41st Ward-Taft High School,,773-534-1023,,10/17/2015,10/17/2015,9:00:00,14:00:00,10/17/2015 09:00:00 AM,10/17/2015 02:00:00 PM,Saturday,,,"No cost to individual. If insured, insurance will be billed.",Free to individual. Insurance will be billed.,2016-2017_28,"(41.984633, -87.791646)",17,36,22243,733,29
2016-2017,93,41.9071047,-87.6725176,1372 N MILWAUKEE AVE,,CHICAGO,IL,60622,United States of America,Walgreens,http://www.Walgreens.com,773-772-941,Pharmacy,10/01/2016,09/01/2020,,,,,"Sunday, Monday, Tuesday, Wednesday, Thursday, Friday, Saturday","Mon-Fri: 8:00 AM-10:00 PM, Sat: 9:00 AM-5:00 PM, Sun: 10:00 AM-5:00 PM",,Call for details.,,2016-2017_93,"(41.9071047, -87.6725176)",4,25,21560,481,41
2016-2017,98,41.852099,-87.674099,1931 W CERMAK RD,,CHICAGO,IL,60608,United States of America,Walgreens,http://www.Walgreens.com,773-847-5781,Pharmacy,10/01/2016,09/01/2020,,,,,"Sunday, Monday, Tuesday, Wednesday, Thursday, Friday, Saturday","Mon-Fri: Midnight - Mindnight, Sat: Midnight - Mindnight, Sun: Midnight - Mindnight",,Call for details.,,2016-2017_98,"(41.852099, -87.674099)",43,33,14920,126,26
2016-2017,29,41.9202462,-87.7611,2148 N. Long Ave.,,Chicago,IL,60639,United States of America,Prosser Career Academy H.S,,,Brian Bragg,10/18/2015,10/18/2015,9:00:00,12:30:00,10/18/2015 09:00:00 AM,10/18/2015 12:30:00 PM,Sunday,,,"No cost to individual. If insured, insurance will be billed.",Free to individual. Insurance will be billed.,2016-2017_29,"(41.9202462, -87.7611)",2,19,22615,307,44
2016-2017,194,41.896319,-87.636896,315 W CHICAGO AVE,,CHICAGO,IL,60654,United States of America,Walgreens,http://www.Walgreens.com,312-280-1599,Pharmacy,10/01/2016,09/01/2020,,,,,"Sunday, Monday, Tuesday, Wednesday, Thursday, Friday, Saturday","Mon-Fri: 9:00 AM-9:00 PM, Sat: 9:00 AM-5:00 PM, Sun: 9:00 AM-5:00 PM",,Call for details.,,2016-2017_194,"(41.896319, -87.636896)",55,37,4446,652,36
2016-2017,258,41.97654,-87.65938,5205 NORTH BROADWAY STREET,,CHICAGO,IL,60640,United States of America,CVS/pharmacy,http://www.cvs.com,773-275-5641,,10/01/2016,09/01/2020,,,,,"Sunday, Monday, Tuesday, Wednesday, Thursday, Friday, Saturday","Mon: 8:00 AM-10:00 PM, Tue: 8:00 AM-10:00 PM, Wed: 8:00 AM-10:00 PM, Thu: 8:00 AM-10:00 PM, Fri: 8:00 AM-10:00 PM, Sat: 9:00 AM-6:00 PM, Sun: 9:00 AM-6:00 PM",,Call for details.,Minimum Age Requirement for Flu Shot: 10.,2016-2017_258,"(41.97654, -87.65938)",15,76,22616,160,16
2016-2017,159,41.722299,-87.575099,2011 E 95TH ST,,CHICAGO,IL,60617,United States of America,Walgreens,http://www.Walgreens.com,773-731-9663,Pharmacy,10/01/2016,09/01/2020,,,,,"Sunday, Monday, Tuesday, Wednesday, Thursday, Friday, Saturday","Mon-Fri: 9:00 AM-9:00 PM, Sat: 9:00 AM-5:00 PM, Sun: 9:00 AM-5:00 PM",,Call for details.,,2016-2017_159,"(41.722299, -87.575099)",25,48,21202,252,37
2016-2017,108,41.7371519,-87.584369,1616 E 87TH ST,,CHICAGO,IL,60617,United States of America,Walgreens,http://www.Walgreens.com,773-978-7174,Pharmacy,10/01/2016,09/01/2020,,,,,"Sunday, Monday, Tuesday, Wednesday, Thursday, Friday, Saturday",24 Hours,,Call for details.,,2016-2017_108,"(41.7371519, -87.584369)",25,41,21202,431,35
2016-2017,284,41.88602,-87.62393,205 N. MICHIGAN AVENUE,,CHICAGO,IL,60601,United States of America,CVS/pharmacy,http://www.cvs.com,312-938-4091,,10/01/2016,09/01/2020,,,,,"Sunday, Monday, Tuesday, Wednesday, Thursday, Friday, Saturday","Mon: 6:30 AM-7:30 PM, Tue: 6:30 AM-7:30 PM, Wed: 6:30 AM-7:30 PM, Thu: 6:30 AM-7:30 PM, Fri: 6:30 AM-7:30 PM, Sat:  8:00 AM-4:00 PM, Sun: Closed",,Call for details.,Minimum Age Requirement for Flu Shot: 10.,2016-2017_284,"(41.88602, -87.62393)",42,38,14309,580,36
2016-2017,4,41.9343,-87.64183,501 W. Surf St.,,Chicago,IL,60657,United States of America,44th Ward-Britton Senior Apartments,,773-525-6034,Sheila Pacione,09/28/2015,09/28/2015,9:00:00,14:00:00,09/28/2015 09:00:00 AM,09/28/2015 02:00:00 PM,Monday,,,"No cost to individual. If insured, insurance will be billed.",Free to individual. Insurance will be billed.,2016-2017_4,"(41.9343, -87.64183)",22,57,4449,102,25
2016-2017,16,41.931,-87.7991576,6934 W. Diversey Ave.,,Chicago,IL,60707,United States of America,36th Ward Office,,773-745-4636,Magdalena Fudalewicz,10/07/2015,10/07/2015,10:00:00,14:00:00,10/07/2015 10:00:00 AM,10/07/2015 02:00:00 PM,Wednesday,,,"No cost to individual. If insured, insurance will be billed.",Free to individual. Insurance will be billed.,2016-2017_16,"(41.931, -87.7991576)",52,18,4454,397,44
2016-2017,68,41.883911,-87.632012,121 N. LaSalle St.,,Chicago,IL,60602,United States of America,City Hall - 2nd Floor Lobby,,312-746-6129,Rosemarie Lake,12/09/2016,12/09/2016,9:00:00,14:00:00,12/09/2016 09:00:00 AM,12/09/2016 02:00:00 PM,Friday,,,"No cost to individual. If insured, insurance will be billed.",Free to individual. Insurance will be billed.,2016-2017_68,"(41.883911, -87.632012)",41,38,14310,92,36
2016-2017,232,41.93745,-87.64407,3033 NORTH BROADWAY STREET,,CHICAGO,IL,60657,United States of America,CVS/pharmacy,http://www.cvs.com,773-883-6141,,10/01/2016,09/01/2020,,,,,"Monday, Tuesday, Wednesday, Thursday, Friday","Mon: 8:00 AM-10:00 PM, Tue: 8:00 AM-10:00 PM, Wed: 8:00 AM-10:00 PM, Thu: 8:00 AM-10:00 PM, Fri: 8:00 AM-10:00 PM, Sat: 9:00 AM-6:00 PM, Sun: 9:00 AM-6:00 PM",,Call for details.,Minimum Age Requirement for Flu Shot: 10.,2016-2017_232,"(41.93745, -87.64407)",22,57,4449,683,25
2016-2017,129,41.8818826,-87.633929,201 W MADISON ST,,CHICAGO,IL,60606,United States of America,Walgreens,http://www.Walgreens.com,312-214-4385,Pharmacy,10/01/2016,09/01/2020,,,,,"Sunday, Monday, Tuesday, Wednesday, Thursday, Friday, Saturday","Mon-Fri: 6:30 AM-7:00 PM, Sat: Closed, Sun: Closed",,Call for details.,,2016-2017_129,"(41.8818826, -87.633929)",46,38,14914,92,36
2016-2017,221,41.97531,-87.78332,6200 WEST HIGGINS AVENUE,,CHICAGO,IL,60630,United States of America,CVS/pharmacy,http://www.cvs.com,773-775-9316,,10/01/2016,09/01/2020,,,,,"Monday, Tuesday, Wednesday, Thursday, Friday, Saturday","Mon: 9:00 AM-9:00 PM, Tue: 9:00 AM-9:00 PM, Wed: 9:00 AM-9:00 PM, Thu: 9:00 AM-9:00 PM, Fri: 9:00 AM-9:00 PM, Sat: 9:00 AM-6:00 PM, Sun: 9:00 AM-6:00 PM",,Call for details.,Minimum Age Requirement for Flu Shot: 10.,2016-2017_221,"(41.97531, -87.78332)",48,11,21869,779,50
2016-2017,9,41.9308,-87.7094709,2710 N. Sawyer Ave.,,Chicago,IL,60647,United States of America,35th Ward Office,,773-887-3772,Monica Trevino,10/03/2015,10/03/2015,10:00:00,14:00:00,10/03/2015 10:00:00 AM,10/03/2015 02:00:00 PM,Saturday,,,"No cost to individual. If insured, insurance will be billed.",Free to individual. Insurance will be billed.,2016-2017_9,"(41.9308, -87.7094709)",1,23,22535,72,12
2016-2017,238,41.9133,-87.8056,1819 NORTH HARLEM AVENUE,,CHICAGO,IL,60707,United States of America,CVS/pharmacy,http://www.cvs.com,773-237-8927,,10/01/2016,09/01/2020,,,,,"Sunday, Monday, Tuesday, Wednesday, Thursday, Friday, Saturday","Mon: 8:00 AM-10:00 PM, Tue: 8:00 AM-10:00 PM, Wed: 8:00 AM-10:00 PM, Thu: 8:00 AM-10:00 PM, Fri: 8:00 AM-10:00 PM, Sat: 9:00 AM-6:00 PM, Sun: 9:00 AM-6:00 PM",,Call for details.,Minimum Age Requirement for Flu Shot: 10.,2016-2017_238,"(41.9133, -87.8056)",3,26,4454,598,7
2016-2017,217,41.91258,-87.65345,1714 NORTH SHEFFIELD AVENUE,,CHICAGO,IL,60614,United States of America,CVS/pharmacy,http://www.cvs.com,312-640-5161,,10/01/2016,09/01/2020,,,,,"Sunday, Monday, Tuesday, Wednesday, Thursday, Friday, Saturday",Open 24 Hours,,Call for details.,Minimum Age Requirement for Flu Shot: 10.,2016-2017_217,"(41.91258, -87.65345)",16,68,21190,168,11
2016-2017,306,41.93363207,-87.64573667,2828 N CLARK ST,,CHICAGO,IL,60657,United States of America,CVS/pharmacy,www.minuteclinic.com,773-525-1377,,10/01/2016,09/01/2020,,,,,"Monday, Tuesday, Wednesday, Thursday, Friday, Saturday, Sunday","Mon: 8:30 AM-7:30 PM, Tue: 8:30 AM-7:30 PM, Wed: 8:30 AM-7:30 PM, Thu: 8:30 AM-7:30 PM, Fri: 8:30 AM-7:30 PM, Sat: 9:00 AM-5:30 PM, Sun: 9:00 AM-4:30 PM",,Call for details.,,2016-2017_306,"(41.93363207, -87.64573667)",22,57,4449,684,25
2016-2017,218,41.73632,-87.58595,8712 SOUTH STONY ISLAND AVENUE,,CHICAGO,IL,60619,United States of America,CVS/pharmacy,http://www.cvs.com,773-933-9200,,10/01/2016,09/01/2020,,,,,"Monday, Tuesday, Wednesday, Thursday, Friday",Open 24 Hours,,Call for details.,Minimum Age Requirement for Flu Shot: 10.,2016-2017_218,"(41.73632, -87.58595)",61,44,21202,490,35
2016-2017,246,41.75086,-87.64483,7858 SOUTH HALSTED STREET,,CHICAGO,IL,60620,United States of America,CVS/pharmacy,http://www.cvs.com,773-873-1842,,10/01/2016,09/01/2020,,,,,"Sunday, Monday, Tuesday, Wednesday, Thursday, Friday, Saturday","Mon: 8:00 AM-10:00 PM, Tue: 8:00 AM-10:00 PM, Wed: 8:00 AM-10:00 PM, Thu: 8:00 AM-10:00 PM, Fri: 8:00 AM-10:00 PM, Sat: 9:00 AM-6:00 PM, Sun: 9:00 AM-6:00 PM",,Call for details.,Minimum Age Requirement for Flu Shot: 10.,2016-2017_246,"(41.75086, -87.64483)",59,70,21554,487,31
2016-2017,97,41.904099,-87.630199,1200 N DEARBORN ST,,CHICAGO,IL,60610,United States of America,Walgreens,http://www.Walgreens.com,312-943-973,Pharmacy,10/01/2016,09/01/2020,,,,,"Sunday, Monday, Tuesday, Wednesday, Thursday, Friday, Saturday","Mon-Fri: 8:00 AM-10:00 PM, Sat: 8:00 AM-10:00 PM, Sun: 8:00 AM-10:00 PM",,Call for details.,,2016-2017_97,"(41.904099, -87.630199)",54,37,14926,17,11
2016-2017,267,41.7478,-87.66301,8025 SOUTH ASHLAND AVENUE,,CHICAGO,IL,60620,United States of America,CVS/pharmacy,http://www.cvs.com,773-783-8943,,10/01/2016,09/01/2020,,,,,"Sunday, Monday, Tuesday, Wednesday, Thursday, Friday, Saturday","Mon: 8:00 AM-9:00 PM, Tue: 8:00 AM-9:00 PM, Wed: 8:00 AM-9:00 PM, Thu: 8:00 AM-9:00 PM, Fri: 8:00 AM-9:00 PM, Sat: 9:00 AM-6:00 PM, Sun: 9:00 AM-5:00 PM",,Call for details.,Minimum Age Requirement for Flu Shot: 10.,2016-2017_267,"(41.7478, -87.66301)",59,70,21554,558,13
2016-2017,146,41.764199,-87.682699,7111 S WESTERN AVE,,CHICAGO,IL,60636,United States of America,Walgreens,http://www.Walgreens.com,773-863-8009,Pharmacy,10/01/2016,09/01/2020,,,,,"Sunday, Monday, Tuesday, Wednesday, Thursday, Friday, Saturday","Mon-Fri: 9:00 AM-5:00 PM, Sat: 9:00 AM-5:00 PM, Sun: 10:00 AM-6:00 PM",,Call for details.,,2016-2017_146,"(41.764199, -87.682699)",23,64,22257,333,30
2016-2017,182,41.883181,-87.6245372,30 N MICHIGAN AVE,,CHICAGO,IL,60602,United States of America,Walgreens,http://www.Walgreens.com,312-332-3540,Pharmacy,10/01/2016,09/01/2020,,,,,"Sunday, Monday, Tuesday, Wednesday, Thursday, Friday, Saturday","Mon-Fri: 7:00 AM-8:00 PM, Sat: Closed, Sun: Closed",,Call for details.,,2016-2017_182,"(41.883181, -87.6245372)",41,38,14309,580,36
2016-2017,225,41.83771,-87.64539,741 WEST 31ST STREET,,CHICAGO,IL,60608,United States of America,CVS/pharmacy,http://www.cvs.com,312-567-9044,,10/01/2016,09/01/2020,,,,,"Sunday, Monday, Tuesday, Wednesday, Thursday, Friday, Saturday","Mon: 8:00 AM-10:00 PM, Tue: 8:00 AM-10:00 PM, Wed: 8:00 AM-10:00 PM, Thu: 8:00 AM-10:00 PM, Fri: 8:00 AM-10:00 PM, Sat: 9:00 AM-6:00 PM, Sun: 9:00 AM-6:00 PM",,Call for details.,Minimum Age Requirement for Flu Shot: 10.,2016-2017_225,"(41.83771, -87.64539)",40,58,21194,149,48
2016-2017,154,41.7646314,-87.7219779,7045 S PULASKI RD,,CHICAGO,IL,60629,United States of America,Walgreens,http://www.Walgreens.com,773-735-337,Pharmacy,10/01/2016,09/01/2020,,,,,"Sunday, Monday, Tuesday, Wednesday, Thursday, Friday, Saturday","Mon-Fri: 8:00 AM-10:00 PM, Sat: 10:00 AM-6:00 PM, Sun: 10:00 AM-5:00 PM",,Call for details.,,2016-2017_154,"(41.7646314, -87.7219779)",58,63,21867,317,15
2016-2017,130,41.866799,-87.639599,501 W ROOSEVELT RD,,CHICAGO,IL,60607,United States of America,Walgreens,http://www.Walgreens.com,312-492-8559,Pharmacy,10/01/2016,09/01/2020,,,,,"Sunday, Monday, Tuesday, Wednesday, Thursday, Friday, Saturday","Mon-Fri: Midnight - Mindnight, Sat: Midnight - Mindnight, Sun: Midnight - Mindnight",,Call for details.,,2016-2017_130,"(41.866799, -87.639599)",44,29,14917,97,48
2016-2017,283,41.88221,-87.63904,400 WEST MADISON STREET,,CHICAGO,IL,60606,United States of America,CVS/pharmacy,http://www.cvs.com,312-474-1051,,10/01/2016,09/01/2020,,,,,"Sunday, Monday, Tuesday, Wednesday, Thursday, Friday, Saturday","Mon: 7:00 AM-7:00 PM, Tue: 7:00 AM-7:00 PM, Wed: 7:00 AM-7:00 PM, Thu: 7:00 AM-7:00 PM, Fri: 7:00 AM-7:00 PM, Sat: Closed, Sun: Closed",,Call for details.,Minimum Age Requirement for Flu Shot: 10.,2016-2017_283,"(41.88221, -87.63904)",46,29,14914,784,36
2016-2017,222,41.8463,-87.61577,2545 MARTIN LUTHER KING,,CHICAGO,IL,60606,United States of America,CVS/pharmacy,http://www.cvs.com,312-842-5700,,10/01/2016,09/01/2020,,,,,"Monday, Tuesday, Wednesday, Thursday, Friday, Saturday","Mon: 9:00 AM-7:00 PM, Tue: 9:00 AM-7:00 PM, Wed: 9:00 AM-7:00 PM, Thu: 9:00 AM-7:00 PM, Fri: 9:00 AM-7:00 PM, Sat: 9:00 AM-5:00 PM, Sun: Closed",,Call for details.,Minimum Age Requirement for Flu Shot: 10.,2016-2017_222,"(41.8463, -87.61577)",40,34,21194,193,10
2016-2017,229,41.89606,-87.6541,771 NORTH OGDEN AVENUE,,CHICAGO,IL,60622,United States of America,CVS/pharmacy,http://www.cvs.com,312-243-5590,,10/01/2016,09/01/2020,,,,,"Sunday, Monday, Tuesday, Wednesday, Thursday, Friday, Saturday","Mon: 8:00 AM-10:00 PM, Tue: 8:00 AM-10:00 PM, Wed: 8:00 AM-10:00 PM, Thu: 8:00 AM-10:00 PM, Fri: 8:00 AM-10:00 PM, Sat: 9:00 AM-6:00 PM, Sun: 9:00 AM-6:00 PM",,Call for details.,Minimum Age Requirement for Flu Shot: 10.,2016-2017_229,"(41.89606, -87.6541)",49,25,22620,522,46
2016-2017,69,41.7788,-87.6997471,3045 W. 63rd St.,,Chicago,IL,60629,United States of America,16th Ward Office,,773-863-0220,Artena Samuels,12/12/2015,12/12/2015,10:00:00,14:00:00,12/12/2015 10:00:00 AM,12/12/2015 02:00:00 PM,Saturday,,,"No cost to individual. If insured, insurance will be billed.",Free to individual. Insurance will be billed.,2016-2017_69,"(41.7788, -87.6997471)",58,64,21867,319,31
2016-2017,151,41.7940678,-87.7033353,5435 S KEDZIE AVE,,CHICAGO,IL,60632,United States of America,Walgreens,http://www.Walgreens.com,773-436-7396,Pharmacy,10/01/2016,09/01/2020,,,,,"Sunday, Monday, Tuesday, Wednesday, Thursday, Friday, Saturday","Mon-Fri: Midnight - Mindnight, Sat: Midnight - Mindnight, Sun: Midnight - Mindnight",,Call for details.,,2016-2017_151,"(41.7940678, -87.7033353)",56,61,22248,777,8
2016-2017,67,41.9667527,-87.7600422,4754 N. Milwaukee Ave.,,Chicago,IL,60630,United States of America,45th Ward Office,,773-286-4545,Owen Brugh,12/05/2015,12/05/2015,10:00:00,14:00:00,12/05/2015 10:00:00 AM,12/05/2015 02:00:00 PM,Saturday,,,"No cost to individual. If insured, insurance will be billed.",Free to individual. Insurance will be billed.,2016-2017_67,"(41.9667527, -87.7600422)",48,15,21869,260,50
2016-2017,33,41.8415,-87.6497,2901 S. Poplar Ave.,,Chicago,IL,60608,United States of America,11th Ward-McGuane Park,,773-254-6677,,10/22/2015,10/22/2015,9:00:00,14:00:00,10/22/2015 09:00:00 AM,10/22/2015 02:00:00 PM,Thursday,,,"No cost to individual. If insured, insurance will be billed.",Free to individual. Insurance will be billed.,2016-2017_33,"(41.8415, -87.6497)",43,58,14920,59,48
2016-2017,46,41.7793,-87.6448,6343 S. Halsted St.,,Chicago,IL,60621,United States of America,Kennedy King College - Family Flu Day,,,Billie Lee,10/31/2015,10/31/2015,9:00:00,14:00:00,10/31/2015 09:00:00 AM,10/31/2015 02:00:00 PM,Saturday,,,"No cost to individual. If insured, insurance will be billed.",Free to individual. Insurance will be billed.,2016-2017_46,"(41.7793, -87.6448)",11,66,21559,436,4
2016-2017,186,41.931526,-87.727027,3934 W DIVERSEY AVE,,CHICAGO,IL,60647,United States of America,Walgreens,http://www.Walgreens.com,773-283-8150,Pharmacy,10/01/2016,09/01/2020,,,,,"Sunday, Monday, Tuesday, Wednesday, Thursday, Friday, Saturday","Mon-Fri: 9:00 AM-9:00 PM, Sat: 9:00 AM-5:00 PM, Sun: 9:00 AM-5:00 PM",,Call for details.,,2016-2017_186,"(41.931526, -87.727027)",2,23,22615,107,17
2016-2017,253,41.96825,-87.76696,4801 NORTH CENTRAL AVENUE,,CHICAGO,IL,60630,United States of America,CVS/pharmacy,http://www.cvs.com,773-282-2830,,10/01/2016,09/01/2020,,,,,"Sunday, Monday, Tuesday, Wednesday, Thursday, Friday, Saturday","Mon: 8:00 AM-10:00 PM, Tue: 8:00 AM-10:00 PM, Wed: 8:00 AM-10:00 PM, Thu: 8:00 AM-10:00 PM, Fri: 8:00 AM-10:00 PM, Sat: 9:00 AM-6:00 PM, Sun: 9:00 AM-6:00 PM",,Call for details.,Minimum Age Requirement for Flu Shot: 10.,2016-2017_253,"(41.96825, -87.76696)",48,11,21869,129,50
2016-2017,198,41.8962035,-87.622273,225 E CHICAGO AVE,,CHICAGO,IL,60611,United States of America,Walgreens,http://www.Walgreens.com,312-573-2287,Pharmacy,10/01/2016,09/01/2020,,,,,"Sunday, Monday, Tuesday, Wednesday, Thursday, Friday, Saturday","Mon-Fri: 8:00 AM-8:00 PM, Sat: Closed, Sun: Closed",,Call for details.,,2016-2017_198,"(41.8962035, -87.622273)",6,37,21182,158,11
2016-2017,208,41.8443048,-87.7077192,3303 W 26TH ST,,CHICAGO,IL,60623,United States of America,Walgreens,http://www.Walgreens.com,773-521-1718,Pharmacy,10/01/2016,09/01/2020,,,,,"Sunday, Monday, Tuesday, Wednesday, Thursday, Friday, Saturday","Mon-Fri: 8:00 AM-7:00 PM, Sat: Closed, Sun: Closed",,Call for details.,,2016-2017_208,"(41.8443048, -87.7077192)",57,32,21569,146,1
2016-2017,92,41.925299,-87.666399,1520 W FULLERTON AVE,,CHICAGO,IL,60614,United States of America,Walgreens,http://www.Walgreens.com,773-929-6968,Pharmacy,10/01/2016,09/01/2020,,,,,"Sunday, Monday, Tuesday, Wednesday, Thursday, Friday, Saturday","Mon-Fri: 9:00 AM-5:00 PM, Sat: 9:00 AM-5:00 PM, Sun: 9:00 AM-5:00 PM",,Call for details.,,2016-2017_92,"(41.925299, -87.666399)",16,68,21190,770,40
2016-2017,167,41.721583,-87.6149271,347 E 95TH ST,,CHICAGO,IL,60619,United States of America,Walgreens,http://www.Walgreens.com,773-568-6457,Pharmacy,10/01/2016,09/01/2020,,,,,"Sunday, Monday, Tuesday, Wednesday, Thursday, Friday, Saturday","Mon-Fri: 9:00 AM-7:00 PM, Sat: 10:00 AM-5:00 PM, Sun: 10:00 AM-6:00 PM",,Call for details.,,2016-2017_167,"(41.721583, -87.6149271)",19,45,21546,567,43
2016-2017,111,41.792457,-87.8011242,7150 W ARCHER AVE,,CHICAGO,IL,60638,United States of America,Walgreens,http://www.Walgreens.com,773-229-1447,Pharmacy,10/01/2016,09/01/2020,,,,,"Sunday, Monday, Tuesday, Wednesday, Thursday, Friday, Saturday","Mon-Fri: 8:00 AM-10:00 PM, Sat: 9:00 AM-5:00 PM, Sun: 10:00 AM-6:00 PM",,Call for details.,,2016-2017_111,"(41.792457, -87.8011242)",7,53,22268,588,6
2016-2017,233,41.99383,-87.6608,6150 NORTH BROADWAY,,CHICAGO,IL,60660,United States of America,CVS/pharmacy,http://www.cvs.com,773-274-9337,,10/01/2016,09/01/2020,,,,,"Sunday, Monday, Tuesday, Wednesday, Thursday, Friday, Saturday","Mon: 8:00 AM-10:00 PM, Tue: 8:00 AM-10:00 PM, Wed: 8:00 AM-10:00 PM, Thu: 8:00 AM-10:00 PM, Fri: 8:00 AM-10:00 PM, Sat: 9:00 AM-6:00 PM, Sun: 9:00 AM-6:00 PM",,Call for details.,Minimum Age Requirement for Flu Shot: 10.,2016-2017_233,"(41.99383, -87.6608)",14,76,4451,536,16
2016-2017,215,41.765839,-87.566995,2351 E 71st,,CHICAGO,IL,60649,United States of America,Walgreens,http://www.Walgreens.com,312-358-4135,Pharmacy,10/01/2016,09/01/2020,,,,,"Sunday, Monday, Tuesday, Wednesday, Thursday, Friday, Saturday","Mon-Fri: 8:30 AM-5:00 PM, Sat: Closed, Sun: Closed",,Call for details.,,2016-2017_215,"(41.765839, -87.566995)",24,39,22538,453,33
2016-2017,3,41.7217,-87.6350962,400 W. 95th St.,,Chicago,IL,60628,United States of America,Trinity United Church of Christ,,,,09/27/2015,09/27/2015,1:30:00,15:30:00,09/27/2015 01:30:00 AM,09/27/2015 03:30:00 PM,Sunday,,,"No cost to individual. If insured, insurance will be billed.",Free to individual. Insurance will be billed.,2016-2017_3,"(41.7217, -87.6350962)",59,72,21554,631,13
2016-2017,39,41.8671526,-87.6471948,813 W. Roosevelt Rd.,,Chicago,IL,60608,United States of America,St Francis of Assisi,,,,10/25/2015,10/25/2015,9:00:00,14:00:00,10/25/2015 09:00:00 AM,10/25/2015 02:00:00 PM,Sunday,,,"No cost to individual. If insured, insurance will be billed.",Free to individual. Insurance will be billed.,2016-2017_39,"(41.8671526, -87.6471948)",44,29,14917,97,48
2016-2017,149,41.737099,-87.605299,8628 S COTTAGE GROVE AVE,,CHICAGO,IL,60619,United States of America,Walgreens,http://www.Walgreens.com,773-651-8500,Pharmacy,10/01/2016,09/01/2020,,,,,"Sunday, Monday, Tuesday, Wednesday, Thursday, Friday, Saturday","Mon-Fri: Midnight - Mindnight, Sat: Midnight - Mindnight, Sun: Midnight - Mindnight",,Call for details.,,2016-2017_149,"(41.737099, -87.605299)",61,40,21546,140,32
2016-2017,166,41.990222,-87.706587,3019 W PETERSON AVE,,CHICAGO,IL,60659,United States of America,Walgreens,http://www.Walgreens.com,773-728-6254,Pharmacy,10/01/2016,09/01/2020,,,,,"Sunday, Monday, Tuesday, Wednesday, Thursday, Friday, Saturday","Mon-Fri: Midnight - Mindnight, Sat: Midnight - Mindnight, Sun: Midnight - Mindnight",,Call for details.,,2016-2017_166,"(41.990222, -87.706587)",50,20,4450,65,24
2016-2017,26,41.910772,-87.631239,59 W. North Blvd,,Chicago,IL,60610,United States of America,2nd Ward Latin School of Chicago (Loggia RM),,,,10/01/2016,10/01/2016,10:00:00,14:00:00,10/01/2016 10:00:00 AM,10/01/2016 02:00:00 PM,Saturday,,,"No cost to individual. If insured, insurance will be billed.",Free to individual. Insurance will be billed.,2016-2017_26,"(41.910772, -87.631239)",54,37,14926,100,11
2016-2017,241,41.79587,-87.68446,5360 SOUTH WESTERN AVENUE,,CHICAGO,IL,60609,United States of America,CVS/pharmacy,http://www.cvs.com,773-471-3160,,10/01/2016,09/01/2020,,,,,"Monday, Tuesday, Wednesday, Thursday, Friday","Mon: 8:00 AM-10:00 PM, Tue: 8:00 AM-10:00 PM, Wed: 8:00 AM-10:00 PM, Thu: 8:00 AM-10:00 PM, Fri: 8:00 AM-10:00 PM, Sat: 9:00 AM-6:00 PM, Sun: 10:00 AM-6:00 PM",,Call for details.,Minimum Age Requirement for Flu Shot: 10.,2016-2017_241,"(41.79587, -87.68446)",56,61,14924,778,3
2016-2017,76,41.7026062,-87.5361308,3611 E 106TH ST,,CHICAGO,IL,60617,United States of America,Walgreens,http://www.Walgreens.com,773-978-1988,Pharmacy,10/01/2016,09/01/2020,,,,,"Sunday, Monday, Tuesday, Wednesday, Thursday, Friday, Saturday",24 Hours,,Call for details.,,2016-2017_76,"(41.7026062, -87.5361308)",25,49,21202,602,47
2016-2017,42,41.77975,-87.7078,6235 S. Homan Ave.,,Chicago,IL,60629,United States of America,23rd Ward-West Communities YMCA,,773-582-4444,Lee,10/29/2015,10/29/2015,10:00:00,14:00:00,10/29/2015 10:00:00 AM,10/29/2015 02:00:00 PM,Thursday,,,"No cost to individual. If insured, insurance will be billed.",Free to individual. Insurance will be billed.,2016-2017_42,"(41.77975, -87.7078)",58,64,21867,344,6
2016-2017,268,41.87539,-87.6278,520 SOUTH  STATE STREET,,CHICAGO,IL,60605,United States of America,CVS/pharmacy,http://www.cvs.com,312-697-0021,,10/01/2016,09/01/2020,,,,,"Sunday, Monday, Tuesday, Wednesday, Thursday, Friday, Saturday","Mon: 8:00 AM-9:00 PM, Tue: 8:00 AM-9:00 PM, Wed: 8:00 AM-9:00 PM, Thu: 8:00 AM-9:00 PM, Fri: 8:00 AM-9:00 PM, Sat: 9:00 AM-5:00 PM, Sun: 9:00 AM-5:00 PM",,Call for details.,Minimum Age Requirement for Flu Shot: 10.,2016-2017_268,"(41.87539, -87.6278)",35,38,14913,92,10
2016-2017,117,41.8085682,-87.6461542,4700 S HALSTED ST,,CHICAGO,IL,60609,United States of America,Walgreens,http://www.Walgreens.com,773-927-8777,Pharmacy,10/01/2016,09/01/2020,,,,,"Sunday, Monday, Tuesday, Wednesday, Thursday, Friday, Saturday","Mon-Fri: 9:00 AM-5:00 PM, Sat: 9:00 AM-5:00 PM, Sun: 9:00 AM-5:00 PM",,Call for details.,,2016-2017_117,"(41.8085682, -87.6461542)",37,59,14924,708,4
2016-2017,211,41.8797193,-87.6246208,122 S MICHIGAN AVE,,CHICAGO,IL,60603,United States of America,Walgreens,http://www.Walgreens.com,312-973-3708,Pharmacy,10/01/2016,09/01/2020,,,,,"Sunday, Monday, Tuesday, Wednesday, Thursday, Friday, Saturday","Mon-Fri: 7:00 AM-7:00 PM, Sat: Closed, Sun: Closed",,Call for details.,,2016-2017_211,"(41.8797193, -87.6246208)",34,38,14311,367,36
2016-2017,54,41.841081,-87.686063,2800 S. Western Ave.,,Chicago,IL,60608,United States of America,Arturo Velasquez Institute-Family Flu Day,,,,11/07/2015,11/07/2015,9:00:00,14:00:00,11/07/2015 09:00:00 AM,11/07/2015 02:00:00 PM,Saturday,,,"No cost to individual. If insured, insurance will be billed.",Free to individual. Insurance will be billed.,2016-2017_54,"(41.841081, -87.686063)",43,33,14920,204,26
2016-2017,100,41.9959803,-87.7880338,6310 N NAGLE AVE,,CHICAGO,IL,60646,United States of America,Walgreens,http://www.Walgreens.com,773-774-2225,Pharmacy,10/01/2016,09/01/2020,,,,,"Sunday, Monday, Tuesday, Wednesday, Thursday, Friday, Saturday","Mon-Fri: 8:00 AM-10:00 PM, Sat: 8:00 AM-10:00 PM, Sun: 8:00 AM-10:00 PM",,Call for details.,,2016-2017_100,"(41.9959803, -87.7880338)",17,36,22532,657,29
2016-2017,250,42.00066,-87.66107,6510 NORTH SHERIDAN ROAD,,CHICAGO,IL,60626,United States of America,CVS/pharmacy,http://www.cvs.com,773-338-4384,,10/01/2016,09/01/2020,,,,,"Monday, Tuesday, Wednesday, Thursday, Friday, Saturday","Mon: 8:00 AM-10:00 PM, Tue: 8:00 AM-10:00 PM, Wed: 8:00 AM-10:00 PM, Thu: 8:00 AM-10:00 PM, Fri: 8:00 AM-10:00 PM, Sat: 9:00 AM-6:00 PM, Sun: 9:00 AM-6:00 PM",,Call for details.,Minimum Age Requirement for Flu Shot: 10.,2016-2017_250,"(42.00066, -87.66107)",9,10,21853,48,5
2016-2017,244,41.96094,-87.71236,3343 WEST MONTROSE AVENUE,,CHICAGO,IL,60618,United States of America,CVS/pharmacy,http://www.cvs.com,773-279-2929,,10/01/2016,09/01/2020,,,,,"Sunday, Monday, Tuesday, Wednesday, Thursday, Friday, Saturday","Mon: 8:00 AM-10:00 PM, Tue: 8:00 AM-10:00 PM, Wed: 8:00 AM-10:00 PM, Thu: 8:00 AM-10:00 PM, Fri: 8:00 AM-10:00 PM, Sat: 9:00 AM-6:00 PM, Sun: 9:00 AM-6:00 PM",,Call for details.,Minimum Age Requirement for Flu Shot: 10.,2016-2017_244,"(41.96094, -87.71236)",39,16,21538,56,20
2016-2017,147,41.945399,-87.775399,5935 W ADDISON ST,,CHICAGO,IL,60634,United States of America,Walgreens,http://www.Walgreens.com,773-282-1594,Pharmacy,10/01/2016,09/01/2020,,,,,"Sunday, Monday, Tuesday, Wednesday, Thursday, Friday, Saturday","Mon-Fri: 8:00 AM-10:00 PM, Sat: 9:00 AM-5:00 PM, Sun: 10:00 AM-5:00 PM",,Call for details.,,2016-2017_147,"(41.945399, -87.775399)",52,15,22254,342,44
2016-2017,205,41.9333442,-87.6450287,2817 N CLARK ST,,CHICAGO,IL,60657,United States of America,Walgreens,http://www.Walgreens.com,773-327-6119,Pharmacy,10/01/2016,09/01/2020,,,,,"Sunday, Monday, Tuesday, Wednesday, Thursday, Friday, Saturday","Mon-Fri: 8:00 AM-10:00 PM, Sat: 9:00 AM-5:00 PM, Sun: 9:00 AM-5:00 PM",,Call for details.,,2016-2017_205,"(41.9333442, -87.6450287)",22,57,4449,684,25
2016-2017,36,41.9306222,-87.7235,2732 N. Avers Ave.,,Chicago,IL,60647,United States of America,31st Ward-Kosciuszko Park,,773-278-0031,Rodolfo De Jesus,10/24/2015,10/24/2015,10:00:00,14:00:00,10/24/2015 10:00:00 AM,10/24/2015 02:00:00 PM,Saturday,,,"No cost to individual. If insured, insurance will be billed.",Free to individual. Insurance will be billed.,2016-2017_36,"(41.9306222, -87.7235)",1,23,22535,107,17
2016-2017,235,41.969,-87.67948,4800 NORTH DAMEN AVENUE,,CHICAGO,IL,60625,United States of America,CVS/pharmacy,http://www.cvs.com,773-907-2010,,10/01/2016,09/01/2020,,,,,"Monday, Tuesday, Wednesday, Thursday, Friday","Mon: 8:00 AM-10:00 PM, Tue: 8:00 AM-10:00 PM, Wed: 8:00 AM-10:00 PM, Thu: 8:00 AM-10:00 PM, Fri: 8:00 AM-10:00 PM, Sat: 9:00 AM-6:00 PM, Sun: 9:00 AM-6:00 PM",,Call for details.,Minimum Age Requirement for Flu Shot: 10.,2016-2017_235,"(41.969, -87.67948)",20,6,21849,106,18
2016-2017,155,41.7502807,-87.6544662,1213 W 79TH ST,,CHICAGO,IL,60620,United States of America,Walgreens,http://www.Walgreens.com,773-651-2118,Pharmacy,10/01/2016,09/01/2020,,,,,"Sunday, Monday, Tuesday, Wednesday, Thursday, Friday, Saturday","Mon-Fri: 8:00 AM-10:00 PM, Sat: 9:00 AM-5:00 PM, Sun: 10:00 AM-6:00 PM",,Call for details.,,2016-2017_155,"(41.7502807, -87.6544662)",59,70,21554,575,31
2016-2017,56,41.9582585,-87.787,4300 N. Narragansett Ave.,,Chicago,IL,60634,United States of America,Wright College-Family Flu Day,,773- 481-8612,Jackie Lonquist,11/07/2015,11/07/2015,9:00:00,14:00:00,11/07/2015 09:00:00 AM,11/07/2015 02:00:00 PM,Saturday,,,"No cost to individual. If insured, insurance will be billed.",Free to individual. Insurance will be billed.,2016-2017_56,"(41.9582585, -87.787)",52,17,22254,442,19
2016-2017,277,41.96526,-87.65203,845 WEST WILSON AVENUE,,CHICAGO,IL,60640,United States of America,CVS/pharmacy,http://www.cvs.com,773-275-7192,,10/01/2016,09/01/2020,,,,,"Monday, Tuesday, Wednesday, Thursday, Friday","Mon: 8:00 AM-4:00 PM, Tue: 9:00 AM-5:00 PM, Wed: 8:00 AM-4:00 PM, Thu: 9:00 AM-5:00 PM, Fri: 8:00 AM-4:00 PM, Sat: Closed, Sun: Closed",,Call for details.,Minimum Age Requirement for Flu Shot: 10.,2016-2017_277,"(41.96526, -87.65203)",15,31,22616,20,39
2016-2017,206,41.9398394,-87.6521615,912 W BELMONT AVE,,CHICAGO,IL,60657,United States of America,Walgreens,http://www.Walgreens.com,773-665-8990,Pharmacy,10/01/2016,09/01/2020,,,,,"Sunday, Monday, Tuesday, Wednesday, Thursday, Friday, Saturday","Mon-Fri: 9:00 AM-6:30 PM, Sat: Closed, Sun: Closed",,Call for details.,,2016-2017_206,"(41.9398394, -87.6521615)",22,57,4449,681,25
2016-2017,122,41.931599,-87.755699,5140 W DIVERSEY AVE,,CHICAGO,IL,60639,United States of America,Walgreens,http://www.Walgreens.com,773-685-8759,Pharmacy,10/01/2016,09/01/2020,,,,,"Sunday, Monday, Tuesday, Wednesday, Thursday, Friday, Saturday","Mon-Fri: 8:00 AM-10:00 PM, Sat: 9:00 AM-5:00 PM, Sun: 10:00 AM-5:00 PM",,Call for details.,,2016-2017_122,"(41.931599, -87.755699)",21,19,22615,355,17
2016-2017,24,41.6925,-87.6183,201 E. 111th St.,,Chicago,IL,60628,United States of America,9th Ward-Palmer Park,,773-785-1100,Annette Lockette,10/15/2015,10/15/2015,10:00:00,14:00:00,10/15/2015 10:00:00 AM,10/15/2015 02:00:00 PM,Thursday,,,"No cost to individual. If insured, insurance will be billed.",Free to individual. Insurance will be billed.,2016-2017_24,"(41.6925, -87.6183)",19,45,21861,253,43
2016-2017,12,41.729868,-87.662416,9011 S. Ashland Ave.,,Chicago,IL,60620,United States of America,21st Ward,,,,10/06/2016,10/06/2016,11:00:00,15:00:00,10/06/2016 11:00:00 AM,10/06/2016 03:00:00 PM,Thursday,,,"No cost to individual. If insured, insurance will be billed.",Free to individual. Insurance will be billed.,2016-2017_12,"(41.729868, -87.662416)",59,72,21554,195,13
2016-2017,74,41.9653665,-87.6517602,845 W WILSON AVE,Lower Level,CHICAGO,IL,60640,United States of America,Uptown Neighborhood Health Center,http://www.cityofchicago.org/city/en/depts/cdph/supp_info/clinical_health/immunizations_walk-inclinics.html,312-742-3227,,10/01/2016,09/01/2020,,,,,"Monday, Tuesday, Wednesday, Thursday, Friday","Mondays, Wednesdays & Fridays: 8:30 AM-3:30 PM, Tuesdays & Thursdays: 9:30 AM to 4:30 PM. Closed 2nd Wed every month 12 to 4 PM",,"No cost to individual. If insured, insurance will be billed.",Free to individual. Insurance will be billed.  Closed 2nd Wed every month 12 to 4 PM,2016-2017_74,"(41.9653665, -87.6517602)",15,31,22616,20,39
2016-2017,263,41.73941,-87.72185,8444 SOUTH PULASKI ROAD,,CHICAGO,IL,60652,United States of America,CVS/pharmacy,http://www.cvs.com,773-284-0316,,10/01/2016,09/01/2020,,,,,"Sunday, Monday, Tuesday, Wednesday, Thursday, Friday, Saturday","Mon: 8:00 AM-10:00 PM, Tue: 8:00 AM-10:00 PM, Wed: 8:00 AM-10:00 PM, Thu: 8:00 AM-10:00 PM, Fri: 8:00 AM-10:00 PM, Sat: 9:00 AM-6:00 PM, Sun: 9:00 AM-6:00 PM",,Call for details.,Minimum Age Requirement for Flu Shot: 10.,2016-2017_263,"(41.73941, -87.72185)",8,69,4300,197,30
2016-2017,53,41.9064203,-87.7013,1440 N. Humboldt Dr.,,Chicago,IL,60622,United States of America,26th Ward-Humboldt Park,,773-395-0143,Kathleen Oskandy,11/06/2015,11/06/2015,11:00:00,15:00:00,11/06/2015 11:00:00 AM,11/06/2015 03:00:00 PM,Friday,,,"No cost to individual. If insured, insurance will be billed.",Free to individual. Insurance will be billed.,2016-2017_53,"(41.9064203, -87.7013)",4,25,22535,301,49
2016-2017,52,41.7502,-87.6574,1344 W. 79th St.,,Chicago,IL,60620,United States of America,17th Ward Office,,773 -83-3672,Marion Wallace,11/06/2015,11/06/2015,9:00:00,13:00:00,11/06/2015 09:00:00 AM,11/06/2015 01:00:00 PM,Friday,,,"No cost to individual. If insured, insurance will be billed.",Free to individual. Insurance will be billed.,2016-2017_52,"(41.7502, -87.6574)",59,70,21554,575,31
2016-2017,150,41.728499,-87.551399,2924 E 92ND ST,,CHICAGO,IL,60617,United States of America,Walgreens,http://www.Walgreens.com,773-721-6603,Pharmacy,10/01/2016,09/01/2020,,,,,"Sunday, Monday, Tuesday, Wednesday, Thursday, Friday, Saturday","Mon-Fri: 8:00 AM-10:00 PM, Sat: 8:00 AM-10:00 PM, Sun: 8:00 AM-10:00 PM",,Call for details.,,2016-2017_150,"(41.728499, -87.551399)",25,42,21202,510,47
2016-2017,101,41.830499,-87.673599,1926 W 35TH ST,,CHICAGO,IL,60609,United States of America,Walgreens,http://www.Walgreens.com,773-254-5523,Pharmacy,10/01/2016,09/01/2020,,,,,"Sunday, Monday, Tuesday, Wednesday, Thursday, Friday, Saturday","Mon-Fri: 9:00 AM-5:00 PM, Sat: 9:00 AM-5:00 PM, Sun: 9:00 AM-5:00 PM",,Call for details.,,2016-2017_101,"(41.830499, -87.673599)",43,56,14924,192,1
2016-2017,109,41.8794067,-87.6340179,200 W ADAMS ST,,CHICAGO,IL,60606,United States of America,Walgreens,http://www.Walgreens.com,312-372-331,Pharmacy,10/01/2016,09/01/2020,,,,,"Sunday, Monday, Tuesday, Wednesday, Thursday, Friday, Saturday","Mon-Fri: 8:00 AM-10:00 PM, Sat: Closed, Sun: Closed",,Call for details.,,2016-2017_109,"(41.8794067, -87.6340179)",46,38,14914,92,36
2016-2017,203,41.8845429,-87.6278027,151 N STATE ST,,CHICAGO,IL,60601,United States of America,Walgreens,http://www.Walgreens.com,312-863-4249,Pharmacy,10/01/2016,09/01/2020,,,,,"Sunday, Monday, Tuesday, Wednesday, Thursday, Friday, Saturday","Mon-Fri: 8:00 AM-10:00 PM, Sat: 9:00 AM-5:00 PM, Sun: 9:00 AM-5:00 PM",,Call for details.,,2016-2017_203,"(41.8845429, -87.6278027)",42,38,14309,580,36
2016-2017,136,41.959959,-87.766729,4343 N CENTRAL AVE,,CHICAGO,IL,60634,United States of America,Walgreens,http://www.Walgreens.com,773-427-9456,Pharmacy,10/01/2016,09/01/2020,,,,,"Sunday, Monday, Tuesday, Wednesday, Thursday, Friday, Saturday","Mon-Fri: Midnight - Mindnight, Sat: Midnight - Mindnight, Sun: Midnight - Mindnight",,Call for details.,,2016-2017_136,"(41.959959, -87.766729)",21,15,22254,260,19
2016-2017,20,41.704389,-87.681972,10402 S. Western Ave.,,Chicago,IL,60643,United States of America,19th Ward Office,,773-238-8776,Tristan Karnezis Angus,10/10/2015,10/10/2015,10:00:00,14:00:00,10/10/2015 10:00:00 AM,10/10/2015 02:00:00 PM,Saturday,,,"No cost to individual. If insured, insurance will be billed.",Free to individual. Insurance will be billed.,2016-2017_20,"(41.704389, -87.681972)",33,71,22212,553,42
2016-2017,30,41.7749,-87.7283636,4233 W. 65th St.,,Chicago,IL,60629,United States of America,13th Ward-West Lawn Park,,773-581-8000,Kevin Quinn,10/19/2015,10/19/2015,10:00:00,14:00:00,10/19/2015 10:00:00 AM,10/19/2015 02:00:00 PM,Monday,,,"No cost to individual. If insured, insurance will be billed.",Free to individual. Insurance will be billed.,2016-2017_30,"(41.7749, -87.7283636)",58,63,21867,6,15
2016-2017,27,41.9542,-87.7031,3001 W. Irving Park Rd.,,Chicago,IL,60618,United States of America,33rd Ward Office,,773-478-8040,Gina Munoz,10/17/2015,10/17/2015,9:00:00,14:00:00,10/17/2015 09:00:00 AM,10/17/2015 02:00:00 PM,Saturday,,,"No cost to individual. If insured, insurance will be billed.",Free to individual. Insurance will be billed.,2016-2017_27,"(41.9542, -87.7031)",39,16,21538,116,20
2016-2017,48,41.7046,-87.5353,10500 S. Ewing Ave.,,Chicago,IL,60617,United States of America,10th Ward Office,,773-768-8138,Ismael Cuevas,11/02/2015,11/02/2015,9:00:00,14:00:00,11/02/2015 09:00:00 AM,11/02/2015 02:00:00 PM,Monday,,,"No cost to individual. If insured, insurance will be billed.",Free to individual. Insurance will be billed.,2016-2017_48,"(41.7046, -87.5353)",25,49,21202,602,47
2016-2017,120,41.7571353,-87.6242235,11 E 75TH ST,,CHICAGO,IL,60619,United States of America,Walgreens,http://www.Walgreens.com,773-224-1211,Pharmacy,10/01/2016,09/01/2020,,,,,"Sunday, Monday, Tuesday, Wednesday, Thursday, Friday, Saturday","Mon-Fri: Midnight - Mindnight, Sat: Midnight - Mindnight, Sun: Midnight - Mindnight",,Call for details.,,2016-2017_120,"(41.7571353, -87.6242235)",61,67,21546,475,32
2016-2017,191,41.7987,-87.743095,5414 S ARCHER AVE,,CHICAGO,IL,60638,United States of America,Walgreens,http://www.Walgreens.com,773-581-1664,Pharmacy,10/01/2016,09/01/2020,,,,,"Sunday, Monday, Tuesday, Wednesday, Thursday, Friday, Saturday","Mon-Fri: 8:00 AM-10:00 PM, Sat: 10:00 AM-6:00 PM, Sun: 9:00 AM-5:00 PM",,Call for details.,,2016-2017_191,"(41.7987, -87.743095)",7,53,22268,173,8
2016-2017,264,41.93363,-87.64574,2828 N. CLARK STREET,,CHICAGO,IL,60657,United States of America,CVS/pharmacy,http://www.cvs.com,773-525-1377,,10/01/2016,09/01/2020,,,,,"Sunday, Monday, Tuesday, Wednesday, Thursday, Friday, Saturday","Mon: 8:00 AM-10:00 PM, Tue: 8:00 AM-10:00 PM, Wed: 8:00 AM-10:00 PM, Thu: 8:00 AM-10:00 PM, Fri: 8:00 AM-10:00 PM, Sat: 9:00 AM-6:00 PM, Sun: 9:00 AM-6:00 PM",,Call for details.,Minimum Age Requirement for Flu Shot: 10.,2016-2017_264,"(41.93363, -87.64574)",22,57,4449,684,25
2016-2017,315,41.799812,-87.594657,1228 E 53RD ST,,CHICAGO,IL,60615,United States of America,CVS/pharmacy,www.minuteclinic.com,773-752-1425,,10/01/2016,09/01/2020,,,,,"Monday, Tuesday, Wednesday, Thursday, Friday, Saturday, Sunday","Mon: 8:30 AM-7:30 PM, Tue: 8:30 AM-7:30 PM, Wed: 8:30 AM-7:30 PM, Thu: 8:30 AM-7:30 PM, Fri: 8:30 AM-7:30 PM, Sun: 9:00 AM-4:30 PM",,,,2016-2017_315,"(41.799812, -87.594657)",10,8,21192,499,10
2016-2017,209,41.8807697,-87.7209415,3800 W MADISON ST STE 101,,CHICAGO,IL,60624,United States of America,Walgreens,http://www.Walgreens.com,773-826-1817,Pharmacy,10/01/2016,09/01/2020,,,,,"Sunday, Monday, Tuesday, Wednesday, Thursday, Friday, Saturday","Mon-Fri: 9:00 AM-6:00 PM, Sat: Closed, Sun: Closed",,Call for details.,,2016-2017_209,"(41.8807697, -87.7209415)",30,27,21572,736,23
2016-2017,197,41.981429,-87.668555,5440 N CLARK ST,,CHICAGO,IL,60640,United States of America,Walgreens,http://www.Walgreens.com,773-596-5022,Pharmacy,10/01/2016,09/01/2020,,,,,"Sunday, Monday, Tuesday, Wednesday, Thursday, Friday, Saturday","Mon-Fri: 8:00 AM-10:00 PM, Sat: 9:00 AM-5:00 PM, Sun: 9:00 AM-5:00 PM",,Call for details.,,2016-2017_197,"(41.981429, -87.668555)",15,76,22616,564,24
2016-2017,202,41.9104,-87.677343,1601 N MILWAUKEE AVE,,CHICAGO,IL,60647,United States of America,Walgreens,http://www.Walgreens.com,773-342-9161,Pharmacy,10/01/2016,09/01/2020,,,,,"Sunday, Monday, Tuesday, Wednesday, Thursday, Friday, Saturday","Mon-Fri: 8:00 AM-10:00 PM, Sat: 9:00 AM-5:00 PM, Sun: 10:00 AM-6:00 PM",,Call for details.,,2016-2017_202,"(41.9104, -87.677343)",4,25,21560,482,41
2016-2017,115,41.779091,-87.615988,6330 S KING DR,,CHICAGO,IL,60637,United States of America,Walgreens,http://www.Walgreens.com,773-324-8500,Pharmacy,10/01/2016,09/01/2020,,,,,"Sunday, Monday, Tuesday, Wednesday, Thursday, Friday, Saturday","Mon-Fri: 8:00 AM-10:00 PM, Sat: 9:00 AM-5:00 PM, Sun: 10:00 AM-5:00 PM",,Call for details.,,2016-2017_115,"(41.779091, -87.615988)",60,67,22260,122,4
2016-2017,271,41.94626,-87.71357,3411 WEST ADDISON STREET,,CHICAGO,IL,60618,United States of America,CVS/pharmacy,http://www.cvs.com,773-279-8005,,10/01/2016,09/01/2020,,,,,"Sunday, Monday, Tuesday, Wednesday, Thursday, Friday, Saturday","Mon: 8:00 AM-9:00 PM, Tue: 8:00 AM-9:00 PM, Wed: 8:00 AM-9:00 PM, Thu: 8:00 AM-9:00 PM, Fri: 8:00 AM-9:00 PM, Sat: 9:00 AM-5:00 PM, Sun: 9:00 AM-5:00 PM",,Call for details.,Minimum Age Requirement for Flu Shot: 10.,2016-2017_271,"(41.94626, -87.71357)",39,22,21538,138,12
2016-2017,220,41.97627,-87.78857,6417 WEST HIGGINS AVENUE,,CHICAGO,IL,60656,United States of America,CVS/pharmacy,http://www.cvs.com,773-631-5906,,10/01/2016,09/01/2020,,,,,"Sunday, Monday, Tuesday, Wednesday, Thursday, Friday, Saturday",Open 24 Hours,,Call for details.,Minimum Age Requirement for Flu Shot: 10.,2016-2017_220,"(41.97627, -87.78857)",31,36,4448,699,50
2016-2017,188,41.9395181,-87.7135191,3424 W BELMONT AVE,,CHICAGO,IL,60618,United States of America,Walgreens,http://www.Walgreens.com,773-267-2328,Pharmacy,10/01/2016,09/01/2020,,,,,"Sunday, Monday, Tuesday, Wednesday, Thursday, Friday, Saturday","Mon-Fri: 9:00 AM-9:00 PM, Sat: 9:00 AM-5:00 PM, Sun: 9:00 AM-5:00 PM",,Call for details.,,2016-2017_188,"(41.9395181, -87.7135191)",39,22,21538,138,12
2016-2017,226,41.90362,-87.63113,1165 NORTH CLARK STREET,,CHICAGO,IL,60610,United States of America,CVS/pharmacy,http://www.cvs.com,312-280-8140,,10/01/2016,09/01/2020,,,,,"Sunday, Monday, Tuesday, Wednesday, Thursday, Friday, Saturday","Mon: 8:00 AM-10:00 PM, Tue: 8:00 AM-10:00 PM, Wed: 8:00 AM-10:00 PM, Thu: 8:00 AM-10:00 PM, Fri: 8:00 AM-10:00 PM, Sat: 9:00 AM-6:00 PM, Sun: 9:00 AM-6:00 PM",,Call for details.,Minimum Age Requirement for Flu Shot: 10.,2016-2017_226,"(41.90362, -87.63113)",54,37,14926,310,11
2016-2017,21,41.922668,-87.6535,2250 N. Sheffield Ave.,Rm 314A,Chicago,IL,60614,United States of America,43rd Ward-DePaul Student Center,,773-348-9500,Mary Stich Marcus,10/13/2015,10/13/2015,10:00:00,14:00:00,10/13/2015 10:00:00 AM,10/13/2015 02:00:00 PM,Tuesday,,,"No cost to individual. If insured, insurance will be billed.",Free to individual. Insurance will be billed.,2016-2017_21,"(41.922668, -87.6535)",16,68,21190,744,34
2016-2017,113,41.910399,-87.688899,2440 W NORTH AVE,,CHICAGO,IL,60647,United States of America,Walgreens,http://www.Walgreens.com,773-489-5607,Pharmacy,10/01/2016,09/01/2020,,,,,"Sunday, Monday, Tuesday, Wednesday, Thursday, Friday, Saturday","Mon-Fri: 8:00 AM-10:00 PM, Sat: 9:00 AM-5:00 PM, Sun: 10:00 AM-5:00 PM",,Call for details.,,2016-2017_113,"(41.910399, -87.688899)",1,25,22535,287,41
2016-2017,240,41.86681,-87.65684,1211 WEST ROOSEVELT ROAD,,CHICAGO,IL,60608,United States of America,CVS/pharmacy,http://www.cvs.com,312-733-0147,,10/01/2016,09/01/2020,,,,,"Sunday, Monday, Tuesday, Wednesday, Thursday, Friday, Saturday","Mon: 8:00 AM-10:00 PM, Tue: 8:00 AM-10:00 PM, Wed: 8:00 AM-10:00 PM, Thu: 8:00 AM-10:00 PM, Fri: 8:00 AM-10:00 PM, Sat: 9:00 AM-6:00 PM, Sun: 10:00 AM-6:00 PM",,Call for details.,Minimum Age Requirement for Flu Shot: 10.,2016-2017_240,"(41.86681, -87.65684)",43,29,14920,96,26
2016-2017,187,41.8781275,-87.6370914,250 S WACKER DR,,CHICAGO,IL,60606,United States of America,Walgreens,http://www.Walgreens.com,312-876-1363,Pharmacy,10/01/2016,09/01/2020,,,,,"Sunday, Monday, Tuesday, Wednesday, Thursday, Friday, Saturday","Mon-Fri: 8:00 AM-8:00 PM, Sat: Closed, Sun: Closed",,Call for details.,,2016-2017_187,"(41.8781275, -87.6370914)",46,38,14914,92,36
2016-2017,280,41.88297,-87.64164,101 NORTH CLINTON STREET,,CHICAGO,IL,60661,United States of America,CVS/pharmacy,http://www.cvs.com,312-234-9206,,10/01/2016,09/01/2020,,,,,"Sunday, Monday, Tuesday, Wednesday, Thursday, Friday","Mon: 7:00 AM-8:00 PM, Tue: 7:00 AM-8:00 PM, Wed: 7:00 AM-8:00 PM, Thu: 7:00 AM-8:00 PM, Fri: 7:00 AM-8:00 PM, Sat: 10:00 AM-2:00 PM, Sun: Closed",,Call for details.,Minimum Age Requirement for Flu Shot: 10.,2016-2017_280,"(41.88297, -87.64164)",45,29,4452,784,36
2016-2017,195,41.682034,-87.5383284,11801 S AVENUE O,,CHICAGO,IL,60617,United States of America,Walgreens,http://www.Walgreens.com,773-731-2147,Pharmacy,10/01/2016,09/01/2020,,,,,"Sunday, Monday, Tuesday, Wednesday, Thursday, Friday, Saturday","Mon-Fri: 8:00 AM-10:00 PM, Sat: 10:00 AM-6:00 PM, Sun: 9:00 AM-5:00 PM",,Call for details.,,2016-2017_195,"(41.682034, -87.5383284)",25,52,21202,787,47
