TYPE;NAAM;EXPLOITANT;XCO;YCO;GEMEENTE;X;Y;LONG;LAT;COUNTER
bus;Rijswijk, Dr. H.J. van Mooklaan;Veolia (incl. Connexxion);81127;449900;Rijswijk;81127;449900;4.310658194958538;52.032509116234735;101400
bus;Rijswijk, Dr. H.J. van Mooklaan;Veolia (incl. Connexxion);81055;449901;Rijswijk;81055;449901;4.309608906560157;52.03250850495952;101401
bus;Den Hoorn, Woudselaan;Veolia (incl. Connexxion);81685;447467;Midden-Delfland;81685;447467;4.319309759149967;52.01071803596055;101402
bus;Den Haag, Carel Reinierszkade;Veolia (incl. Connexxion);83294;456340;Den Haag;83294;456340;4.3408802179384125;52.09066906608372;101403
bus;Den Haag, Carel Reinierszkade;Veolia (incl. Connexxion);83230;456289;Den Haag;83230;456289;4.339957225114779;52.090202444921246;101404
bus;Den Haag, Paterswoldestraat;Veolia (incl. Connexxion);79260;451129;Den Haag;79260;451129;4.283183090341384;52.043301955086356;101405
bus;Voorburg, Laan van Heldenburg;Veolia (incl. Connexxion);84775;453796;Leidschendam-Voorburg;84775;453796;4.363011014917271;52.06799624408575;101406
bus;Den Haag, Leyenburg (Perron C/D);Veolia (incl. Connexxion);78117;452660;Den Haag;78117;452660;4.266180740471817;52.056903228041904;101407
bus;Den Haag, Paterswoldestraat;Veolia (incl. Connexxion);79262;451118;Den Haag;79262;451118;4.2832146753803535;52.04320337388421;101408
bus;Den Haag, Leyenburg (Perron H);Veolia (incl. Connexxion);78130;452620;Den Haag;78130;452620;4.266379259580247;52.05654556389083;101409
bus;Den Haag, Leyenburg (Perron I);Veolia (incl. Connexxion);78109;452651;Den Haag;78109;452651;4.266066140716817;52.0568212373161;101410
bus;Den Haag, Leyenburg (Perron J);Veolia (incl. Connexxion);78085;452682;Den Haag;78085;452682;4.265709283127639;52.05709649335123;101411
bus;Den Haag, Leyenburg;Veolia (incl. Connexxion);78153;452584;Den Haag;78153;452584;4.2667226555306454;52.05622523351928;101412
bus;Den Haag, Veenweg;Veolia (incl. Connexxion);87738;453770;Den Haag;87738;453770;4.406223504680069;52.06813020571019;101413
bus;Den Haag, Veenweg;Veolia (incl. Connexxion);87754;453767;Den Haag;87754;453767;4.406457413456306;52.068105186752945;101414
bus;Voorburg, Laan van Heldenburg;Veolia (incl. Connexxion);84817;453804;Leidschendam-Voorburg;84817;453804;4.363621821274865;52.06807346124856;101415
bus;Delft, Brasserskade;Veolia (incl. Connexxion);83997;448836;Delft;83997;448836;4.352696608355968;52.02332189996189;101416
bus;Delft, Brasserskade;Veolia (incl. Connexxion);83987;448840;Delft;83987;448840;4.352550102171197;52.023356567834966;101417
bus;Den Haag, Beresteinlaan;Veolia (incl. Connexxion);78121;450079;Den Haag;78121;450079;4.266819617068642;52.03370903398685;101418
bus;Den Haag, Monnickendamplein;Veolia (incl. Connexxion);78433;453225;Den Haag;78433;453225;4.270660792244028;52.06202448796078;101419
bus;Den Haag, Ockenburgh;Veolia (incl. Connexxion);75357;452024;Den Haag;75357;452024;4.2260934740541725;52.050797805785905;101420
bus;Den Haag, Ockenburgh;Veolia (incl. Connexxion);75346;452022;Den Haag;75346;452022;4.225933603260129;52.05077825122239;101421
bus;Den Haag, Hoge Veld;Veolia (incl. Connexxion);79431;449787;Den Haag;79431;449787;4.285971813203666;52.03126502041703;101422
bus;Den Haag, Hoge Veld;Veolia (incl. Connexxion);79470;449818;Den Haag;79470;449818;4.286533196259139;52.03154892629779;101423
bus;Den Haag, Juliana van Stolberglaan;Veolia (incl. Connexxion);82750;455326;Den Haag;82750;455326;4.333158363136947;52.08148570581749;101424
bus;Leidschendam, Dillenburgsingel;Veolia (incl. Connexxion);87645;456991;Leidschendam-Voorburg;87645;456991;4.404231473338871;52.09706602301726;101425
bus;Leidschendam, Dillenburgsingel;Veolia (incl. Connexxion);87635;456986;Leidschendam-Voorburg;87635;456986;4.404086542839242;52.097019871295714;101426
bus;Delft, Wateringseweg;Veolia (incl. Connexxion);83794;448404;Delft;83794;448404;4.349829279050344;52.019413503490085;101427
bus;Voorburg, Sijtwendetunnel;Veolia (incl. Connexxion);86418;455079;Leidschendam-Voorburg;86418;455079;4.386711831327922;52.079732328934405;101428
bus;Voorburg, Rembrandtlaan;Veolia (incl. Connexxion);85461;454598;Leidschendam-Voorburg;85461;454598;4.372851007378297;52.07529028951925;101429
bus;Den Haag, Waterweegbree;Veolia (incl. Connexxion);86103;449804;Den Haag;86103;449804;4.383181177087194;52.03228689926154;101430
bus;Leidschendam, Leidsenhage;Veolia (incl. Connexxion);86316;456286;Leidschendam-Voorburg;86316;456286;4.384981016590404;52.09056693195049;101431
bus;Voorschoten, Kniplaan;Veolia (incl. Connexxion);89267;458346;Voorschoten;89267;458346;4.427638254877603;52.109438418933216;101432
bus;Leidschendam, Leidsenhage;Veolia (incl. Connexxion);86382;456207;Leidschendam-Voorburg;86382;456207;4.385959828578396;52.08986514722619;101433
bus;Delft, Olof Palmestraat;Veolia (incl. Connexxion);85511;447859;Delft;85511;447859;4.374950437891169;52.01473328221492;101434
bus;Rijswijk, Station Rijswijk;Veolia (incl. Connexxion);81879;450405;Rijswijk;81879;450405;4.321507218351916;52.03714718148267;101435
bus;Rijswijk, Station Rijswijk;Veolia (incl. Connexxion);81938;450432;Rijswijk;81938;450432;4.322361196052174;52.03739760514147;101436
bus;Den Haag, Kaapseplein;Veolia (incl. Connexxion);80292;453089;Den Haag;80292;453089;4.297794769584474;52.06105614420513;101437
bus;Den Haag, Kaapseplein;Veolia (incl. Connexxion);80284;453093;Den Haag;80284;453093;4.297677256834682;52.06109101227773;101438
bus;Delft, Burgwal;Veolia (incl. Connexxion);84596;447610;Delft;84596;447610;4.361674818214269;52.01238017223266;101439
bus;Den Haag, De Uithof;Veolia (incl. Connexxion);75973;450761;Den Haag;75973;450761;4.235364400829178;52.03953587557296;101440
bus;Den Haag, De Uithof;Veolia (incl. Connexxion);76039;450809;Den Haag;76039;450809;4.236315097959284;52.03997664205033;101441
bus;Delft, Nieuwe Langendijk;Veolia (incl. Connexxion);84769;447724;Delft;84769;447724;4.364171016793731;52.013426615214115;101442
bus;Monster, De Tol;Veolia (incl. Connexxion);73872;451376;Den Haag;73872;451376;4.204601909924862;52.044759061736755;101443
bus;Monster, De Tol;Veolia (incl. Connexxion);73800;451356;Westland;73800;451356;4.203557329732747;52.04456878512082;101444
bus;Delft, Nieuwe Langendijk;Veolia (incl. Connexxion);84754;447722;Delft;84754;447722;4.363952960883234;52.013406742462735;101445
bus;Leidschendam, Graaf W. de Rijkelaan;Veolia (incl. Connexxion);87421;457307;Leidschendam-Voorburg;87421;457307;4.400900259930657;52.09987860326779;101446
bus;Den Haag, Gouverneurplein;Veolia (incl. Connexxion);81290;452531;Den Haag;81290;452531;4.312465776906914;52.05617519343148;101447
bus;Den Haag, Reigersbergenweg;Veolia (incl. Connexxion);83978;456697;Den Haag;83978;456697;4.350785092771285;52.09396554235397;101448
bus;Den Haag, Reigersbergenweg;Veolia (incl. Connexxion);83950;456692;Den Haag;83950;456692;4.350377597530705;52.0939170149798;101449
bus;Delft, van Adrichemstraat;Veolia (incl. Connexxion);82734;447705;Delft;82734;447705;4.334536592761427;52.012994551915824;101450
bus;Den Haag, Parijsplein;Veolia (incl. Connexxion);80156;448614;Den Haag;80156;448614;4.296791654920522;52.02082180270798;101451
bus;Den Haag, Carry van Bruggenhof;Veolia (incl. Connexxion);79419;450795;Den Haag;79419;450795;4.285574182442275;52.040322076746236;101452
bus;Den Haag, Lanen;Veolia (incl. Connexxion);86948;452920;Den Haag;86948;452920;4.394872861395298;52.060394792405695;101453
bus;Den Haag, Lanen;Veolia (incl. Connexxion);86977;452952;Den Haag;86977;452952;4.395289301587003;52.06068593671531;101454
bus;Den Haag, Hofzichtlaan;Veolia (incl. Connexxion);84483;457209;Den Haag;84483;457209;4.358047450093866;52.09863137638511;101455
bus;Den Haag, Carry van Bruggenhof;Veolia (incl. Connexxion);79421;450764;Den Haag;79421;450764;4.285610181564011;52.04004375912574;101456
bus;Den Haag, Oosteinde;Veolia (incl. Connexxion);79698;449278;Den Haag;79698;449278;4.289974039648953;52.026727058776565;101457
bus;Den Haag, Oosteinde;Veolia (incl. Connexxion);79704;449238;Den Haag;79704;449238;4.290070253864978;52.02636840057813;101458
bus;Den Haag, Leidschenveen Centrum;Veolia (incl. Connexxion);87299;453375;Den Haag;87299;453375;4.399900173600894;52.06452687147833;101459
bus;Den Haag, Steenhouwersgaarde;Veolia (incl. Connexxion);78795;450601;Den Haag;78795;450601;4.276523952794921;52.038493197769775;101460
bus;Leidschendam, Vlindertuin;Veolia (incl. Connexxion);88564;457467;Leidschendam-Voorburg;88564;457467;4.417548654964465;52.101454893857934;101461
bus;Den Haag, Gruttosingel;Veolia (incl. Connexxion);85724;451876;Den Haag;85724;451876;4.37723899329439;52.050860747115436;101462
bus;Den Haag, Gruttosingel;Veolia (incl. Connexxion);85707;451866;Den Haag;85707;451866;4.376993218731234;52.05076875263796;101463
bus;Delft, Bankastraat;Veolia (incl. Connexxion);84168;448967;Delft;84168;448967;4.3551605494604795;52.02452105625438;101464
bus;Delft, Bankastraat;Veolia (incl. Connexxion);84177;448962;Delft;84177;448962;4.35529269651064;52.02447727051345;101465
bus;Den Haag, Boslaan;Veolia (incl. Connexxion);82448;455703;Den Haag;82448;455703;4.328673061378514;52.084834244222456;101466
bus;Den Haag, Boslaan;Veolia (incl. Connexxion);82483;455721;Den Haag;82483;455721;4.329179798443113;52.085000591979956;101467
bus;Den Haag, Viaduct;Arriva;84554;458043;Wassenaar;84554;458043;4.358911079732655;52.106135450661725;101120
bus;Den Haag, Haagse Poort;Arriva;83042;454889;Den Haag;83042;454889;4.337509791982659;52.077596483344024;101121
bus;Wassenaar, Kerkehout;Arriva;85389;458840;Wassenaar;85389;458840;4.370934766754533;52.11340365505052;101122
bus;Den Haag, Boslaan;Arriva;81958;455984;Den Haag;81958;455984;4.321464988648469;52.087295104324625;101123
bus;Voorburg, Heer Hubrechtstraat;Arriva;84259;454012;Leidschendam-Voorburg;84259;454012;4.355441863906163;52.06987176814321;101124
bus;Den Haag, Laan van Clingendael;Arriva;82938;456756;Den Haag;82938;456756;4.335598428906383;52.09436135047428;101125
bus;Voorburg, Heer Hubrechtstraat;Arriva;84240;454003;Leidschendam-Voorburg;84240;454003;4.355166657252414;52.06978845954925;101126
bus;Den Haag, Centraal Station;Arriva;82274;455175;Den Haag;82274;455175;4.326247405130196;52.08006638511289;101127
bus;Den Haag, Haagse Poort;Arriva;83065;454892;Den Haag;83065;454892;4.337844619547866;52.07762643194869;101128
bus;Den Haag, Waalsdorperlaan;Arriva;83776;457306;Den Haag;83776;457306;4.347710535782772;52.099412569555824;101129
bus;Wassenaar, Houtlaan;Arriva;85783;459261;Wassenaar;85783;459261;4.3766004444855895;52.1172365627377;101130
bus;Wassenaar, Rust en Vreugdlaan;Arriva;86340;459823;Wassenaar;86340;459823;4.384618401431116;52.12235660736261;101131
bus;Wassenaar, Rust en Vreugdlaan;Arriva;86490;460008;Wassenaar;86490;460008;4.386771178013913;52.124037781728575;101132
bus;Den Haag, Willem Witsenplein;Arriva;82522;456511;Den Haag;82522;456511;4.329580797954181;52.09210527023321;101133
bus;Den Haag, Willem Witsenplein;Arriva;82639;456555;Den Haag;82639;456555;4.331278481475681;52.09251599632443;101134
bus;Den Haag, Boslaan;Arriva;81973;456090;Den Haag;81973;456090;4.321661112719785;52.08824968185081;101135
bus;Den Haag, Viaduct;Arriva;84500;457923;Den Haag;84500;457923;4.3581478007457255;52.10505015211736;101136
bus;Wassenaar, Houtlaan;Arriva;85873;459300;Wassenaar;85873;459300;4.377906378031846;52.11759830499508;101137
bus;Den Haag, Laan van Clingendael;Arriva;82917;456764;Den Haag;82917;456764;4.33529033274764;52.09443051048001;101138
bus;Den Haag, Prins Clauslaan;Arriva;82329;455541;Den Haag;82329;455541;4.32697166072403;52.083362776071176;101139
bus;Wassenaar, Kerkehout;Arriva;85414;458830;Wassenaar;85414;458830;4.37130173678611;52.11331693152817;101140
bus;Den Haag, Prins Clauslaan;Arriva;82441;455454;Den Haag;82441;455454;4.328623919727715;52.08259561245034;101141
bus;Den Haag, Centraal Station;Arriva;82159;455223;Den Haag;82159;455223;4.32455976844556;52.08048263606656;101142
bus;Den Haag, Centraal Station;Arriva;82220;455189;Den Haag;82220;455189;4.32545677533686;52.080185105631784;101143
bus;Den Haag, Centraal Station;Arriva;82231;455169;Den Haag;82231;455169;4.3256214878072665;52.08000681522546;101144
bus;Den Haag, Centraal Station;Arriva;82236;455171;Den Haag;82236;455171;4.325693991021964;52.080025445870945;101145
bus;Den Haag, Waalsdorperlaan;Arriva;83679;457267;Den Haag;83679;457267;4.346303235987804;52.0990495921469;101146
bus;Den Haag, Viaduct;Arriva;84562;458049;Wassenaar;84562;458049;4.359026596312206;52.106190390152776;101147
bus;Den Haag, Haagse Poort;Arriva;83040;454888;Den Haag;83040;454888;4.337480832453641;52.077587236629064;101148
bus;Wassenaar, Kerkehout;Arriva;85408;458869;Wassenaar;85408;458869;4.371206184919547;52.11366666434876;101149
bus;Telpunt W.Witsenplein;Arriva;82613;456530;Den Haag;82613;456530;4.330904447865997;52.0922879269516;101150
bus;Telpunt t.h.v.Boslaan;Arriva;81963;456042;Den Haag;81963;456042;4.321525507502523;52.08781699723014;101151
bus;Telpunt W. Witsenplein;Arriva;82559;456539;Den Haag;82559;456539;4.330114675863121;52.09236174383659;101152
bus;Den Haag, Centraal Station;Arriva;82192;455241;Den Haag;82192;455241;4.325037268442281;52.08064873845877;101153
bus;Den Haag, Haagse Poort;Arriva;83060;454888;Den Haag;83060;454888;4.337772536801416;52.077589835098884;101154
bus;Den Haag, Waalsdorperlaan;Arriva;83762;457296;Den Haag;83762;457296;4.347508332629353;52.09932089948034;101155
bus;Wassenaar, Houtlaan;Arriva;85778;459251;Wassenaar;85778;459251;4.376529485751959;52.11714606839213;101156
bus;Den Haag, Boslaan;Arriva;81958;455991;Den Haag;81958;455991;4.321463489262126;52.08735801178768;101157
bus;Wassenaar, Rust en Vreugdlaan;Arriva;86342;459834;Wassenaar;86342;459834;4.384645382948616;52.12245571132581;101158
bus;Wassenaar, Rust en Vreugdlaan;Arriva;86478;460008;Wassenaar;86478;460008;4.386595970566217;52.124036295089894;101159
bus;Den Haag, Willem Witsenplein;Arriva;82528;456517;Den Haag;82528;456517;4.329667062086756;52.092159976572255;101160
bus;Den Haag, Willem Witsenplein;Arriva;82640;456554;Den Haag;82640;456554;4.331293283798098;52.09250714025108;101161
bus;Den Haag, Boslaan;Arriva;81977;456095;Den Haag;81977;456095;4.32171839651642;52.0882951433795;101162
bus;Den Haag, Viaduct;Arriva;84500;457918;Den Haag;84500;457918;4.358148835345959;52.10500521789851;101163
bus;Wassenaar, Houtlaan;Arriva;85874;459305;Wassenaar;85874;459305;4.3779199613969935;52.117643364315136;101164
bus;Den Haag, Laan van Clingendael;Arriva;82892;456747;Den Haag;82892;456747;4.334929160961842;52.09427447849723;101165
bus;Telpunt na Wassenaar, Kerkehout;Arriva;85314;458769;Wassenaar;85314;458769;4.3698545150629045;52.11275614618147;101166
bus;Den Haag, Prins Clauslaan;Arriva;82320;455534;Den Haag;82320;455534;4.326841868768132;52.08329868715202;101167
bus;Wassenaar, Kerkehout;Arriva;85422;458838;Wassenaar;85422;458838;4.371416878663407;52.11338983259713;101168
bus;Den Haag, Prins Clauslaan;Arriva;82434;455466;Den Haag;82434;455466;4.328519259063322;52.08270253678013;101169
bus;Den Haag, Centraal Station;Arriva;82198;455187;Den Haag;82198;455187;4.325136309760295;52.08016424006794;101170
bus;Den Haag, Centraal Station;Arriva;82215;455164;Den Haag;82215;455164;4.325389179227313;52.07995977838459;101171
bus;Den Haag, Centraal Station;Arriva;82203;455179;Den Haag;82203;455179;4.325210946979161;52.08009300299296;101172
bus;Den Haag, Centraal Station;Arriva;82211;455172;Den Haag;82211;455172;4.325329128484581;52.080031147025075;101173
bus;Den Haag, Waalsdorperlaan;Arriva;83677;457273;Den Haag;83677;457273;4.3462727957846745;52.09910325535195;101174
bus;Leidschendam, Damlaan;Veolia (incl. Connexxion);86929;455409;Leidschendam-Voorburg;86929;455409;4.394099498847894;52.082761068312095;101175
bus;Leidschendam, Damlaan;Veolia (incl. Connexxion);86909;455531;Leidschendam-Voorburg;86909;455531;4.393783406940467;52.08385501992762;101176
bus;Voorburg, van Halewijnlaan;Veolia (incl. Connexxion);83648;454551;Leidschendam-Voorburg;83648;454551;4.346419129243728;52.07463732994761;101177
bus;Voorburg, van Halewijnlaan;Veolia (incl. Connexxion);83660;454538;Leidschendam-Voorburg;83660;454538;4.346596858347557;52.0745220464308;101178
bus;Delft, Prinsenhof;Veolia (incl. Connexxion);84012;447538;Delft;84012;447538;4.353184336897921;52.011658702775456;101179
bus;Den Haag, Dedemsvaartweg;Veolia (incl. Connexxion);77591;452468;Den Haag;77591;452468;4.258556118558966;52.05510453056609;101180
bus;Delft, Markt;Veolia (incl. Connexxion);84355;447447;Delft;84355;447447;4.358198510791807;52.01088465971006;101181
bus;Delft, Markt;Veolia (incl. Connexxion);84381;447455;Delft;84381;447455;4.358575514270807;52.010959865252296;101182
bus;Nootdorp, Kievitsbloem;Veolia (incl. Connexxion);87148;450557;Pijnacker-Nootdorp;87148;450557;4.398258064472586;52.039182973075214;101183
bus;Den Haag, Bottgerwater;Veolia (incl. Connexxion);85553;450170;Den Haag;85553;450170;4.375093027916397;52.03550755061945;101184
bus;Den Haag, Bottgerwater;Veolia (incl. Connexxion);85530;450171;Den Haag;85530;450171;4.374757677443678;52.03551365703292;101185
bus;Den Haag, van Essendijk;Veolia (incl. Connexxion);85007;449792;Den Haag;85007;449792;4.367214307287732;52.032041826998366;101186
bus;Delft, Poortcenter;Veolia (incl. Connexxion);85565;447448;Delft;85565;447448;4.375820306711643;52.01104636801705;101187
bus;Den Haag, Den Haag CS (Perron J);Veolia (incl. Connexxion);82171;455186;Den Haag;82171;455186;4.324742700986005;52.080151702850316;101188
bus;Den Haag, Den Haag CS (Perron K);Veolia (incl. Connexxion);82179;455176;Den Haag;82179;455176;4.324861523688206;52.08006288695201;101189
bus;Den Haag, Melis Stokelaan;Veolia (incl. Connexxion);78958;451516;Den Haag;78958;451516;4.278695687907289;52.046738476005096;101190
bus;Voorschoten, Kniplaan;Veolia (incl. Connexxion);89368;458475;Voorschoten;89368;458475;4.429087601869479;52.11060973257812;101191
bus;Rijswijk, Prinses Beatrixlaan;Veolia (incl. Connexxion);81392;450038;Rijswijk;81392;450038;4.3144896665808155;52.03378455120476;101192
bus;Den Hoorn, Woudselaan;Veolia (incl. Connexxion);81675;447446;Midden-Delfland;81675;447446;4.31916862163217;52.01052798894559;101193
bus;Den Haag, Zuiderparklaan/Escamplaan;Veolia (incl. Connexxion);79083;453620;Den Haag;79083;453620;4.2800499260337626;52.065663716674976;101194
bus;Pijnacker, Nootdorpseweg;Veolia (incl. Connexxion);89110;448203;Pijnacker-Nootdorp;89110;448203;4.427303750444598;52.01826393136237;101195
bus;Leidschendam, Graaf W. de Rijkelaan;Veolia (incl. Connexxion);87378;457316;Leidschendam-Voorburg;87378;457316;4.400270986091169;52.09995423429731;101196
trein;Den Haag HS;NS;82010;454090;Den Haag;82010;454090;4.322628797239813;52.07028096813321;101197
bus;Den Haag, Defensie;Veolia (incl. Connexxion);84654;449351;Den Haag;84654;449351;4.362161641074061;52.02803390586118;101198
bus;Delft, Parkzoom;Veolia (incl. Connexxion);82681;447367;Delft;82681;447367;4.333836079414503;52.00995005405596;101199
bus;Voorburg, Potgieterlaan;Veolia (incl. Connexxion);83942;454474;Leidschendam-Voorburg;83942;454474;4.3507229453469245;52.07398313546333;101200
bus;Den Haag, Louis Armstrongplein;Veolia (incl. Connexxion);76211;452495;Den Haag;76211;452495;4.238432874329552;52.05515261709959;101201
bus;Den Haag, Louis Armstrongplein;Veolia (incl. Connexxion);76223;452486;Den Haag;76223;452486;4.238609880687835;52.05507344394015;101202
bus;Den Haag, Calandkade;Veolia (incl. Connexxion);81314;453338;Den Haag;81314;453338;4.31264152545015;52.06343074030083;101203
bus;Den Haag, Calandkade;Veolia (incl. Connexxion);81324;453363;Den Haag;81324;453363;4.312781935926347;52.06365674036764;101204
bus;Den Haag, De Dreef;Veolia (incl. Connexxion);77584;449703;Den Haag;77584;449703;4.259080277397372;52.03025528389895;101205
bus;Wassenaar, Nachtegaallaan;Veolia (incl. Connexxion);85299;460362;Wassenaar;85299;460362;4.3693094079063055;52.12707030001691;101206
bus;Voorburg, Hoeckvlietstraat;Veolia (incl. Connexxion);85245;454385;Leidschendam-Voorburg;85245;454385;4.3697442748047255;52.07334891667193;101207
bus;Voorburg, Hoeckvlietstraat;Veolia (incl. Connexxion);85278;454397;Leidschendam-Voorburg;85278;454397;4.370223093401652;52.07346091417964;101208
bus;Wassenaar, Wittenburgerweg;Veolia (incl. Connexxion);84217;458579;Wassenaar;84217;458579;4.353881317792173;52.11090938426451;101209
bus;Den Haag, Calandplein;Veolia (incl. Connexxion);81444;453208;Den Haag;81444;453208;4.314564998886726;52.06227973327904;101210
bus;Wateringen, Plein;Veolia (incl. Connexxion);78650;448962;Westland;78650;448962;4.274776818792893;52.02374391146308;101211
bus;Leidschendam, Rozenrust;Veolia (incl. Connexxion);87799;456294;Leidschendam-Voorburg;87799;456294;4.406615977683612;52.09082081045812;101212
bus;Leidschendam, Rozenrust;Veolia (incl. Connexxion);87791;456284;Leidschendam-Voorburg;87791;456284;4.406501229887628;52.09072996951763;101213
bus;Rijswijk, Schaapweg;Veolia (incl. Connexxion);80680;449734;Rijswijk;80680;449734;4.304181283409023;52.03095755888052;101214
bus;Rijswijk, Schaapweg;Veolia (incl. Connexxion);80754;449777;Rijswijk;80754;449777;4.305250124022722;52.031353907979856;101215
bus;Den Haag, Schalk Burgerstraat;Veolia (incl. Connexxion);80024;452975;Den Haag;80024;452975;4.293912444043132;52.05999544273657;101216
bus;Voorburg, Potgieterlaan;Veolia (incl. Connexxion);83913;454503;Leidschendam-Voorburg;83913;454503;4.35029396604583;52.074240033742;101217
bus;Leidschendam, GGZ Haagstreek;Veolia (incl. Connexxion);88330;456968;Leidschendam-Voorburg;88330;456968;4.414231405378735;52.096942245829105;101218
bus;Den Haag, Lage Veld;Veolia (incl. Connexxion);79955;448878;Den Haag;79955;448878;4.293805878008777;52.023167167127006;101219
bus;Leidschendam, GGZ Haagstreek;Veolia (incl. Connexxion);88454;457141;Leidschendam-Voorburg;88454;457141;4.416007028119512;52.09851191774936;101220
bus;Delft, Prinsenhof;Veolia (incl. Connexxion);84007;447562;Delft;84007;447562;4.353106541111674;52.01187375111264;101221
bus;Naaldwijk, Grote Achterweg;Veolia (incl. Connexxion);73504;447356;Westland;73504;447356;4.200196269481283;52.00857903897556;101222
bus;Den Haag, Dedemsvaartweg;Veolia (incl. Connexxion);77519;452405;Den Haag;77519;452405;4.2575208198467065;52.05452830364021;101223
bus;Delft, IKEA;Veolia (incl. Connexxion);85710;447672;Delft;85710;447672;4.37788670515782;52.01307759053057;101224
bus;Delft, IKEA;Veolia (incl. Connexxion);85718;447666;Delft;85718;447666;4.378004434385045;52.01302466715136;101225
bus;Den Haag, Laan van Nootdorp;Veolia (incl. Connexxion);86329;452200;Den Haag;86329;452200;4.385992741853428;52.05384780782496;101226
bus;Den Haag, Laan van Nootdorp;Veolia (incl. Connexxion);86361;452199;Den Haag;86361;452199;4.386459426796067;52.05384278422856;101227
bus;Delft, Parkzoom;Veolia (incl. Connexxion);82649;447313;Delft;82649;447313;4.3333814656437895;52.009460586593065;101228
bus;Den Haag, Prins Clauslaan;Veolia (incl. Connexxion);82433;455469;Den Haag;82433;455469;4.328504033965208;52.082729366141685;101229
bus;Den Haag, Prins Clauslaan;Veolia (incl. Connexxion);82323;455537;Den Haag;82323;455537;4.326884990659983;52.083326041341834;101230
bus;Den Haag, Parijsplein;Veolia (incl. Connexxion);80234;448506;Den Haag;80234;448506;4.297951443275191;52.01986174315404;101231
bus;Rijswijk, Patentlaan;Veolia (incl. Connexxion);83012;450825;Rijswijk;83012;450825;4.33792889995124;52.04106995004908;101232
bus;Den Haag, Guntersteinweg;Veolia (incl. Connexxion);80642;451608;Den Haag;80642;451608;4.3032200435359815;52.04779378930339;101233
bus;Den Haag, Leidschenveen Centrum;Veolia (incl. Connexxion);87340;453421;Den Haag;87340;453421;4.4004888870243875;52.06494528160591;101234
bus;Den Haag, van Musschenbroekstraat;Veolia (incl. Connexxion);82541;453460;Den Haag;82541;453460;4.3305059907801695;52.06468897914641;101235
bus;Naaldwijk, Grote Achterweg;Veolia (incl. Connexxion);73488;447354;Westland;73488;447354;4.199963749500566;52.00855871540183;101236
bus;Rijswijk, Patentlaan;Veolia (incl. Connexxion);83001;450908;Rijswijk;83001;450908;4.337751111171602;52.04181443470933;101237
bus;Den Haag, Gramsbergenlaan;Veolia (incl. Connexxion);78664;452298;Den Haag;78664;452298;4.274235943822167;52.05372568073675;101238
bus;Den Haag, Gramsbergenlaan;Veolia (incl. Connexxion);78720;452260;Den Haag;78720;452260;4.275060753582266;52.05339189833944;101239
bus;Voorburg, van Heurnstraat;Veolia (incl. Connexxion);83252;454714;Leidschendam-Voorburg;83252;454714;4.34060948878518;52.07605103202415;101240
bus;Nootdorp, Kievitsbloem;Veolia (incl. Connexxion);87150;450544;Pijnacker-Nootdorp;87150;450544;4.3982897904156175;52.0390663862401;101241
bus;Leidschendam, J.S. Bachlaan;Veolia (incl. Connexxion);86661;455912;Leidschendam-Voorburg;86661;455912;4.390089387564348;52.08724850244367;101242
bus;Leidschendam, J.S. Bachlaan;Veolia (incl. Connexxion);86657;455902;Leidschendam-Voorburg;86657;455902;4.390033036987418;52.08715813922262;101243
bus;Delft, Nieuwe Plantage;Veolia (incl. Connexxion);83967;448167;Delft;83967;448167;4.3523984434798155;52.01730576441411;101244
bus;Den Haag, Parnassia;Veolia (incl. Connexxion);74226;451525;Den Haag;74226;451525;4.2097259181667575;52.04614977399604;101245
bus;Delft, Nieuwe Plantage;Veolia (incl. Connexxion);83987;448183;Delft;83987;448183;4.352686436872635;52.01745211656575;101246
bus;Den Haag, Dr. H.E. van Gelderlaan;Veolia (incl. Connexxion);77320;452161;Den Haag;77320;452161;4.254675395900595;52.05230768476292;101247
bus;Rijswijk, Verrijn Stuartlaan;Veolia (incl. Connexxion);82653;450709;Rijswijk;82653;450709;4.332721633296719;52.03998073631024;101248
bus;Den Haag, Dr. H.E. van Gelderlaan;Veolia (incl. Connexxion);77246;452117;Den Haag;77246;452117;4.253606734697895;52.05190189009647;101249
bus;Voorburg, Rozenboomlaan;Veolia (incl. Connexxion);84924;453998;Leidschendam-Voorburg;84924;453998;4.3651422910531466;52.069830467069735;101250
bus;Pijnacker, van Vuren;Veolia (incl. Connexxion);87659;447614;Pijnacker-Nootdorp;87659;447614;4.406284191995539;52.01279629947526;101251
bus;Den Haag, Leeghwaterplein;Veolia (incl. Connexxion);81666;453680;Den Haag;81666;453680;4.317700410804869;52.06655093987894;101252
bus;Den Haag, Ockenburghstraat;Veolia (incl. Connexxion);75611;452204;Den Haag;75611;452204;4.229753980033958;52.052451851202406;101253
bus;Den Haag, Ockenburghstraat;Veolia (incl. Connexxion);75584;452189;Den Haag;75584;452189;4.22936389732934;52.05231318225654;101254
bus;Rijswijk, TNO / Lange Kleiweg;Veolia (incl. Connexxion);83132;449287;Rijswijk;83132;449287;4.340000930442538;52.02726362162971;101255
bus;Wateringen, Harry Hoekstraat;Veolia (incl. Connexxion);78289;448817;Westland;78289;448817;4.269550470175854;52.02239100299222;101256
bus;Wateringen, Harry Hoekstraat;Veolia (incl. Connexxion);78267;448795;Westland;78267;448795;4.269234928638519;52.022190249878356;101257
bus;Pijnacker, van Vuren;Veolia (incl. Connexxion);87656;447616;Pijnacker-Nootdorp;87656;447616;4.406240105491609;52.0128139095444;101258
bus;Pijnacker, Raadhuisplein;Veolia (incl. Connexxion);89424;448336;Pijnacker-Nootdorp;89424;448336;4.431852050974889;52.019496426703526;101259
bus;Pijnacker, B.V. Mol;Veolia (incl. Connexxion);88542;447965;Pijnacker-Nootdorp;88542;447965;4.419076387637026;52.01605724298285;101260
bus;Nootdorp, Dominee C. Spoorlaan;Veolia (incl. Connexxion);86836;450848;Pijnacker-Nootdorp;86836;450848;4.393653299834041;52.04175993582721;101261
bus;Delft, Olof Palmestraat;Veolia (incl. Connexxion);85541;447821;Delft;85541;447821;4.375395095559955;52.01439553089733;101262
bus;Den Haag, Guirlande;Veolia (incl. Connexxion);85286;451411;Den Haag;85286;451411;4.370949310796498;52.04662689775853;101263
bus;Den Haag, Guirlande;Veolia (incl. Connexxion);85300;451416;Den Haag;85300;451416;4.371152344124411;52.04667359286075;101264
bus;Nootdorp, Dominee C. Spoorlaan;Veolia (incl. Connexxion);86830;450838;Pijnacker-Nootdorp;86830;450838;4.393567851922713;52.041669327936184;101265
bus;Delft, Olof Palmestraat;Veolia (incl. Connexxion);85561;447795;Delft;85561;447795;4.375691665531176;52.014164371046895;101266
bus;Wassenaar, Beukenhorstlaan;Veolia (incl. Connexxion);84625;458928;Wassenaar;84625;458928;4.359764448809562;52.11409783769591;101267
bus;Wassenaar, Beukenhorstlaan;Veolia (incl. Connexxion);84724;458986;Wassenaar;84724;458986;4.361197607815779;52.11463165895155;101268
bus;Den Haag, Parnassia;Veolia (incl. Connexxion);74243;451515;Den Haag;74243;451515;4.209976048107789;52.0460623860172;101269
bus;Nootdorp, Centrum/Parade;Veolia (incl. Connexxion);86681;451339;Pijnacker-Nootdorp;86681;451339;4.391296226762653;52.04615348762538;101270
bus;Den Haag, Noordweg;Veolia (incl. Connexxion);79299;450148;Den Haag;79299;450148;4.283968677805485;52.034491247118325;101271
bus;Den Haag, Noordweg;Veolia (incl. Connexxion);79312;450161;Den Haag;79312;450161;4.284155223683991;52.03460985067622;101272
bus;Den Haag, Laan van 's-Gravenmade;Veolia (incl. Connexxion);84038;451631;Den Haag;84038;451631;4.35271381269029;52.048445685226454;101273
bus;Delft, Arubastraat;Veolia (incl. Connexxion);84192;448509;Delft;84192;448509;4.355604958538713;52.02040807869186;101274
bus;Delft, Arubastraat;Veolia (incl. Connexxion);84149;448557;Delft;84149;448557;4.354968653884562;52.020833964323806;101275
bus;Den Haag, Laan van 's-Gravenmade;Veolia (incl. Connexxion);84048;451599;Den Haag;84048;451599;4.3528662148830914;52.04815938346749;101276
bus;Den Haag, Waterviolier;Veolia (incl. Connexxion);86424;450038;Den Haag;86424;450038;4.387811415001255;52.034429647211645;101277
bus;Rijswijk, van Vredenburchweg;Veolia (incl. Connexxion);81189;451110;Rijswijk;81189;451110;4.311300348567715;52.04339146774078;101278
bus;Rijswijk, van Vredenburchweg;Veolia (incl. Connexxion);81188;451124;Rijswijk;81188;451124;4.311282751308418;52.043517150351484;101279
bus;Rijswijk, 't Haantje;Veolia (incl. Connexxion);83523;448881;Rijswijk;83523;448881;4.34578217545914;52.02366544033731;101280
bus;Kwintsheul, Raaphorstbrug;Veolia (incl. Connexxion);77748;448459;Westland;77748;448459;4.261750536322155;52.0190986360829;101281
bus;Kwintsheul, Raaphorstbrug;Veolia (incl. Connexxion);77729;448427;Westland;77729;448427;4.2614810079928205;52.018808412539585;101282
bus;Den Haag, Rotonde Houtkade;Veolia (incl. Connexxion);88444;452762;Den Haag;88444;452762;4.416715129231529;52.05915651741082;101283
bus;Delft, Twee Molentjeskade;Veolia (incl. Connexxion);84617;448356;Delft;84617;448356;4.361827266371052;52.019087148004346;101284
bus;Delft, Twee Molentjeskade;Veolia (incl. Connexxion);84622;448362;Delft;84622;448362;4.361898863722546;52.01914170432474;101285
bus;Voorburg, van Heurnstraat;Veolia (incl. Connexxion);83243;454715;Leidschendam-Voorburg;83243;454715;4.3404780160011756;52.076058852935795;101286
bus;Rijswijk, Volmerlaan (zuid);Veolia (incl. Connexxion);82571;450275;Rijswijk;82571;450275;4.331618593511567;52.03606971576178;101287
bus;Rijswijk, Volmerlaan (zuid);Veolia (incl. Connexxion);82544;450284;Rijswijk;82544;450284;4.331223251273113;52.036147070258124;101288
bus;Den Haag, Loosduinse Hoofdstraat;Veolia (incl. Connexxion);76250;452353;Den Haag;76250;452353;4.239034134917428;52.053882059625636;101289
bus;Den Haag, Moerweg/Melis Stokelaan;Veolia (incl. Connexxion);80194;452326;Den Haag;80194;452326;4.296533074440223;52.05418600821537;101290
bus;Den Haag, Moerweg/Melis Stokelaan;Veolia (incl. Connexxion);80154;452384;Den Haag;80154;452384;4.295937268356757;52.05470183907399;101291
bus;Den Haag, Moerweg;Veolia (incl. Connexxion);80444;451982;Den Haag;80444;451982;4.300252513547813;52.05112825061946;101292
bus;Den Haag, van Essendijk;Veolia (incl. Connexxion);84990;449790;Den Haag;84990;449790;4.366967018767351;52.032021707415424;101293
bus;Leidschendam, Prinsensingel;Veolia (incl. Connexxion);86923;456982;Leidschendam-Voorburg;86923;456982;4.393697985265727;52.09689681916971;101294
bus;Leidschendam, Prinsensingel;Veolia (incl. Connexxion);86850;456965;Leidschendam-Voorburg;86850;456965;4.3926361863779615;52.09673505862069;101295
bus;Delft, Bieslandsekade;Veolia (incl. Connexxion);85225;447837;Delft;85225;447837;4.3707893693033935;52.01449967707583;101296
bus;Delft, Bieslandsekade;Veolia (incl. Connexxion);85217;447832;Delft;85217;447832;4.370673870286664;52.014453735876494;101297
bus;Leidschendam, Weikamp;Veolia (incl. Connexxion);88059;456589;Leidschendam-Voorburg;88059;456589;4.4103514250035785;52.093503470585524;101298
bus;Leidschendam, Weikamp;Veolia (incl. Connexxion);88057;456596;Leidschendam-Voorburg;88057;456596;4.410320869459366;52.09356613772579;101299
bus;Delfgauw, Delfgauwseplein;Veolia (incl. Connexxion);86963;447332;Pijnacker-Nootdorp;86963;447332;4.396203474391559;52.01017703637227;101300
bus;Rijswijk, In de Bogaard;Veolia (incl. Connexxion);81527;450464;Rijswijk;81527;450464;4.316365204084352;52.03763086695105;101301
bus;Rijswijk, In de Bogaard;Veolia (incl. Connexxion);81522;450485;Rijswijk;81522;450485;4.316287830321387;52.03781892831047;101302
bus;Den Haag, Laan van Nieuw Oost-Indie;Veolia (incl. Connexxion);82809;455975;Den Haag;82809;455975;4.333881596004526;52.08732584518886;101303
bus;Den Haag, Hofzichtlaan;Veolia (incl. Connexxion);84469;457151;Den Haag;84469;457151;4.357855161822541;52.098108354859946;101304
bus;Delft, G.G.Z. Delfland;Veolia (incl. Connexxion);84442;448555;Delft;84442;448555;4.359237144027006;52.02085333344514;101305
bus;Delft, G.G.Z. Delfland;Veolia (incl. Connexxion);84442;448539;Delft;84442;448539;4.359240443063593;52.02070954142623;101306
bus;Wassenaar, de Kieviet;Veolia (incl. Connexxion);84900;459853;Wassenaar;84900;459853;4.363588243393722;52.122445573212474;101307
bus;Wassenaar, de Kieviet;Veolia (incl. Connexxion);84910;459910;Wassenaar;84910;459910;4.363722506355832;52.1229590897415;101308
bus;Den Haag, Defensie;Veolia (incl. Connexxion);84643;449324;Den Haag;84643;449324;4.3620069339696785;52.02778986199815;101309
bus;Den Haag, Broekslootkade;Veolia (incl. Connexxion);82802;452930;Den Haag;82802;452930;4.334423694390712;52.05996002210664;101310
bus;Wateringen, De Ark;Veolia (incl. Connexxion);79112;449147;Westland;79112;449147;4.28146597257151;52.02546989249728;101311
bus;Wateringen, De Ark;Veolia (incl. Connexxion);79061;449129;Westland;79061;449129;4.280726996765974;52.025301147681546;101312
bus;Den Haag, Houtwijklaan;Veolia (incl. Connexxion);77120;452544;Den Haag;77120;452544;4.251672743498743;52.0557215022138;101313
bus;Den Haag, Houtwijklaan;Veolia (incl. Connexxion);77054;452619;Den Haag;77054;452619;4.250693494712307;52.056386219614424;101314
bus;Delft, Poortcenter;Veolia (incl. Connexxion);85570;447428;Delft;85570;447428;4.3758971809400595;52.010867252834615;101315
bus;Den Haag, Haagse Markt;Veolia (incl. Connexxion);80505;453255;Den Haag;80505;453255;4.300864030557497;52.062576634183046;101316
bus;Rijswijk, Bogaard/Churchilllaan;Veolia (incl. Connexxion);81566;450135;Rijswijk;81566;450135;4.3170041722477634;52.03467935328913;101317
bus;Den Haag, Prinses Marijkestraat;Veolia (incl. Connexxion);82806;455228;Den Haag;82806;455228;4.333995946005437;52.08061230134731;101318
bus;Den Haag, Prinses Marijkestraat;Veolia (incl. Connexxion);82886;455108;Den Haag;82886;455108;4.335188208329591;52.07954430650105;101319
bus;Den Haag, Veluweplein;Veolia (incl. Connexxion);79995;452746;Den Haag;79995;452746;4.293539936500266;52.057933547103254;101320
bus;Den Haag, Den Haag CS (Perron L);Veolia (incl. Connexxion);82186;455166;Den Haag;82186;455166;4.324965759968915;52.0799739394385;101321
bus;Rijswijk, De Bruyn Kopsstraat;Veolia (incl. Connexxion);82942;450923;Rijswijk;82942;450923;4.336888109000384;52.04194157238907;101322
bus;Den Haag, Laan van Wateringseveld;Veolia (incl. Connexxion);79752;449386;Den Haag;79752;449386;4.290736984409725;52.02770496722125;101323
bus;Den Haag, Arnold Spoelplein;Veolia (incl. Connexxion);75895;452406;Den Haag;75895;452406;4.233846978668566;52.05430777376925;101324
bus;Den Haag, Arnold Spoelplein;Veolia (incl. Connexxion);75888;452412;Den Haag;75888;452412;4.233743548234706;52.05436069393193;101325
bus;Den Haag, Ockenrode;Veolia (incl. Connexxion);75035;451818;Den Haag;75035;451818;4.2214481867019655;52.04890018574041;101326
bus;Den Haag, Ockenrode;Veolia (incl. Connexxion);75090;451831;Den Haag;75090;451831;4.2222467971404285;52.049024946592056;101327
bus;Den Haag, Jonckbloetplein;Veolia (incl. Connexxion);81897;452795;Den Haag;81897;452795;4.321258225970728;52.058628136404174;101328
bus;Delft, Wateringseweg;Veolia (incl. Connexxion);83793;448377;Delft;83793;448377;4.349820330456194;52.01917072657035;101329
bus;Den Haag, Zuidwerflaan;Veolia (incl. Connexxion);84685;457398;Den Haag;84685;457398;4.360956078104583;52.100355591966384;101330
bus;Den Haag, Zuidwerflaan;Veolia (incl. Connexxion);84712;457398;Den Haag;84712;457398;4.361350082518482;52.10035902150724;101331
bus;Den Haag, Dalerveenstraat;Veolia (incl. Connexxion);79009;451788;Den Haag;79009;451788;4.279378527029791;52.04918987102881;101332
bus;Den Haag, Dalerveenstraat;Veolia (incl. Connexxion);79012;451835;Den Haag;79012;451835;4.279411802078213;52.04961265962532;101333
bus;Wassenaar, Wittenburgerweg;Veolia (incl. Connexxion);84121;458513;Wassenaar;84121;458513;4.352493819343806;52.11030396358367;101334
bus;Leidschendam, Koningin Julianaplein;Veolia (incl. Connexxion);87434;455963;Leidschendam-Voorburg;87434;455963;4.401356276609386;52.08780169891387;101335
bus;Delft, Wateringsevest;Veolia (incl. Connexxion);83853;447966;Delft;83853;447966;4.350779739346878;52.01548477213487;101336
bus;Den Haag, Goudriaankade;Veolia (incl. Connexxion);82380;453836;Den Haag;82380;453836;4.328078470226427;52.06804694661231;101337
bus;Den Haag, Waterviolier;Veolia (incl. Connexxion);86444;450029;Den Haag;86444;450029;4.388104645660176;52.03435123651708;101338
bus;Den Haag, Wouwermanstraat;Veolia (incl. Connexxion);80988;453110;Den Haag;80988;453110;4.307937703638488;52.06133829185132;101339
bus;Poeldijk, Teylingerlaan;Veolia (incl. Connexxion);75768;450504;Westland;75768;450504;4.2324366030064136;52.03719703805195;101340
bus;Pijnacker, Rijskade;Veolia (incl. Connexxion);88833;448092;Pijnacker-Nootdorp;88833;448092;4.423290381302273;52.01723339085636;101341
bus;Poeldijk, Teylingerlaan;Veolia (incl. Connexxion);75702;450454;Westland;75702;450454;4.231486466938365;52.03673826716389;101342
bus;Den Haag, Zichtenburglaan;Veolia (incl. Connexxion);76895;451741;Den Haag;76895;451741;4.248576319264726;52.04847352919473;101343
bus;Den Haag, Melis Stokelaan;Veolia (incl. Connexxion);78969;451511;Den Haag;78969;451511;4.278857124916096;52.04669505165077;101344
bus;Delft, Weteringlaan;Veolia (incl. Connexxion);83496;447442;Delft;83496;447442;4.34568946316518;52.010729699612114;101345
bus;Delft, Weteringlaan;Veolia (incl. Connexxion);83494;447452;Delft;83494;447452;4.345658247886787;52.01081931171685;101346
bus;Rijswijk, Polakweg;Veolia (incl. Connexxion);82523;450076;Rijswijk;82523;450076;4.330961331049738;52.034275047776134;101347
bus;Den Haag, Laan van Nieuw Oost-Indie;Veolia (incl. Connexxion);82954;456089;Den Haag;82954;456089;4.335972827229274;52.08836923076381;101348
bus;Delfgauw, Delfgauwseplein;Veolia (incl. Connexxion);86934;447322;Pijnacker-Nootdorp;86934;447322;4.395783121914679;52.01008360926679;101349
bus;Den Haag, Leyweg;Veolia (incl. Connexxion);79260;451002;Den Haag;79260;451002;4.28321123030114;52.04216063448859;101350
bus;Den Haag, Q.A. Nederpelstraat;Veolia (incl. Connexxion);76275;451588;Den Haag;76275;451588;4.239574824124555;52.047010826101115;101351
bus;Voorburg, Station L'dam/Voorburg;Veolia (incl. Connexxion);86034;454826;Leidschendam-Voorburg;86034;454826;4.381161914284244;52.077410950460276;101352
bus;Den Haag, Veluweplein;Veolia (incl. Connexxion);79917;452848;Den Haag;79917;452848;4.292380377310896;52.0588396308655;101353
bus;Den Haag, Strijpkade;Veolia (incl. Connexxion);80209;449556;Den Haag;80209;449556;4.297357779063631;52.029294564964495;101354
bus;Den Haag, Strijpkade;Veolia (incl. Connexxion);80170;449545;Den Haag;80170;449545;4.2967919802464785;52.02919044726966;101355
bus;Rijswijk, Bogaard/Churchilllaan;Veolia (incl. Connexxion);81580;450148;Rijswijk;81580;450148;4.317205377734442;52.03479803699399;101356
bus;Rijswijk, Volmerlaan;Veolia (incl. Connexxion);82454;450529;Rijswijk;82454;450529;4.329859814856221;52.03833709119464;101357
bus;Den Haag, Grote Markt;Veolia (incl. Connexxion);80978;454630;Den Haag;80978;454630;4.307462289417689;52.07499686032549;101358
bus;Rijswijk, Volmerlaan;Veolia (incl. Connexxion);82442;450463;Rijswijk;82442;450463;4.329698952877147;52.03774238599094;101359
bus;Wassenaar, Stoeplaan;Veolia (incl. Connexxion);85118;459305;Wassenaar;85118;459305;4.3668835356419775;52.1175483733206;101360
bus;Den Haag, Station Ypenburg;Veolia (incl. Connexxion);86544;452393;Den Haag;86544;452393;4.389088257361258;52.05560889197866;101361
bus;Wassenaar, Stoeplaan;Veolia (incl. Connexxion);85121;459403;Wassenaar;85121;459403;4.366907217154177;52.118429462856525;101362
bus;Den Haag, Station Ypenburg;Veolia (incl. Connexxion);86512;452348;Den Haag;86512;452348;4.388630776902744;52.055200524134996;101363
bus;Voorburg, Station L'dam/Voorburg;Veolia (incl. Connexxion);86107;454910;Leidschendam-Voorburg;86107;454910;4.382209683219189;52.07817493839034;101364
bus;Den Haag, Laan van Ypenburg;Veolia (incl. Connexxion);84639;451126;Den Haag;84639;451126;4.361577837107213;52.04398388200957;101365
bus;Den Haag, Erasmusplein;Veolia (incl. Connexxion);80348;451983;Den Haag;80348;451983;4.298852954575709;52.051124311890604;101366
bus;Wateringen, Gemeentehuis / Plein;Veolia (incl. Connexxion);78572;448849;Westland;78572;448849;4.273665792959715;52.02271765821108;101367
bus;Den Haag, Zusterstraat;Veolia (incl. Connexxion);80190;454485;Den Haag;80190;454485;4.2960017054107436;52.07358788641931;101368
bus;Den Haag, Loevesteinlaan;Veolia (incl. Connexxion);79732;451386;Den Haag;79732;451386;4.290005367978144;52.0456758660219;101369
bus;Rijswijk, Verrijn Stuartlaan;Veolia (incl. Connexxion);82763;450761;Rijswijk;82763;450761;4.334313670034331;52.04046239893358;101370
bus;Honselersdijk, Westlands Museum;Veolia (incl. Connexxion);76574;447312;Westland;76574;447312;4.244912959022986;52.00862608390397;101371
bus;Honselersdijk, Westlands Museum;Veolia (incl. Connexxion);76591;447314;Westland;76591;447314;4.245160062653353;52.00864646034161;101372
bus;Rijswijk, Treubstraat;Veolia (incl. Connexxion);82194;450657;Rijswijk;82194;450657;4.326043734533001;52.03945332995743;101373
bus;Rijswijk, Treubstraat;Veolia (incl. Connexxion);82205;450640;Rijswijk;82205;450640;4.326207654650732;52.03930199741837;101374
bus;Pijnacker, Rijskade;Veolia (incl. Connexxion);88873;448106;Pijnacker-Nootdorp;88873;448106;4.423870309777266;52.017363980052714;101375
bus;Leidschendam, MCH Antoniushove;Veolia (incl. Connexxion);86251;456404;Leidschendam-Voorburg;86251;456404;4.38400890075479;52.0916193229022;101376
bus;Leidschendam, MCH Antoniushove;Veolia (incl. Connexxion);86272;456464;Leidschendam-Voorburg;86272;456464;4.3843031971524935;52.092161146151334;101377
bus;Delft, Lindenhof/Kuyperweg;Veolia (incl. Connexxion);83234;447443;Delft;83234;447443;4.341873620682017;52.01070486362347;101378
bus;Delft, Lindenhof/Kuyperweg;Veolia (incl. Connexxion);83243;447435;Delft;83243;447435;4.342006368420377;52.010634131728985;101379
bus;Den Haag, Hoefkade;Veolia (incl. Connexxion);80819;453478;Den Haag;80819;453478;4.305393764762793;52.06462282329388;101380
bus;Leidschendam, Vlindertuin;Veolia (incl. Connexxion);88679;457663;Leidschendam-Voorburg;88679;457663;4.419188752062483;52.10323013822281;101381
bus;Den Haag, Hoefkade;Veolia (incl. Connexxion);80755;453433;Den Haag;80755;453433;4.304470374820446;52.06420984382705;101382
bus;Honselersdijk, Nieuweweg;Veolia (incl. Connexxion);74887;447373;Westland;74887;447373;4.2203319936076324;52.00893323080269;101383
bus;Honselersdijk, Nieuweweg;Veolia (incl. Connexxion);74889;447374;Westland;74889;447374;4.220360884564773;52.00894250625812;101384
bus;Den Haag, Schalk Burgerstraat;Veolia (incl. Connexxion);79981;452975;Den Haag;79981;452975;4.293285532765439;52.05998962099468;101385
bus;Den Haag, Brouwersgracht;Veolia (incl. Connexxion);80728;454475;Den Haag;80728;454475;4.303849962928399;52.07357043836486;101386
bus;Delft, van der Lelijstraat;Veolia (incl. Connexxion);82988;447332;Delft;82988;447332;4.338314350371081;52.00967543889283;101387
bus;Den Haag, Haagse Markt;Veolia (incl. Connexxion);80517;453248;Den Haag;80517;453248;4.301040519834593;52.062515340383335;101388
bus;Den Haag, Haagse Hogeschool/HS;Veolia (incl. Connexxion);82023;453923;Den Haag;82023;453923;4.322854078707557;52.06878188314033;101389
bus;Den Haag, Hobbemastraat;Veolia (incl. Connexxion);80566;454024;Den Haag;80566;454024;4.301585752799981;52.06949565881804;101390
bus;Den Haag, Leliekeverstraat;Veolia (incl. Connexxion);88361;453096;Den Haag;88361;453096;4.415439864378518;52.06214821761017;101391
bus;Den Haag, Leliekeverstraat;Veolia (incl. Connexxion);88362;453086;Den Haag;88362;453086;4.415456395917195;52.062058467378606;101392
bus;Den Haag, Buitentuinen;Veolia (incl. Connexxion);76712;452658;Den Haag;76712;452658;4.245698884142589;52.05668847089059;101393
bus;Den Haag, Buitentuinen;Veolia (incl. Connexxion);76742;452640;Den Haag;76742;452640;4.246140350771711;52.056530950122806;101394
bus;Rijswijk, 't Haantje;Veolia (incl. Connexxion);83539;448848;Rijswijk;83539;448848;4.346022150493414;52.023370931731755;101395
bus;Pijnacker, B.V. Mol;Veolia (incl. Connexxion);88379;447906;Pijnacker-Nootdorp;88379;447906;4.41671370598565;52.01550745456287;101396
bus;Den Haag, Zichtenburglaan;Veolia (incl. Connexxion);76969;451783;Den Haag;76969;451783;4.249645310252189;52.04886139629983;101397
bus;Den Haag, Guntersteinweg;Veolia (incl. Connexxion);80681;451516;Den Haag;80681;451516;4.303808491287336;52.04697223344347;101398
bus;Wassenaar, Nachtegaallaan;Veolia (incl. Connexxion);85260;460334;Wassenaar;85260;460334;4.368745686470738;52.12681375174825;101399
bus;Zichtenburglaan;HTM;76964;451789;Den Haag;76964;451789;4.249571062329647;52.04891461221486;101829
tram;Heliotrooplaan;HTM;75699;453341;Den Haag;75699;453341;4.230772734861981;52.06268223372143;101830
tram;Heliotrooplaan;HTM;75735;453346;Den Haag;75735;453346;4.231296453715468;52.06273232015757;101831
tram;Pisuissestraat;HTM;75496;452727;Den Haag;75496;452727;4.227955942122629;52.057135357151076;101832
tram;Pisuissestraat;HTM;75494;452759;Den Haag;75494;452759;4.227919336915601;52.05742264149931;101833
bus;Groen van Prinstererlaan;HTM;76833;453171;Den Haag;76833;453171;4.247345418865071;52.06131571282144;101834
bus;Groen van Prinstererlaan;HTM;76812;453169;Den Haag;76812;453169;4.247039705280417;52.06129477540847;101835
tram;Buitentuinen;HTM;76710;452641;Den Haag;76710;452641;4.245673624533222;52.05653541510068;101836
tram;Buitentuinen;HTM;76787;452673;Den Haag;76787;452673;4.246788805908097;52.056833865301144;101837
tram;Mozartlaan;HTM;75821;452906;Den Haag;75821;452906;4.232652355284315;52.05879051235166;101838
tram;Mozartlaan;HTM;75759;453124;Den Haag;75759;453124;4.2316978916462595;52.06074072789408;101839
tram;Arnold Spoelplein (spoor 1);HTM;75815;452459;Den Haag;75815;452459;4.2326685115928;52.05477263558107;101840
tram;Arnold Spoelplein (spoor 2);HTM;75830;452445;Den Haag;75830;452445;4.232890417564422;52.0546489667411;101841
bus;Arnold Spoelplein;HTM;75914;452418;Den Haag;75914;452418;4.234121168704572;52.05441832603845;101842
bus;Arnold Spoelplein;HTM;75900;452404;Den Haag;75900;452404;4.233920328136713;52.05429051445803;101843
bus;Louis Armstrongplein;HTM;76221;452491;Den Haag;76221;452491;4.238579572491263;52.055118092719646;101844
bus;Louis Armstrongplein;HTM;76209;452494;Den Haag;76209;452494;4.238403949855765;52.05514334600547;101845
bus;Buitentuinen;HTM;76710;452649;Den Haag;76710;452649;4.245671790863082;52.05660730833863;101846
bus;Buitentuinen;HTM;76739;452644;Den Haag;76739;452644;4.246095700176074;52.05656647291753;101847
bus;Binnentuinen;HTM;76872;452954;Den Haag;76872;452954;4.247963668281822;52.059371111291675;101848
bus;Binnentuinen;HTM;76861;452958;Den Haag;76861;452958;4.247802384458985;52.05940550625033;101849
bus;Pisuissestraat;HTM;75498;452767;Den Haag;75498;452767;4.2279757878227455;52.057495108456735;101850
bus;Pisuissestraat;HTM;75490;452730;Den Haag;75490;452730;4.227867774751836;52.05716145578407;101851
bus;Nootdorp;HTM;88285;451380;Pijnacker-Nootdorp;88285;451380;4.414666860049691;52.04671729037187;101852
bus;Westduin;HTM;75404;452859;Den Haag;75404;452859;4.226583989018918;52.05830837663802;101853
bus;Nootdorp;HTM;88267;451400;Pijnacker-Nootdorp;88267;451400;4.414400597140298;52.04689486529881;101854
bus;Leidschendam Voorburg;HTM;86030;454836;Leidschendam-Voorburg;86030;454836;4.381101551878173;52.07750032187141;101855
bus;Voorburg 't Loo;HTM;84937;455316;Leidschendam-Voorburg;84937;455316;4.365061259859226;52.08167685639063;101856
bus;Westduin;HTM;75370;452887;Den Haag;75370;452887;4.2260817902458765;52.05855511469405;101857
bus;Brasserskade;HTM;83901;448896;Delft;83901;448896;4.351285651281501;52.023848822784686;101858
bus;Brasserskade;HTM;83925;448907;Delft;83925;448907;4.351632992714448;52.02395075519469;101859
bus;Prinsenhof;HTM;83907;447684;Delft;83907;447684;4.351624817731029;52.01295736155999;101860
bus;Prinsenhof;HTM;83922;447681;Delft;83922;447681;4.351843904208811;52.01293232225027;101861
tram;Appelstraat;HTM;77149;454070;Den Haag;77149;454070;4.251747570038099;52.069439218482096;101862
tram;Appelstraat;HTM;77119;454055;Den Haag;77119;454055;4.251313524820965;52.06930020026729;101863
bus;Colijnplein;HTM;76876;453785;Den Haag;76876;453785;4.247831844536735;52.0668395783126;101864
bus;Colijnplein;HTM;76894;453724;Den Haag;76894;453724;4.248108266512813;52.06629393234879;101865
bus;Appelstraat;HTM;77128;453584;Den Haag;77128;453584;4.251552209956157;52.065068755212195;101866
bus;Appelstraat;HTM;77310;453480;Den Haag;77310;453480;4.254229590110954;52.06415970426851;101867
bus;Thorbeckelaan;HTM;77185;453480;Den Haag;77185;453480;4.252407021959259;52.06414215523598;101868
bus;Thorbeckelaan;HTM;77251;453571;Den Haag;77251;453571;4.2533486142786385;52.06496921029156;101869
bus;Perenstraat;HTM;77591;453809;Den Haag;77591;453809;4.258252129396939;52.0671556647638;101870
bus;Perenstraat;HTM;77637;453842;Den Haag;77637;453842;4.258915401706567;52.06745865289496;101871
bus;Laan van Eik en Duinen;HTM;77913;453997;Den Haag;77913;453997;4.2629049334917015;52.06889007534931;101872
bus;Laan van Eik en Duinen;HTM;77955;454021;Den Haag;77955;454021;4.263511965273027;52.069111600527265;101873
tram;Walnootstraat;HTM;77299;453026;Den Haag;77299;453026;4.254172514947428;52.06007821579682;101874
tram;Walnootstraat;HTM;77381;453087;Den Haag;77381;453087;4.255354146878498;52.06063790004562;101875
tram;Thorbeckelaan;HTM;77706;453329;Den Haag;77706;453329;4.260037680876639;52.06285812558696;101876
tram;Thorbeckelaan;HTM;77731;453341;Den Haag;77731;453341;4.260399468769816;52.06296945399544;101877
bus;Okkernootstraat;HTM;77502;453410;Den Haag;77502;453410;4.2570449470908995;52.06355753805348;101878
bus;Okkernootstraat;HTM;77562;453421;Den Haag;77562;453421;4.257917274412552;52.06366478397812;101879
bus;Anthony Fokkersingel;HTM;84307;450489;Den Haag;84307;450489;4.356870899300443;52.03821696207233;101880
bus;Anthony Fokkersingel;HTM;84329;450492;Den Haag;84329;450492;4.357190873107551;52.03824672726809;101881
bus;Pijlkruidveld;HTM;87394;453570;Den Haag;87394;453570;4.40124677695385;52.066290937104995;101882
bus;Lanen;HTM;86937;452932;Den Haag;86937;452932;4.394710092092986;52.060501285619715;101883
bus;Lanen;HTM;86967;452961;Den Haag;86967;452961;4.39514170977444;52.0607655922506;101884
bus;Station Leidschenveen;HTM;87382;453609;Den Haag;87382;453609;4.401064072600008;52.066639966207575;101885
bus;Weidevogellaan;HTM;86234;451940;Den Haag;86234;451940;4.384660200968479;52.05149941304839;101886
bus;Weidevogellaan;HTM;86253;451838;Den Haag;86253;451838;4.384957684427968;52.05058509628742;101887
bus;Scholekstersingel;HTM;85300;451416;Den Haag;85300;451416;4.371152344124411;52.04667359286075;101888
bus;Scholekstersingel;HTM;85287;451413;Den Haag;85287;451413;4.370963478017369;52.046644997449214;101889
bus;Gruttosingel;HTM;85724;451876;Den Haag;85724;451876;4.37723899329439;52.050860747115436;101890
bus;Gruttosingel;HTM;85706;451869;Den Haag;85706;451869;4.376978033708025;52.05079558856509;101891
bus;Nootdorp Centrum;HTM;86669;451345;Pijnacker-Nootdorp;86669;451345;4.3911201254313585;52.04620593092895;101892
bus;Nootdorp Centrum;HTM;86718;451311;Pijnacker-Nootdorp;86718;451311;4.391841101452506;52.04590640908984;101893
bus;Goudenregenstraat;HTM;78074;454613;Den Haag;78074;454613;4.265113807739523;52.074448255160185;101894
tram;Goudenregenstraat;HTM;78185;454671;Den Haag;78185;454671;4.2667195686068835;52.07498489257687;101895
tram;Goudenregenstraat;HTM;78244;454700;Den Haag;78244;454700;4.267573508278112;52.07525368831938;101896
tram;Fahrenheitstraat;HTM;78488;454834;Den Haag;78488;454834;4.2711020100606;52.07649167533532;101897
tram;Fahrenheitstraat;HTM;78451;454826;Den Haag;78451;454826;4.270564173724429;52.07641466746562;101898
tram;Fahrenheitstraat;HTM;78547;454836;Den Haag;78547;454836;4.271962055223486;52.07651779908583;101899
tram;Fahrenheitstraat;HTM;78575;454824;Den Haag;78575;454824;4.272373113193794;52.076413824721094;101900
bus;Kurhaus;HTM;79380;458848;Den Haag;79380;458848;4.2832210271270545;52.11268673877889;101901
tram;Valkenbosplein;HTM;78837;455039;Den Haag;78837;455039;4.276146287765491;52.078382066478454;101902
tram;Valkenbosplein;HTM;78866;455050;Den Haag;78866;455050;4.276566805701283;52.07848490887959;101903
bus;Valkenbosplein;HTM;78900;455111;Den Haag;78900;455111;4.27704909869853;52.07903777147165;101904
bus;Valkenbosplein;HTM;78853;454994;Den Haag;78853;454994;4.276389696128255;52.077979866511654;101905
tram;Copernicusplein;HTM;78753;454776;Den Haag;78753;454776;4.27497990196567;52.076007005971526;101906
tram;Copernicusplein;HTM;78790;454776;Den Haag;78790;454776;4.275519528056688;52.076012100190816;101907
bus;Copernicusplein;HTM;78762;454738;Den Haag;78762;454738;4.275119653140135;52.07566675123224;101908
bus;Copernicusplein;HTM;78792;454809;Den Haag;78792;454809;4.275541326240227;52.07630893616982;101909
bus;Kamperfoeliestraat;HTM;78372;454189;Den Haag;78372;454189;4.269555031288946;52.07067922406014;101910
tram;Kurhaus;HTM;79408;458891;Den Haag;79408;458891;4.283620183430675;52.11307699169192;101911
bus;Kamperfoeliestraat;HTM;78384;454186;Den Haag;78384;454186;4.269730697481327;52.07065392445838;101912
bus;Weimarstraat;HTM;78769;454405;Den Haag;78769;454405;4.275296135511339;52.07267514658589;101913
bus;Harstenhoekplein;HTM;79538;459005;Den Haag;79538;459005;4.285492480781283;52.114119220896775;101914
bus;Weimarstraat;HTM;78786;454433;Den Haag;78786;454433;4.275537800152401;52.072929114309574;101915
bus;Zwarte Pad;HTM;79721;459277;Den Haag;79721;459277;4.288103589324603;52.116588527016965;101916
tram;Kurhaus;HTM;79417;458947;Den Haag;79417;458947;4.28373912292769;52.113581473390525;101917
bus;Kurhausweg;HTM;79415;458774;Den Haag;79415;458774;4.283748329382843;52.11202651156673;101918
bus;Kurhaus;HTM;79335;458802;Den Haag;79335;458802;4.282574406258516;52.11226719926107;101919
bus;Madurodam;HTM;80511;457287;Den Haag;80511;457287;4.300071053603971;52.09881198217016;101920
bus;Madurodam;HTM;80524;457282;Den Haag;80524;457282;4.300261842503807;52.098768798369505;101921
tram;Zwarte Pad (uitstaphalte);HTM;79797;459193;Den Haag;79797;459193;4.289231575311612;52.115843988503585;101922
bus;Zwarte Pad;HTM;79772;459272;Den Haag;79772;459272;4.288849181240224;52.11655053354776;101923
bus;Zwarte Pad;HTM;79767;459287;Den Haag;79767;459287;4.288772877745576;52.11668465307656;101924
tram;Laan van Meerdervoort;HTM;79390;455270;Den Haag;79390;455270;4.28416075374199;52.08053379370867;101925
tram;Laan van Meerdervoort;HTM;79402;455251;Den Haag;79402;455251;4.284339996384102;52.08036468509645;101926
tram;Loosduinseweg;HTM;79888;454455;Den Haag;79888;454455;4.291604013944526;52.07327740159126;102121
tram;Loosduinseweg;HTM;79892;454429;Den Haag;79892;454429;4.291668070937705;52.073044289047054;102122
tram;Monstersestraat;HTM;79941;454420;Den Haag;79941;454420;4.292384645902211;52.072970052462225;102123
tram;Monstersestraat;HTM;79988;454433;Den Haag;79988;454433;4.29306721566898;52.07309324883582;102124
tram;Delftselaan;HTM;80177;453874;Den Haag;80177;453874;4.295946065865032;52.06809522695602;102125
bus;Vaillantplein;HTM;80451;454029;Den Haag;80451;454029;4.299907679784137;52.06952512535432;102126
bus;Vaillantplein;HTM;80468;454044;Den Haag;80468;454044;4.300152306037;52.06966221472113;102127
tram;Haagse Markt;HTM;80305;453747;Den Haag;80305;453747;4.297840350173687;52.06697118734149;102128
tram;Haagse Markt;HTM;80323;453763;Den Haag;80323;453763;4.298099319247824;52.06711740282197;102129
bus;Haagse Markt;HTM;80223;453737;Den Haag;80223;453737;4.296646847969565;52.06687025447767;102130
bus;Haagse Markt;HTM;80198;453690;Den Haag;80198;453690;4.296292607070322;52.06644450102504;102131
tram;Vaillantlaan;HTM;80660;453953;Den Haag;80660;453953;4.302971966942422;52.068870223435;102132
tram;Vaillantlaan;HTM;80628;453939;Den Haag;80628;453939;4.3025083853729855;52.068740112677666;102133
tram;Om en Bij;HTM;80958;454112;Den Haag;80958;454112;4.307282990596334;52.070339038908;102134
tram;Om en Bij;HTM;80929;454100;Den Haag;80929;454100;4.306862695236389;52.07022731985876;102135
tram;Hoefkade;HTM;80505;453340;Den Haag;80505;453340;4.300845485260677;52.06334050969711;102136
tram;Hoefkade;HTM;80533;453289;Den Haag;80533;453289;4.301264860693346;52.06288594910163;102137
tram;Wouwermanstraat;HTM;81020;453123;Den Haag;81020;453123;4.308401441347077;52.06145939454091;102138
tram;Wouwermanstraat;HTM;81081;453137;Den Haag;81081;453137;4.309287782134066;52.06159335250076;102139
tram;Wouwermanstraat;HTM;81031;453091;Den Haag;81031;453091;4.308568751437859;52.06117328585262;102140
tram;Wouwermanstraat;HTM;81084;453129;Den Haag;81084;453129;4.309333253578004;52.061521858449616;102141
bus;Jacob Catsstraat;HTM;81412;453572;Den Haag;81412;453572;4.314019980063939;52.0655466787722;102142
bus;Jacob Catsstraat;HTM;81464;453638;Den Haag;81464;453638;4.314763986549146;52.06614671337763;102143
tram;Jacob Catsstraat;HTM;81466;453626;Den Haag;81466;453626;4.314795734159164;52.06603913730273;102144
tram;Jacob Catsstraat;HTM;81460;453615;Den Haag;81460;453615;4.314710615493934;52.06593948594407;102145
tram;Haagse Markt;HTM;80301;453701;Den Haag;80301;453701;4.297792089431685;52.066557256980104;102146
tram;Haagse Markt;HTM;80332;453639;Den Haag;80332;453639;4.298257676502466;52.066004258113814;102147
tram;Delftselaan;HTM;80063;454054;Den Haag;80063;454054;4.29424420308179;52.06969742782545;102148
tram;Delftselaan;HTM;80054;453919;Den Haag;80054;453919;4.294142602639333;52.06848299914184;102149
tram;Monstersestraat;HTM;79978;454174;Den Haag;79978;454174;4.29297831445852;52.07076432852296;102150
bus;Weidevogellaan;HTM;86265;452137;Den Haag;86265;452137;4.385072449635463;52.053273695096614;102151
bus;Weidevogellaan;HTM;86271;452124;Den Haag;86271;452124;4.3851625295512955;52.05315760817128;102152
bus;Stalling Leidschendam Noord;HTM;87369;457350;Leidschendam-Voorburg;87369;457350;4.4001329050176;52.10025869130098;102153
tram;Loosduinseweg;HTM;79409;454220;Den Haag;79409;454220;4.28467050690976;52.071100341191546;102154
tram;Loosduinseweg;HTM;79444;454166;Den Haag;79444;454166;4.28519286347603;52.070619834596876;102155
tram;De la Reyweg;HTM;79454;454202;Den Haag;79454;454202;4.28533072257285;52.07094472093449;102156
tram;De la Reyweg;HTM;79520;454227;Den Haag;79520;454227;4.286287663168493;52.07117838887753;102157
tram;Paul Krugerplein;HTM;79753;453951;Den Haag;79753;453951;4.289746340598048;52.06872975933982;102158
tram;Paul Krugerplein;HTM;79733;453969;Den Haag;79733;453969;4.289450728196883;52.06888880278745;102159
tram;Paul Krugerplein;HTM;79740;453924;Den Haag;79740;453924;4.28956272557571;52.068485350961595;102160
tram;Paul Krugerplein;HTM;79785;453936;Den Haag;79785;453936;4.290216275205188;52.06859930525049;102161
bus;Schalk Burgerstraat;HTM;79926;453511;Den Haag;79926;453511;4.2923658210311535;52.06479907014879;102162
bus;Cremerweg;HTM;80117;458062;Den Haag;80117;458062;4.294151476679262;52.10572348438625;102163
bus;Schalk Burgerstraat;HTM;79976;453539;Den Haag;79976;453539;4.293088712753856;52.06505747414616;102164
bus;Cremerweg;HTM;80138;458045;Den Haag;80138;458045;4.294461691942669;52.10557355294297;102165
tram;Wagenaarweg;HTM;80320;457617;Den Haag;80320;457617;4.297211656683032;52.10175184731102;102166
tram;Wagenaarweg;HTM;80335;457596;Den Haag;80335;457596;4.297435153032102;52.10156515115018;102167
bus;Badhuisweg;HTM;80581;457726;Den Haag;80581;457726;4.3009966177933805;52.102766564385796;102168
bus;Badhuisweg;HTM;80604;457769;Den Haag;80604;457769;4.301322874677488;52.10315608561314;102169
bus;Maurits de Brauwweg;HTM;80976;458455;Den Haag;80976;458455;4.306602573584142;52.10937086343226;102170
bus;Maurits de Brauwweg;HTM;81101;458386;Den Haag;81101;458386;4.308441981535787;52.10876749248327;102171
tram;Kamperfoeliestraat;HTM;78446;453763;Den Haag;78446;453763;4.270729696140701;52.066861128632986;102172
tram;Kamperfoeliestraat;HTM;78469;453770;Den Haag;78469;453770;4.271063501077633;52.066927214408125;102173
tram;Valkenboslaan;HTM;78782;453929;Den Haag;78782;453929;4.275592017436865;52.06839926647262;102174
tram;Valkenboslaan;HTM;78885;453976;Den Haag;78885;453976;4.277083484384744;52.06883580837729;102175
tram;Fahrenheitstraat;HTM;79019;454031;Den Haag;79019;454031;4.279025251232687;52.06934847946082;102176
tram;Fahrenheitstraat;HTM;79104;454064;Den Haag;79104;454064;4.280257411664234;52.06965669692093;102177
tram;Tienhovenselaan;HTM;78894;453518;Den Haag;78894;453518;4.277316831774347;52.06472113193235;102178
bus;Plesmanweg;HTM;80598;457457;Den Haag;80598;457457;4.301303442382971;52.100351426806526;102179
tram;Tienhovenselaan;HTM;78864;453505;Den Haag;78864;453505;4.2768823063799815;52.064600181348226;102180
tram;Nunspeetlaan;HTM;79406;453720;Den Haag;79406;453720;4.284737491488484;52.06660656915999;102181
tram;Nunspeetlaan;HTM;79428;453734;Den Haag;79428;453734;4.285055184173607;52.06673538572499;102182
bus;Soestdijkseplein;HTM;79345;453228;Den Haag;79345;453228;4.283957047567674;52.062176768934386;102183
bus;Plesmanweg;HTM;80608;457495;Den Haag;80608;457495;4.301441071581258;52.100694266172894;102184
bus;Soestdijkseplein;HTM;79333;453210;Den Haag;79333;453210;4.283786076374592;52.06201336860737;102185
bus;De la Reyweg;HTM;79690;453374;Den Haag;79690;453374;4.2889549527098545;52.06353584765093;102186
bus;De la Reyweg;HTM;79690;453366;Den Haag;79690;453366;4.288956717299171;52.06346395371138;102187
bus;Barneveldstraat;HTM;79826;453155;Den Haag;79826;453155;4.290986113362206;52.061586224514755;102188
bus;Barneveldstraat;HTM;79826;453204;Den Haag;79826;453204;4.290975325714774;52.06202657523942;102189
tram;Dierenselaan;HTM;79221;453766;Den Haag;79221;453766;4.282029713317294;52.06699467668864;102190
tram;Dierenselaan;HTM;79209;453733;Den Haag;79209;453733;4.281862061203399;52.06669647283971;102191
bus;Volendamlaan;HTM;77697;453263;Den Haag;77697;453263;4.259921402044746;52.06226374898044;102192
bus;Volendamlaan;HTM;77760;453255;Den Haag;77760;453255;4.260841748592291;52.06220064479796;102193
tram;Nieuwendamlaan;HTM;77876;453433;Den Haag;77876;453433;4.262492814249454;52.06381643851616;102194
tram;Nieuwendamlaan;HTM;77890;453445;Den Haag;77890;453445;4.262694230536751;52.0639262280163;102195
tram;Laan van Eik en Duinen;HTM;78149;453606;Den Haag;78149;453606;4.266434342137086;52.06540908387317;102196
tram;Laan van Eik en Duinen;HTM;78160;453617;Den Haag;78160;453617;4.266592257262686;52.06550946373148;102197
bus;Escamplaan;HTM;77941;452954;Den Haag;77941;452954;4.263548640713664;52.059520862272095;102198
bus;Escamplaan;HTM;77949;452924;Den Haag;77949;452924;4.26367204170095;52.05925237426391;102199
tram;Monnickendamplein;HTM;78402;453219;Den Haag;78402;453219;4.270210160990558;52.06196628148569;102200
tram;Monnickendamplein;HTM;78441;453249;Den Haag;78441;453249;4.270772050347961;52.06224127465199;102201
tram;Leyenburg;HTM;78139;452621;Den Haag;78139;452621;4.266510237555333;52.05655579940796;102202
tram;Leyenburg;HTM;78098;452683;Den Haag;78098;452683;4.265898575720757;52.05710728492964;102203
bus;Leyenburg;HTM;78060;452720;Den Haag;78060;452720;4.265336265903029;52.05743451631103;102204
bus;Leyenburg;HTM;78135;452644;Den Haag;78135;452644;4.266446749212123;52.056761938657225;102205
bus;Zuiderpark;HTM;78994;452898;Den Haag;78994;452898;4.278912920217525;52.05916309543739;102206
bus;Zuiderpark;HTM;79025;452948;Den Haag;79025;452948;4.279353746446467;52.05961668493618;102207
bus;Monnickendamplein;HTM;78431;453226;Den Haag;78431;453226;4.270631408175218;52.06203319818077;102208
bus;Monnickendamplein;HTM;78332;453166;Den Haag;78332;453166;4.269201468933865;52.06148030138592;102209
bus;Volendamlaan;HTM;77774;453358;Den Haag;77774;453358;4.2610225714739025;52.06312822476069;102210
bus;Leyenburg;HTM;78138;452609;Den Haag;78138;452609;4.266498359775758;52.05644782017206;102211
bus;Leyenburg;HTM;78154;452615;Den Haag;78154;452615;4.2667302591742;52.056503960187285;102212
bus;Leyenburg;HTM;78110;452647;Den Haag;78110;452647;4.2660816193695394;52.05678542929584;102213
bus;Drapeniersgaarde;HTM;78245;450627;Den Haag;78245;450627;4.268503379052638;52.03865095884314;102214
bus;Drapeniersgaarde;HTM;78250;450613;Den Haag;78250;450613;4.2685793832520496;52.03852583680826;102215
tram;Beresteinlaan;HTM;76975;451084;Den Haag;76975;451084;4.249892339446707;52.04258054630028;102216
tram;Beresteinlaan;HTM;76943;451058;Den Haag;76943;451058;4.249431924257659;52.04234238597003;102217
tram;Bouwlustlaan;HTM;77331;451444;Den Haag;77331;451444;4.254998711211836;52.04586576825658;102218
tram;Bouwlustlaan;HTM;77358;451466;Den Haag;77358;451466;4.255387227575426;52.04606725953761;102219
tram;Weimarstraat;HTM;79091;454735;Den Haag;79091;454735;4.279918585942397;52.07568499574137;101927
tram;Weimarstraat;HTM;79101;454708;Den Haag;79101;454708;4.280070435877369;52.07544372570254;101928
tram;Weimarstraat;HTM;79548;455075;Den Haag;79548;455075;4.286508471917178;52.07880294136389;101929
tram;Weimarstraat;HTM;79566;455060;Den Haag;79566;455060;4.286774326540871;52.07867059345258;101930
tram;Cartesiusstraat;HTM;79188;454541;Den Haag;79188;454541;4.28137637557199;52.0739548647889;101931
tram;Cartesiusstraat;HTM;79213;454486;Den Haag;79213;454486;4.281753186283316;52.0734640178962;101932
tram;Zwarte Pad (instaphalte);HTM;79730;459286;Den Haag;79730;459286;4.288232979631085;52.116670631823176;101933
tram;Zwarte Pad (spoor 1);HTM;79802;459295;Den Haag;79802;459295;4.289282034454758;52.116761306443145;101934
tram;Zwarte Pad (spoor 2);HTM;79804;459300;Den Haag;79804;459300;4.289310125804914;52.11680651162287;101935
tram;Zwarte Pad (spoor 3);HTM;79809;459304;Den Haag;79809;459304;4.289382231691006;52.116843138042185;101936
tram;Zwarte Pad (spoor 4);HTM;79811;459309;Den Haag;79811;459309;4.2894103231936285;52.116888343197914;101937
tram;Zwarte Pad (spoor 5);HTM;79813;459313;Den Haag;79813;459313;4.289438635596115;52.11692456169968;101938
bus;Harstenhoekplein;HTM;79649;458784;Den Haag;79649;458784;4.287161648001376;52.11214830570072;101939
bus;Harstenhoekplein;HTM;79665;458784;Den Haag;79665;458784;4.287395189279403;52.1121504851789;101940
bus;Stevinstraat;HTM;79656;458544;Den Haag;79656;458544;4.2873169185511095;52.10999246221407;101941
bus;Stevinstraat;HTM;79707;458516;Den Haag;79707;458516;4.288067485511962;52.10974778012098;101942
bus;Goudenregenstraat;HTM;78800;454671;Den Haag;78800;454671;4.275688822300203;52.075069874272465;101943
bus;Goudenregenstraat;HTM;78234;454687;Den Haag;78234;454687;4.267430590938173;52.07513547521944;101944
tram;Waldeck Pyrmontkade;HTM;79689;455436;Den Haag;79689;455436;4.288485319282088;52.08206634235775;101945
tram;Waldeck Pyrmontkade;HTM;79659;455418;Den Haag;79659;455418;4.288051699934924;52.081900499615;101946
bus;Gentsestraat;HTM;79852;458609;Den Haag;79852;458609;4.2901633208976095;52.110603257941975;101947
tram;Van Speijkstraat;HTM;80043;455566;Den Haag;80043;455566;4.293620380518444;52.083282660720165;101948
tram;Van Speijkstraat;HTM;80058;455540;Den Haag;80058;455540;4.293844897256793;52.08305103680479;101949
tram;Elandstraat;HTM;79950;455021;Den Haag;79950;455021;4.2923837048925595;52.07837229708096;101950
tram;Elandstraat;HTM;79972;454989;Den Haag;79972;454989;4.292711619398277;52.078087703564336;101951
tram;Elandstraat;HTM;80273;455251;Den Haag;80273;455251;4.297044386222469;52.0804829354622;101952
tram;Elandstraat;HTM;80304;455246;Den Haag;80304;455246;4.297497647933112;52.08044218522372;101953
bus;Gentsestraat;HTM;79906;458610;Den Haag;79906;458610;4.2909512757016826;52.110619578337605;101954
bus;Prins Hendrikstraat;HTM;79789;455229;Den Haag;79789;455229;4.289989612232774;52.080219687083;101955
bus;Duinkerksestraat;HTM;80246;458682;Den Haag;80246;458682;4.295898064842433;52.111312673444026;101956
bus;Duinkerksestraat;HTM;80280;458679;Den Haag;80280;458679;4.29639499018942;52.1112903074352;101957
bus;Doorniksestraat;HTM;80307;458548;Den Haag;80307;458548;4.296817814947454;52.110116698975354;101958
bus;Doorniksestraat;HTM;80394;458429;Den Haag;80394;458429;4.298113708236543;52.10905902451534;101959
bus;Pompstationsweg;HTM;80572;458220;Den Haag;80572;458220;4.300757352372987;52.107204783295636;101960
bus;Pompstationsweg;HTM;80597;458180;Den Haag;80597;458180;4.301130958351837;52.10684867815084;101961
bus;Grote Kerk;HTM;80915;454869;Den Haag;80915;454869;4.306491586738979;52.07713627173134;101962
bus;Grote Kerk;HTM;80899;454868;Den Haag;80899;454868;4.306258444575595;52.0771251440495;101963
bus;CS/Schedeldoekshaven;HTM;82032;455051;Den Haag;82032;455051;4.322744122428751;52.07892018639932;101964
bus;Kurhausweg;HTM;79433;458776;Den Haag;79433;458776;4.28401061855391;52.11204694433451;101965
tram;Javastraat;HTM;80758;455976;Den Haag;80758;455976;4.3039608009680235;52.08706357398519;101966
tram;Javastraat;HTM;80725;456037;Den Haag;80725;456037;4.303466103737606;52.0876073380993;101967
bus;Javastraat;HTM;80820;456103;Den Haag;80820;456103;4.304837641014572;52.088213201500544;101968
tram;Mauritskade;HTM;80897;455757;Den Haag;80897;455757;4.30603614857057;52.08511410112518;101969
tram;Mauritskade;HTM;80918;455716;Den Haag;80918;455716;4.30635139347131;52.08474845498265;101970
tram;Dr. Kuyperstraat;HTM;81433;456037;Den Haag;81433;456037;4.313794693046179;52.08770188267177;101971
tram;Dr. Kuyperstraat;HTM;81469;455954;Den Haag;81469;455954;4.314337774551547;52.08696076452985;101972
bus;Mauritskade;HTM;80963;455647;Den Haag;80963;455647;4.307022807341087;52.084134389048884;101973
bus;Escamplaan;HTM;78084;453039;Den Haag;78084;453039;4.265614304350112;52.06030460715055;101974
bus;Leyweg;HTM;78663;451919;Den Haag;78663;451919;4.274306050253687;52.0503195714953;101975
bus;Jonckbloetplein;HTM;81892;452777;Den Haag;81892;452777;4.321189184267693;52.058465713747815;101976
bus;Malieveld;HTM;81616;455723;Den Haag;81616;455723;4.316531948331111;52.08490432677772;101977
bus;Malieveld;HTM;81635;455719;Den Haag;81635;455719;4.316809971985899;52.08487089793143;101978
bus;Boslaan;HTM;81977;456094;Den Haag;81977;456094;4.321718610669291;52.08828615659981;101979
bus;Boslaan;HTM;81958;455989;Den Haag;81958;455989;4.321463917658721;52.08734003822688;101980
bus;Overbosch;HTM;83732;456332;Den Haag;83732;456332;4.347272101845684;52.09065372967564;101981
bus;Overbosch;HTM;83775;456387;Den Haag;83775;456387;4.347887962136192;52.09115353979181;101982
bus;Reigersbergenweg;HTM;84088;456552;Den Haag;84088;456552;4.352420221620898;52.0926765514598;101983
bus;Reigersbergenweg;HTM;83961;456492;Den Haag;83961;456492;4.350579768394539;52.092121057715154;101984
bus;Barnsteenhorst;HTM;84347;456732;Den Haag;84347;456732;4.356161784262898;52.094327302734506;101985
bus;Barnsteenhorst;HTM;84333;456738;Den Haag;84333;456738;4.355956269914266;52.0943794367883;101986
bus;Saffierhorst;HTM;84623;456969;Den Haag;84623;456969;4.360139908808419;52.096492348619314;101987
bus;Saffierhorst;HTM;84662;456973;Den Haag;84662;456973;4.360708151437279;52.09653325318238;101988
tram;Carel Reinierszkade;HTM;83799;455928;Den Haag;83799;455928;4.348333956385899;52.08703166514679;101989
tram;Carel Reinierszkade;HTM;83772;455912;Den Haag;83772;455912;4.347943413003509;52.08688440281825;101990
tram;Reigersbergenweg;HTM;84151;456197;Den Haag;84151;456197;4.353413170606791;52.0894942844781;101991
tram;Reigersbergenweg;HTM;84120;456177;Den Haag;84120;456177;4.352965063800238;52.08931057938262;101992
tram;Vlamenburg;HTM;84495;456465;Den Haag;84495;456465;4.358376433479428;52.091946680288444;101993
tram;Vlamenburg;HTM;84468;456447;Den Haag;84468;456447;4.357986227472457;52.09178147734764;101994
tram;Hofzichtlaan;HTM;84783;456680;Den Haag;84783;456680;4.362534074629758;52.093915461835756;101995
tram;Hofzichtlaan;HTM;84808;456691;Den Haag;84808;456691;4.362896576133964;52.094017487909255;101996
bus;Het Kleine Loo;HTM;84821;456731;Den Haag;84821;456731;4.36307802093692;52.09437861111441;101997
bus;Het Kleine Loo;HTM;84800;456817;Den Haag;84800;456817;4.362753904915085;52.09514881960665;101998
bus;Margarethaland;HTM;84956;456470;Den Haag;84956;456470;4.365101401344408;52.09205013291956;101999
bus;Margarethaland;HTM;84998;456451;Den Haag;84998;456451;4.365718084292637;52.09188469434484;102000
tram;Margarethaland;HTM;84989;456441;Den Haag;84989;456441;4.365588827657484;52.09179368742795;102001
tram;Margarethaland;HTM;85002;456417;Den Haag;85002;456417;4.365783424248213;52.09157964598294;102002
bus;Station Mariahoeve;HTM;85159;456341;Den Haag;85159;456341;4.36808960592369;52.09091647017416;102003
bus;Station Mariahoeve;HTM;85213;456361;Den Haag;85213;456361;4.3688733559139825;52.09110301745905;102004
tram;Aegonplein keerlus;HTM;85215;456352;Den Haag;85215;456352;4.368904377346139;52.0910223875043;102005
bus;Reigersbergenweg;HTM;84155;456192;Den Haag;84155;456192;4.353472566082737;52.0894498620589;102006
tram;Aegonplein;HTM;85100;456278;Den Haag;85100;456278;4.36724172906628;52.09034285011723;102007
tram;Aegonplein;HTM;85087;456302;Den Haag;85087;456302;4.367047144917015;52.090556894064704;102008
tram;Centraal Station;HTM;82053;455282;Den Haag;82053;455282;4.323001024332341;52.08099890317243;102009
tram;Centraal Station;HTM;82048;455279;Den Haag;82048;455279;4.322928734535248;52.08097128407583;102010
tram;Centraal Station;HTM;82078;455231;Den Haag;82078;455231;4.323376583492966;52.08054386943309;102011
tram;Centraal Station;HTM;82074;455227;Den Haag;82074;455227;4.323319094094023;52.08050739546865;102012
tram;Centraal Station (perron A);HTM;82106;455287;Den Haag;82106;455287;4.3237730286269915;52.0810508167233;102013
tram;Centraal Station (perron B);HTM;82111;455276;Den Haag;82111;455276;4.323848310531146;52.08095262014167;102014
tram;Centraal Station (perron C);HTM;82162;455310;Den Haag;82162;455310;4.324584950208784;52.08126488223139;102015
tram;Centraal Station (perron D);HTM;82170;455301;Den Haag;82170;455301;4.3247035626985735;52.08118505331739;102016
bus;Centraal Station Uitstaphalte;HTM;82157;455240;Den Haag;82157;455240;4.324526966123722;52.0806351485677;102017
bus;Centraal Station;HTM;82167;455242;Den Haag;82167;455242;4.324672400741398;52.080654437561776;102018
bus;Centraal Station;HTM;82171;455237;Den Haag;82171;455237;4.324731812893914;52.08061002966928;102019
bus;Centraal Station;HTM;82175;455232;Den Haag;82175;455232;4.324791224928139;52.08056562174613;102020
bus;Centraal Station;HTM;82179;455228;Den Haag;82179;455228;4.324850423373966;52.080530200592754;102021
bus;Centraal Station;HTM;82182;455223;Den Haag;82182;455223;4.324895249068608;52.0804856611067;102022
bus;Centraal Station;HTM;82186;455219;Den Haag;82186;455219;4.324954447325801;52.08045023990001;102023
bus;Prins Clauslaan;HTM;82511;455475;Den Haag;82511;455475;4.329640534385671;52.08279350404012;102024
bus;Prins Clauslaan;HTM;82595;455542;Den Haag;82595;455542;4.3308516107254675;52.08340661110731;102025
bus;Koningin Marialaan;HTM;82745;455657;Den Haag;82745;455657;4.333015313453634;52.08445968980446;102026
bus;Koningin Marialaan;HTM;82767;455661;Den Haag;82767;455661;4.333335390112498;52.0844985076596;102027
bus;Laan van Nieuw Oost Indi;HTM;82969;455814;Den Haag;82969;455814;4.336249744930601;52.08589980778998;102028
bus;Laan van Nieuw Oost Indi;HTM;82950;455788;Den Haag;82950;455788;4.335978067172619;52.08566367819867;102029
bus;Theresiastraat;HTM;83006;455885;Den Haag;83006;455885;4.3367745099478245;52.08654268465296;102030
bus;Theresiastraat;HTM;83048;455815;Den Haag;83048;455815;4.337401980532264;52.085919067063365;102031
bus;Spaarwaterstraat;HTM;83196;455967;Den Haag;83196;455967;4.339528992656198;52.08730427898927;102032
bus;Spaarwaterstraat;HTM;83267;456030;Den Haag;83267;456030;4.340551516804349;52.087879652509315;102033
bus;De Eerensplein;HTM;83514;456182;Den Haag;83514;456182;4.344123036253491;52.08927759804466;102034
bus;De Eerensplein;HTM;83532;456173;Den Haag;83532;456173;4.344387525682581;52.08919904041397;102035
bus;Juliana van Stolberglaan (West);HTM;82739;455322;Den Haag;82739;455322;4.332998759278323;52.08144832314503;102036
bus;Juliana van Stolberglaan (West);HTM;82664;455371;Den Haag;82664;455371;4.331894384147418;52.08187888452377;102037
tram;Ternoot;HTM;82709;455384;Den Haag;82709;455384;4.3325480260371;52.08200159000896;102038
tram;Ternoot;HTM;82769;455413;Den Haag;82769;455413;4.333417083695107;52.08227003791571;102039
tram;Oostinje;HTM;83098;455578;Den Haag;83098;455578;4.338181341576885;52.083795684878176;102040
tram;Oostinje;HTM;83166;455598;Den Haag;83166;455598;4.3391690624510675;52.083984247865295;102041
bus;Juliana van Stolberglaan;HTM;83172;455645;Den Haag;83172;455645;4.33924668840816;52.084407407288204;102042
bus;Juliana van Stolberglaan;HTM;83178;455629;Den Haag;83178;455629;4.339337582364465;52.084264396350406;102043
tram;Stuyvesantplein;HTM;83426;455665;Den Haag;83426;455665;4.342947706509374;52.08462003474391;102044
tram;Stuyvesantplein;HTM;83408;455639;Den Haag;83408;455639;4.342690588445746;52.08438404995262;102045
bus;Prinses Marijkestraat;HTM;82889;455095;Den Haag;82889;455095;4.335234713731292;52.079427868420474;102046
bus;Prinses Marijkestraat;HTM;82823;455220;Den Haag;82823;455220;4.334245603909147;52.08054262289311;102047
tram;Stuyvesantstraat;HTM;83383;455335;Den Haag;83383;455335;4.342389730283466;52.08164881774035;102048
tram;Stuyvesantstraat;HTM;83373;455355;Den Haag;83373;455355;4.342239665175618;52.08182726121623;102049
tram;Station Laan van NOI;HTM;83577;455054;Den Haag;83577;455054;4.345278355289447;52.079148567938894;102050
tram;Station Laan van NOI;HTM;83562;455085;Den Haag;83562;455085;4.3450530777968535;52.07942522566599;102051
tram;Beatrixkwartier;HTM;82883;455130;Den Haag;82883;455130;4.335139800138811;52.079741626001;102052
tram;Beatrixkwartier;HTM;82850;455194;Den Haag;82850;455194;4.334644929487743;52.08031248411568;102053
bus;Stuyvesantplein;HTM;83426;455631;Den Haag;83426;455631;4.342954841421698;52.0843144822064;102054
metro;Laan van NOI;RET;83404;455038;Den Haag;83404;455038;4.3427583794331825;52.078982440304344;102055
metro;Laan van NOI;RET;83356;455009;Den Haag;83356;455009;4.342064356396217;52.07871561439382;102056
tram;Station Laan van NOI;HTM;83490;455125;Den Haag;83490;455125;4.343994513108004;52.079775407383046;102057
tram;Rijswijkseplein/Station HS;HTM;82149;454229;Den Haag;82149;454229;4.324626134260444;52.07154843460111;102058
tram;Rijswijkseplein/Station HS;HTM;82132;454267;Den Haag;82132;454267;4.324370106596542;52.07188769732461;102059
tram;Rijswijkseplein;HTM;82141;454413;Den Haag;82141;454413;4.3244701865395685;52.07320095604486;102060
tram;Rijswijkseplein;HTM;82175;454407;Den Haag;82175;454407;4.324967313963465;52.07315150675131;102061
tram;Weteringplein;HTM;82396;454613;Den Haag;82396;454613;4.328146489608452;52.075031805836694;102062
bus;Westenburgstraat;HTM;84146;453717;Leidschendam-Voorburg;84146;453717;4.3538552448829035;52.06720619409013;102063
tram;Weteringplein;HTM;82402;454658;Den Haag;82402;454658;4.32822442161375;52.075436999105165;102064
bus;Weteringkade;HTM;82511;454598;Den Haag;82511;454598;4.329826876590294;52.07491206747268;102065
bus;Weteringkade;HTM;82515;454528;Den Haag;82515;454528;4.3299000831391545;52.074283513515624;102066
tram;Rijswijkseplein;HTM;82068;454330;Den Haag;82068;454330;4.323423312030007;52.07244544296279;102067
tram;Rijswijkseplein;HTM;82067;454326;Den Haag;82067;454326;4.323409583376424;52.072409364041036;102068
bus;Station Hollands Spoor;HTM;81935;454126;Den Haag;81935;454126;4.321527382794072;52.070594605203574;102069
tram;Station Hollands Spoor (perron B);HTM;81881;454039;Den Haag;81881;454039;4.320758545677225;52.069805627170844;102070
tram;Station Hollands Spoor (perron D);HTM;82065;454152;Den Haag;82065;454152;4.323417601038727;52.07084539537381;102071
bus;Station Hollands Spoor;HTM;81945;454134;Den Haag;81945;454134;4.321671499163095;52.0706678186861;102072
bus;Station Hollands Spoor;HTM;81936;454108;Den Haag;81936;454108;4.3215458189385645;52.070432974547074;102073
tram;Station Hollands Spoor (perron A);HTM;81883;454036;Den Haag;81883;454036;4.320788353556729;52.069778930750594;102074
tram;Station Hollands Spoor (perron C);HTM;82062;454156;Den Haag;82062;454156;4.323372997333323;52.0708809475901;102075
bus;Bierkade;HTM;81916;454603;Den Haag;81916;454603;4.321148156619967;52.07487880442159;102076
bus;Bierkade;HTM;81911;454592;Den Haag;81911;454592;4.321077591409731;52.074779289801754;102077
bus;Station Hollands Spoor;HTM;81878;454035;Den Haag;81878;454035;4.320715654770924;52.06976928391721;102078
tram;Noordwal;HTM;80644;455183;Den Haag;80644;455183;4.302470628989764;52.079921786835094;102079
tram;Noordwal;HTM;80670;455143;Den Haag;80670;455143;4.3028585768429215;52.0795658079095;102080
tram;Kneuterdijk;HTM;81094;455297;Den Haag;81094;455297;4.309009574832444;52.08100652692719;102081
tram;Kneuterdijk;HTM;81140;455224;Den Haag;81140;455224;4.3096963477693375;52.080356631572705;102082
tram;Buitenhof;HTM;81187;455218;Den Haag;81187;455218;4.310383189291753;52.080308978743474;102083
tram;Buitenhof;HTM;81210;455231;Den Haag;81210;455231;4.310715855509664;52.08042887245362;102084
tram;Malieveld;HTM;81663;455598;Den Haag;81663;455598;4.317244441051201;52.08378720791851;102085
tram;Malieveld;HTM;81673;455574;Den Haag;81673;455574;4.317395472569432;52.083572849841566;102086
tram;Korte Voorhout;HTM;81606;455488;Den Haag;81606;455488;4.3164366424620315;52.08279110899035;102087
tram;Korte Voorhout;HTM;81670;455522;Den Haag;81670;455522;4.31736289103934;52.08310514003193;102088
bus;Grote Kerk;HTM;80944;454927;Den Haag;80944;454927;4.306901961142443;52.07766138314897;102089
tram;Gravenstraat;HTM;81119;454982;Den Haag;81119;454982;4.309442450623061;52.0781790326699;102090
tram;Gravenstraat;HTM;81084;454957;Den Haag;81084;454957;4.308937381175767;52.07794969242092;102091
tram;HMC Westeinde;HTM;80404;454450;Den Haag;80404;454450;4.29913028583286;52.073302220352254;102092
bus;Brouwersgracht;HTM;80681;454467;Den Haag;80681;454467;4.303166267342397;52.07349223877389;102093
tram;HMC Westeinde;HTM;80439;454375;Den Haag;80439;454375;4.299657101558845;52.072632927697455;102094
tram;Brouwersgracht;HTM;80785;454512;Den Haag;80785;454512;4.304673192138991;52.07391059039837;102095
tram;Brouwersgracht;HTM;80717;454479;Den Haag;80717;454479;4.3036886705720745;52.073604910016535;102096
tram;Brouwersgracht;HTM;80864;454414;Den Haag;80864;454414;4.305846610698671;52.07304046875964;102097
tram;Brouwersgracht;HTM;80827;454490;Den Haag;80827;454490;4.3052904979299935;52.073718508608344;102098
bus;Grote Markt;HTM;80971;454626;Den Haag;80971;454626;4.307361067374674;52.07495997751875;102099
bus;Centrum;HTM;81460;454946;Den Haag;81460;454946;4.314423807840873;52.077900902841094;102100
bus;Centrum;HTM;81437;454975;Den Haag;81437;454975;4.314082094331805;52.07815846425182;102101
tram;Centrum;HTM;81460;454946;Den Haag;81460;454946;4.314423807840873;52.077900902841094;102102
tram;Centrum;HTM;81437;454975;Den Haag;81437;454975;4.314082094331805;52.07815846425182;102103
tram;Bierkade;HTM;81805;454642;Den Haag;81805;454642;4.319520937384771;52.07521463043503;102104
tram;Bierkade;HTM;81736;454706;Den Haag;81736;454706;4.3185008733750045;52.07578066051684;102105
bus;Nieuwe Haven;HTM;81720;454767;Den Haag;81720;454767;4.318254419486624;52.07632673762853;102106
bus;Nieuwe Haven;HTM;81857;454854;Den Haag;81857;454854;4.320233879137641;52.07712670129236;102107
tram;Kalvermarkt-Stadhuis;HTM;81626;454972;Den Haag;81626;454972;4.3168393674639916;52.07815658109971;102108
tram;Kalvermarkt-Stadhuis;HTM;81573;454950;Den Haag;81573;454950;4.31607107980371;52.07795184616668;102109
bus;Buitenhof;HTM;81280;455038;Den Haag;81280;455038;4.311778586373995;52.078703750506556;102110
bus;Buitenhof;HTM;81279;455063;Den Haag;81279;455063;4.311758598556725;52.078928286645734;102111
bus;CS/Schedeldoekshaven;HTM;82074;455081;Den Haag;82074;455081;4.323350304659815;52.07919532300596;102112
bus;CS/Schedeldoekshaven;HTM;82123;455106;Den Haag;82123;455106;4.324059662947628;52.07942644378593;102113
bus;Kneuterdijk;HTM;81129;455340;Den Haag;81129;455340;4.309510780998052;52.08139762857134;102114
bus;Kneuterdijk;HTM;81093;455337;Den Haag;81093;455337;4.308986321988993;52.0813658638897;102115
bus;Brouwersgracht;HTM;80732;454474;Den Haag;80732;454474;4.303908515708602;52.07356198805613;102116
tram;Spui;HTM;81457;454883;Den Haag;81457;454883;4.314393632232661;52.077334337311214;102117
tram;Spui;HTM;81426;454868;Den Haag;81426;454868;4.313944730219028;52.07719541750077;102118
tram;Grote Markt;HTM;81100;454681;Den Haag;81100;454681;4.309230525101366;52.075471480048236;102119
tram;Grote Markt;HTM;81057;454665;Den Haag;81057;454665;4.308606862105069;52.075321951620374;102120
bus;Den Haag, Station Moerwijk;Veolia (incl. Connexxion);81009;452426;Den Haag;81009;452426;4.308392064942446;52.0551941241748;101468
bus;Leidschendam, Koningin Julianaplein;Veolia (incl. Connexxion);87277;455937;Leidschendam-Voorburg;87277;455937;4.399070999358935;52.08754885809595;101469
bus;Den Haag, Eendenplein;Veolia (incl. Connexxion);88053;453465;Den Haag;88053;453465;4.410876755145697;52.06542731136663;101470
bus;Den Haag, Eendenplein;Veolia (incl. Connexxion);88019;453497;Den Haag;88019;453497;4.410374707291027;52.065710787555915;101471
bus;Den Haag, Lozerlaan;Veolia (incl. Connexxion);76365;451161;Den Haag;76365;451161;4.240984805850894;52.04318629953845;101472
bus;Den Haag, Lozerlaan;Veolia (incl. Connexxion);76438;451245;Den Haag;76438;451245;4.242029377614193;52.04395153359;101473
bus;Den Haag, Lozerlaan;Veolia (incl. Connexxion);76477;451248;Den Haag;76477;451248;4.24259707147216;52.04398402123654;101474
bus;Monster, Plaats Langeveld;Veolia (incl. Connexxion);73491;451160;Westland;73491;451160;4.19910071112265;52.04276205843255;101475
bus;Den Haag, Vrederustlaan;Veolia (incl. Connexxion);78081;450053;Den Haag;78081;450053;4.26624263730172;52.03346982931593;101476
bus;Monster, Plaats Langeveld;Veolia (incl. Connexxion);73461;451138;Westland;73461;451138;4.198668757241885;52.042559941235986;101477
bus;Delft, van der Lelijstraat;Veolia (incl. Connexxion);82990;447340;Delft;82990;447340;4.338341794377887;52.00974759420808;101478
bus;Den Haag, Waterweegbree;Veolia (incl. Connexxion);86095;449814;Den Haag;86095;449814;4.383062597368404;52.03237577570265;101479
bus;Den Haag, Laan van Hoornwijck;Veolia (incl. Connexxion);84852;451040;Den Haag;84852;451040;4.364699822305653;52.043237992140725;101480
bus;Den Haag, Laan van Hoornwijck;Veolia (incl. Connexxion);84867;451030;Den Haag;84867;451030;4.36492048573158;52.04315001999799;101481
bus;Voorburg, Sijtwendetunnel;Veolia (incl. Connexxion);86395;455087;Leidschendam-Voorburg;86395;455087;4.386374742717724;52.0798013761506;101482
bus;Den Haag, Brouwersgracht;Veolia (incl. Connexxion);80681;454467;Den Haag;80681;454467;4.303166267342397;52.07349223877389;101483
bus;Poeldijk, Dr. Weitjenslaan;Veolia (incl. Connexxion);74651;449305;Westland;74651;449305;4.216441744332083;52.02626128802263;101484
bus;Poeldijk, Dr. Weitjenslaan;Veolia (incl. Connexxion);74699;449371;Westland;74699;449371;4.217125521383017;52.02686135881604;101485
bus;Rijswijk, TNO / Lange Kleiweg;Veolia (incl. Connexxion);83160;449271;Rijswijk;83160;449271;4.340412217863717;52.02712345778483;101486
bus;Den Haag, Laan van Ypenburg;Veolia (incl. Connexxion);84552;451239;Den Haag;84552;451239;4.360286578254189;52.044988360499275;101487
bus;Delft, Wateringsevest;Veolia (incl. Connexxion);83847;447947;Delft;83847;447947;4.3506962984551665;52.015313249885594;101488
bus;Kwintsheul, RK Kerk;Veolia (incl. Connexxion);77231;447989;Westland;77231;447989;4.254326747219774;52.01480260585186;101489
bus;Kwintsheul, RK Kerk;Veolia (incl. Connexxion);77221;447984;Westland;77221;447984;4.254182238258902;52.01475626989608;101490
bus;Voorburg, Rembrandtlaan;Veolia (incl. Connexxion);85454;454611;Leidschendam-Voorburg;85454;454611;4.3727462660047225;52.0754062407641;101491
bus;Den Haag, De La Reyweg;Veolia (incl. Connexxion);79461;454181;Den Haag;79461;454181;4.285437450548255;52.070756954628955;101492
bus;Den Haag, Haagse Poort;Veolia (incl. Connexxion);83048;454894;Den Haag;83048;454894;4.337596248868237;52.07764219711779;101493
bus;Den Haag, Haagse Poort;Veolia (incl. Connexxion);83068;454889;Den Haag;83068;454889;4.3378890077237715;52.077599861121016;101494
bus;Den Haag, Paul Steenbergenlaan;Veolia (incl. Connexxion);80490;448373;Den Haag;80490;448373;4.3017093719641;52.01870094127314;101495
bus;Delft, Burgwal;Veolia (incl. Connexxion);84615;447610;Delft;84615;447610;4.3619515356307295;52.01238258255131;101496
bus;Den Haag, Paul Steenbergenlaan;Veolia (incl. Connexxion);80515;448325;Den Haag;80515;448325;4.302083965585475;52.01827292916182;101497
bus;Delft, De Bieslandhof;Veolia (incl. Connexxion);84833;448048;Delft;84833;448048;4.365036723672443;52.016346506347276;101498
bus;Delft, De Bieslandhof;Veolia (incl. Connexxion);84897;447943;Delft;84897;447943;4.365990412938853;52.01541095898143;101499
bus;Rijswijk, Polakweg;Veolia (incl. Connexxion);82472;450038;Rijswijk;82472;450038;4.3302262648997285;52.033926876469934;101500
bus;Rijswijk, De Bruyn Kopsstraat;Veolia (incl. Connexxion);82893;450926;Rijswijk;82893;450926;4.336173369792151;52.04196216172931;101501
trein;Den Haag HS;NS;82010;454090;Den Haag;82010;454090;4.322628797239813;52.07028096813321;101502
trein;Den Haag HS;NS;82010;454090;Den Haag;82010;454090;4.322628797239813;52.07028096813321;101503
trein;Den Haag Laan v NOI;NS;83450;455080;Den Haag;83450;455080;4.343420512824456;52.07936583278157;101504
trein;Den Haag HS;NS;82010;454090;Den Haag;82010;454090;4.322628797239813;52.07028096813321;101505
bus;Den Haag, Lage Veld;Veolia (incl. Connexxion);79935;448822;Den Haag;79935;448822;4.293526814536042;52.02266119671423;101506
bus;Voorburg, Stat. Voorburg (Perron G);Veolia (incl. Connexxion);84433;453700;Leidschendam-Voorburg;84433;453700;4.358043763104108;52.0670900468782;101507
bus;Voorburg, Stat. Voorburg (Perron F);Veolia (incl. Connexxion);84442;453708;Leidschendam-Voorburg;84442;453708;4.358173346385834;52.067163088376745;101508
bus;Voorburg, Rozenboomlaan;Veolia (incl. Connexxion);84972;454102;Leidschendam-Voorburg;84972;454102;4.365820927728765;52.07077117583563;101509
bus;Pijnacker, Raadhuisplein;Veolia (incl. Connexxion);89403;448317;Pijnacker-Nootdorp;89403;448317;4.431549794584494;52.01932318841293;101510
bus;Delft, Kinderboerderij;Veolia (incl. Connexxion);85595;448030;Delft;85595;448030;4.37613921383061;52.01628057925594;101511
bus;Voorburg, Heer Hubrechtstraat;Veolia (incl. Connexxion);84252;454000;Leidschendam-Voorburg;84252;454000;4.355342271827381;52.069763031509126;101512
bus;Den Haag, Rotonde Houtkade;Veolia (incl. Connexxion);88439;452753;Den Haag;88439;452753;4.416643985778447;52.05907503348432;101513
bus;Delft, Camping;Veolia (incl. Connexxion);85831;448189;Delft;85831;448189;4.379544513924217;52.01773898944789;101514
bus;Poeldijk, Paul Captijnlaan;Veolia (incl. Connexxion);75293;449994;Westland;75293;449994;4.225633927320492;52.03254574859987;101515
bus;Poeldijk, Paul Captijnlaan;Veolia (incl. Connexxion);75207;449896;Westland;75207;449896;4.2244037570664865;52.03165268587481;101516
bus;Delft, Hugo van Rijkenlaan;Veolia (incl. Connexxion);85025;447717;Delft;85025;447717;4.367900942775602;52.013396048169376;101517
bus;Delft, Hugo van Rijkenlaan;Veolia (incl. Connexxion);85028;447695;Delft;85028;447695;4.367949132941741;52.01319871187099;101518
bus;Den Haag, Den Haag CS;Veolia (incl. Connexxion);82093;455275;Den Haag;82093;455275;4.323585971527646;52.08094126366168;101519
bus;Den Haag, Laan van Wateringseveld;Veolia (incl. Connexxion);79779;449397;Den Haag;79779;449397;4.291127923968647;52.02780748603635;101520
bus;Den Haag, Erasmusplein;Veolia (incl. Connexxion);80343;452032;Den Haag;80343;452032;4.298769364951304;52.05156399091024;101521
bus;Den Haag, Grote Markt;Veolia (incl. Connexxion);81050;454648;Den Haag;81050;454648;4.3085084557985045;52.07516824180309;101522
bus;Voorburg, Heer Hubrechtstraat;Veolia (incl. Connexxion);84251;454012;Leidschendam-Voorburg;84251;454012;4.355325201841834;52.069870746511775;101523
bus;Den Haag, Hobbemastraat;Veolia (incl. Connexxion);80562;454012;Den Haag;80562;454012;4.301530040034518;52.06938728006885;101524
bus;Delft, Kinderboerderij;Veolia (incl. Connexxion);85584;448032;Delft;85584;448032;4.37597858891183;52.01629717727282;101525
bus;Den Haag, Juliana van Stolberglaan;Veolia (incl. Connexxion);82664;455371;Den Haag;82664;455371;4.331894384147418;52.08187888452377;101526
bus;Delft, Delftse Hout;Veolia (incl. Connexxion);85448;447939;Delft;85448;447939;4.374016594377465;52.015444351852636;101527
bus;Delft, Delftse Hout;Veolia (incl. Connexxion);85449;447929;Delft;85449;447929;4.374033191489166;52.015354606840496;101528
bus;Rijswijk, Station Rijswijk (Perron D);Veolia (incl. Connexxion);81956;450463;Rijswijk;81956;450463;4.322616870515876;52.03767857002392;101529
bus;Rijswijk, Station Rijswijk (Perron A);Veolia (incl. Connexxion);81924;450438;Rijswijk;81924;450438;4.322155904698624;52.03744968132109;101530
bus;Delfgauw, van Vuren;RET;87649;447620;Pijnacker-Nootdorp;87649;447620;4.406137368021526;52.01284900824546;101531
trein;Den Haag Moerwijk;NS;81040;452350;Den Haag;81040;452350;4.308860432534191;52.054515265615805;101532
trein;Den Haag Moerwijk;NS;81040;452350;Den Haag;81040;452350;4.308860432534191;52.054515265615805;101533
trein;Den Haag HS;NS;82010;454090;Den Haag;82010;454090;4.322628797239813;52.07028096813321;101534
trein;Den Haag HS;NS;82010;454090;Den Haag;82010;454090;4.322628797239813;52.07028096813321;101535
bus;Delfgauw, Delfgauwseplein;RET;86930;447326;Pijnacker-Nootdorp;86930;447326;4.395724072897845;52.01011906691002;101536
bus;Pijnacker, B.V. Mol;RET;88388;447912;Pijnacker-Nootdorp;88388;447912;4.416843625542912;52.01556245784267;101537
bus;Pijnacker, Rijskade;RET;88827;448097;Pijnacker-Nootdorp;88827;448097;4.423202019439613;52.017277610743314;101538
bus;Pijnacker, Nootdorpseweg;RET;89105;448210;Pijnacker-Nootdorp;89105;448210;4.427229571565728;52.01832624728259;101539
bus;Krimpen aan den IJssel, Raadhuisplein;RET;89422;448337;Pijnacker-Nootdorp;89422;448337;4.431822726115698;52.01950517739386;101540
trein;Rijswijk;NS;81760;450680;Rijswijk;81760;450680;4.319714242189632;52.03960286337577;101541
trein;Rijswijk;NS;81760;450680;Rijswijk;81760;450680;4.319714242189632;52.03960286337577;101542
trein;Den Haag Mariahoeve;NS;85280;456370;Den Haag;85280;456370;4.369849029275982;52.09119234094508;101543
trein;Den Haag Mariahoeve;NS;85280;456370;Den Haag;85280;456370;4.369849029275982;52.09119234094508;101544
trein;Den Haag Mariahoeve;NS;85280;456370;Den Haag;85280;456370;4.369849029275982;52.09119234094508;101545
trein;Den Haag Mariahoeve;NS;85280;456370;Den Haag;85280;456370;4.369849029275982;52.09119234094508;101546
trein;Voorburg;NS;84530;453610;Leidschendam-Voorburg;84530;453610;4.359476781757638;52.066293571768256;101547
trein;Voorburg;NS;84530;453610;Leidschendam-Voorburg;84530;453610;4.359476781757638;52.066293571768256;101548
trein;Rijswijk;NS;81760;450680;Rijswijk;81760;450680;4.319714242189632;52.03960286337577;101549
trein;Rijswijk;NS;81760;450680;Rijswijk;81760;450680;4.319714242189632;52.03960286337577;101550
trein;Rijswijk;NS;81760;450680;Rijswijk;81760;450680;4.319714242189632;52.03960286337577;101551
trein;Den Haag Laan v NOI;NS;83450;455080;Den Haag;83450;455080;4.343420512824456;52.07936583278157;101552
trein;Den Haag Laan v NOI;NS;83450;455080;Den Haag;83450;455080;4.343420512824456;52.07936583278157;101553
trein;Den Haag Laan v NOI;NS;83450;455080;Den Haag;83450;455080;4.343420512824456;52.07936583278157;101554
trein;Den Haag Centraal;NS;82120;455310;Den Haag;82120;455310;4.323972322816742;52.08125935587758;101555
trein;Den Haag Moerwijk;NS;81040;452350;Den Haag;81040;452350;4.308860432534191;52.054515265615805;101556
trein;Den Haag Moerwijk;NS;81040;452350;Den Haag;81040;452350;4.308860432534191;52.054515265615805;101557
trein;Den Haag Moerwijk;NS;81040;452350;Den Haag;81040;452350;4.308860432534191;52.054515265615805;101558
trein;Den Haag Ypenburg;NS;86810;452340;Den Haag;86810;452340;4.392976644354435;52.055165368734016;101559
trein;Den Haag Ypenburg;NS;86810;452340;Den Haag;86810;452340;4.392976644354435;52.055165368734016;101560
trein;Den Haag Centraal;NS;82120;455310;Den Haag;82120;455310;4.323972322816742;52.08125935587758;101561
trein;Den Haag Centraal;NS;82120;455310;Den Haag;82120;455310;4.323972322816742;52.08125935587758;101562
trein;Den Haag Centraal;NS;82120;455310;Den Haag;82120;455310;4.323972322816742;52.08125935587758;101563
trein;Den Haag Centraal;NS;82120;455310;Den Haag;82120;455310;4.323972322816742;52.08125935587758;101564
trein;Den Haag Centraal;NS;82120;455310;Den Haag;82120;455310;4.323972322816742;52.08125935587758;101565
trein;Den Haag Centraal;NS;82120;455310;Den Haag;82120;455310;4.323972322816742;52.08125935587758;101566
trein;Den Haag Centraal;NS;82120;455310;Den Haag;82120;455310;4.323972322816742;52.08125935587758;101567
trein;Den Haag Centraal;NS;82120;455310;Den Haag;82120;455310;4.323972322816742;52.08125935587758;101568
trein;Den Haag Centraal;NS;82120;455310;Den Haag;82120;455310;4.323972322816742;52.08125935587758;101569
trein;Den Haag Centraal;NS;82120;455310;Den Haag;82120;455310;4.323972322816742;52.08125935587758;101570
tram;Adriaan Goekooplaan;HTM;79785;456687;Den Haag;79785;456687;4.2896096785741165;52.09332175919674;101571
tram;Adriaan Goekooplaan;HTM;79795;456678;Den Haag;79795;456678;4.289757566006652;52.093242237963025;101572
bus;Oude Waalsdorperweg;HTM;82079;458312;Den Haag;82079;458312;4.322732077349655;52.10823224979622;101573
bus;Kurhaus;HTM;79532;459009;Den Haag;79532;459009;4.285404012436008;52.114154348784695;101574
bus;Kurhaus;HTM;79532;459038;Den Haag;79532;459038;4.285397584914322;52.114414961368475;101575
