LOCATIENUMMER;LOCATIENAAM;PERIODE_1;PERIODE_2;PERIODE_3;PERIODE_4;PERIODE_5;PERIODE_6;PERIODE_7;PERIODE_8;PERIODE_9;PERIODE_10;PERIODE_11;PERIODE_12;PERIODE_13;GEM;LONG;LAT;X;Y
1;001 Alvereiland;23.5;32.5;24.4;31.1;21.2;15.5;13.2;16.9;16.3;20;29.6;32.3;25.9;23.3;4.4103807883916994;52.06076682414865;88012;452947
2;002 Pijlstaartplein;23;30.7;21.8;26.2;20.6;13.7;11.2;15.7;14.4;20.7;27.9;30.6;24.2;21.6;4.415113489624177;52.06711598752107;88346;453649
3;003 Ypenburg 2 - Wingerd;24;31.9;25;28.4;20.6;16;13.8;18.5;15.4;20;25.6;29.4;25.3;22.6;4.368168816352307;52.04902054631112;85099;451680
4;004 Guirlande;24;30.8;23.9;28.4;20.6;18;17.6;19.6;16.3;20;26.7;28.3;24.2;23;4.365024306654912;52.050098906736046;84885;451803
5;005 Laan van Hoornwijck;31.9;42.4;29;35.5;31.5;21.5;20.7;26.7;24.5;28.5;32.4;33.4;32.1;30;4.3613635634099905;52.04443115742966;84625;451176
6;006 Westvlietweg;23;31.9;27;30;24;18;16.3;17.4;17.3;22.1;30.2;34;26.5;24.4;4.372866017859573;52.070130556683615;85454;454024
7;007 Maanweg;27;39.6;0;32;30.9;21;17.6;25;22.1;28.5;36.8;35;28.5;28.7;4.34591747952861;52.06360336235112;83596;453324
8;008 Binckhorstlaan thv nr 240;29.9;41.9;31.5;35;25.2;18;15.1;20.7;21.1;27.4;32.4;36.6;31.6;28.2;4.339367959289008;52.06740144297557;83153;453753
9;009 Calandstraat thv nr 7459;33.5;45.8;42.7;39.9;38.1;37.5;31.1;34;31.2;38.3;48;43.5;34.6;38.3;4.314410363027216;52.0626464848859;81434;453249
10;010 Waldorpstraat;32.9;44.1;39.8;39;35;28;23.3;29.1;25.9;30.6;40;39.5;34.6;34;4.3140100807964945;52.06413497058821;81409;453415
11;011 Hildebrandplein;30.9;43;34.6;36;34;29.8;28.3;27.7;27.6;32.6;41;37.5;33.6;33.6;4.310338770646571;52.055490238687945;81143;452457
12;012 Neherkade thv nr 3076;31.9;45.2;34.8;40.8;32;24.7;20;27.2;25;30.7;38;38.5;33.7;32.5;4.3141385845179805;52.05999232861627;81411;452954
13;013 Neherkade MP6 thv nr 2760;30.4;47.9;38.8;39;33.5;27;21.1;27.7;25.9;30.2;40;39;33.6;33.4;4.317402358667021;52.061936618497704;81638;453167
14;014 Neherkade MP7 thv nr 1850;28.5;42.4;32;34;28;22.5;18.2;22.9;21.6;29;36.8;38.5;30.5;29.6;4.322152188517045;52.06456841578623;81968;453455
15;015 Neherkade thv nr 1292-1308;26;41.9;34.6;40;31;25;20.1;28.3;24;29.5;25.6;35.6;29.5;30.1;4.326702593419115;52.066407214054166;82283;453655
16;016 Neherkade Gemaalstraat;34.9;41.9;34.6;40;32;28;22.2;29.1;25.9;33.5;41;36.6;35.6;33.5;4.330964699650149;52.06811740713658;82578;453841
17;017 Mercuriusweg;27;38.5;29.5;34;32;24.7;21.1;28.3;25;30.6;40;36;31.6;30.6;4.333359534076313;52.068615256264884;82743;453894
18;018 Rijswijkseweg;26;36.3;30.5;32;30.9;27;21.1;27.2;21.1;25.3;35.7;35;27.5;28.9;4.331910332959087;52.06327197288377;82635;453301
19;019 De Genestetlaan thv nr 202;26;39.6;33.6;32;30.9;28.1;24.4;26.2;22.1;26.4;35.7;33.9;26.5;29.6;4.322584614155333;52.05742627767247;81986;452660
20;020  Erasmusweg thv nr 471;30.9;41.9;27;37;33.2;28;23.3;27.2;24;31.6;40;36;29.5;31.5;4.300799403275394;52.05142060808173;80482;452014
21;021 Erasmusweg thv nr 717;32.9;43.8;36.8;41;34.3;28.1;26.7;26.2;30.3;31.6;38;37.1;33.6;33.9;4.29485603714735;52.04821955806304;80069;451664
22;022 Erasmusweg thv nr 1173;27;38.5;30.5;33;25.2;23;18.9;25;21.1;25.3;34.6;33.9;28.5;28;4.287085090457295;52.04408428406943;79529;451212
23;023 Dedemsvaartweg;30.9;40.8;32.5;33;27.5;20;15.1;0;20.2;26.4;36.8;35.6;28.5;28.9;4.2785143002079815;52.04110950420318;78936;450890
24;024 Loevesteinlaan thv nr 395;26;37.4;30.5;35;28.6;25;18.8;27.2;22.1;28.5;35.7;35;30.5;29.3;4.281830181122398;52.05027330982126;79179;451906
25;025 Hengelolaan thv nr 83;32.9;46.3;30.5;37;34;30.7;26.7;28.1;25;31.6;38.9;37.1;34.6;33.3;4.275686574819509;52.05108740265612;78759;452003
26;026 Hengelolaan thv nr 355-371;29.9;36.3;31.5;34;32;27;24.4;28.3;25.9;29.7;31.3;35;31.6;30.5;4.2692306592764355;52.04805099610659;78311;451672
27;027 Loevesteinlaanthv nr 171;28.9;40.8;0;36;34.3;20;15.1;25;22.1;30.6;36.8;37.1;29.5;29.7;4.278054818326159;52.05318614425922;78925;452234
28;028 Vreeswijkstraat;31.9;44.1;34.6;40;33;26.4;20.1;25;25.9;29.7;38.9;35;33.6;32.2;4.277639743673575;52.058755292663704;78906;452854
29;029 Soestdijksekade thv nr 784-794;28;33.2;29.5;34;21.7;16;15.1;13.3;17.3;22.1;31.3;35;28.5;25;4.2863872667882275;52.061201419979824;79510;453117
30;030 Troelstrakade thv nr 237;33.9;47.4;34.8;42;32;27;25.5;29.1;25;31.6;39;38.5;33.6;33.8;4.297409167492923;52.057726375956726;80260;452719
31;031 Troelstrakade thv nr 619-633;34.9;45.3;37.8;42.2;40.6;24.7;25;34.4;32.6;41.2;46;37.5;37.4;36.9;4.304067231324407;52.05616082278544;80714;452538
32;032 Moerweg thv nr 322;27;40.8;30.5;33;22.9;19;18.8;19.6;19.2;27.4;36.8;35;30.5;27.7;4.296011456889581;52.055843769854704;80161;452511
33;033 Moerweg thv nr 85;33.5;42.8;35.8;42.7;38.1;28.1;27.8;31;25.9;30.6;37.8;35;34.6;34.1;4.2967840131684065;52.05345990908589;80210;452245
34;034 Loosduinseweg;25;39.6;31.5;34;26.3;18;15.1;22.9;20.2;28.5;36.8;35;30.5;27.9;4.271386545341003;52.06742434803999;78492;453825
35;035 Kamperfoeliestraat;25;40.8;35.8;35;28.6;25;18.9;26.1;19.2;26.4;35.7;37.1;28.5;29.4;4.269138231452816;52.069263712057094;78341;454032
36;036 Goudenregenstraat;24;35.2;32.5;37;32;23;20.1;24;17.3;24.3;34.6;36;26.5;28.2;4.2647919346216625;52.07564937298683;78054;454747
37;037 Sportlaan;25;36.3;30.5;31;26.3;15;16.3;20.7;17.3;17.3;25.6;0;0;23.7;4.2424503295425975;52.07309732039501;76518;454487
38;038 Segbroeklaan thv nr 562;24.5;38.5;31;30.5;26.3;19.5;13.8;15.8;13.4;16.7;29;32.8;24.2;24.3;4.260389994843491;52.078402871197525;77757;455058
39;039 Segbroeklaan thv nr 430;32.9;45.2;35.8;39;37.1;28.1;20;17.4;15.5;23.2;36.8;35;30.5;30.5;4.263118596302229;52.07954354465762;77946;455182
40;040 Segbroeklaan thv nr 306-328;29.9;44.1;34.6;40;31;21;18.8;16.3;14.4;22.1;34.6;37.1;30.5;28.8;4.268480631731943;52.081563120479466;78317;455401
41;041 Vissershavenweg;34.4;43;34.6;40.8;36.1;28;27.8;30.1;18.3;28.5;38;37.5;33.7;33.1;4.268354478942911;52.101768667691395;78343;457649
42;042 Johan de Wittlaan/Pr Kennedylaan Museon;25;33;27;31;24;16;13.8;18.5;17.3;21.1;30.3;32.9;26.5;24.3;4.2820170022084305;52.08876501328275;79257;456188
43;043 Pr Kennedylaan;31.9;47.4;38.3;0;41.6;36.6;35.5;38.8;27.6;32.6;38.5;37;34.6;36.7;4.279143253044469;52.0875515112729;79058;456056
44;044 Groot Hertoginnelaan thv nr 79;30.9;39.6;35.8;37;29.7;21;18.9;26.1;22.1;27.4;33.5;37.1;31.6;30.1;4.282498430563164;52.08463470049767;79283;455728
45;045 Groot Hertoginnelaan thv nr 13;25.5;38;28.1;33;26.3;18.5;18.9;20.7;19.7;25.8;34.1;33.4;28.5;27;4.284525811407627;52.08525593605405;79423;455795
46;046 Groot Hertoginnelaan thv nr 24;23;36.3;28.5;31.7;24;15;12.6;19.6;17.3;22.1;31.3;35;28.5;25;4.281378239384097;52.08509160890285;79207;455780
47;047 Laan van Meerdervoort;29.9;44.1;34.3;40;34.9;22;19.4;26.1;22.1;29;38.4;37;32.1;31.5;4.292821150608411;52.08434450667878;79990;455685
48;048 Laan van Meerdervoort thv nr 10 aan P-automaat;28;43;34.6;36;32;23;20;24;25.9;30.6;38;36.6;31.6;31;4.299537638164563;52.08654601189133;80454;455923
49;049 Javastraat MP4;29.9;43.5;33.6;37;30.3;20;19.5;24.5;23.1;31.1;38.9;36.1;33.1;30.8;4.308655866707333;52.08902081911874;81083;456189
50;050 Raamweg thv nr 5;28.5;41.3;39.8;39.9;39.1;37.5;36.6;39.3;25;31.6;40.5;40;33.1;36.3;4.311910163139744;52.090830323033344;81309;456387
51;051 Raamweg MP9 thv nr 42a;26.5;40.2;35.8;39.5;34.5;26.4;25;29.1;24;27.9;38.9;35.6;30;31.8;4.308755127488088;52.09458574066059;81099;456808
52;052 Waalsdorperweg;24;33.2;23.9;27.3;20.6;12.6;11.3;14.5;14.4;18.4;26.7;31.7;26.4;21.9;4.310780090949806;52.09958399402254;81246;457362
53;053 v. Alkemadelaan thv nr 350;24;35.2;27;35;28.6;22;20.1;25;19.2;26.4;31.4;33.9;29.5;27.5;4.321105277596821;52.10054974053265;81955;457459
54;054 v. Alkemadelaan thv nr 44;27;35.2;28.1;35;32;24;18.9;28.3;21.1;26.4;34.6;32.9;27.5;28.5;4.327989768381716;52.094589393385796;82417;456789
55;055 Willem Witsenplein MP18;24;38.5;31.5;35;28.6;26.4;30;27.2;25.9;29.7;37.8;32.9;28.5;30.5;4.329346605737118;52.09213868041281;82506;456515
56;056 Benoordenhoudseweg thv nr 90;28;39.6;34.6;35;31;27.3;27.8;27.2;23.1;29.5;37.8;36;29.5;31.3;4.327916677969267;52.091514605685504;82407;456447
57;057 Zuid Hollandlaan MP14;29.9;40.8;34.8;39;33.2;22;18.9;26.1;25;29.7;38;38.5;35.6;31.7;4.318970027868447;52.087290057963045;81787;455986
58;058 Koningskade oost;30.9;45.8;46.7;40.8;46.1;43.5;37.8;43.7;30.3;31.6;46;43.5;34.6;40.1;4.315433680963348;52.086898399751824;81544;455946
59;059 Koningskade west of Raamweg;31.9;0;31.5;39;31;27;22.2;33;25.9;31.6;0;35.6;35.6;31.3;4.313310365061068;52.08903636002179;81402;456186
60;060 Laan Copes v. Cattenburch thv nr 131;27.5;0;32.5;35;28.6;18;16.3;21.2;19.7;24.8;0;33.9;29.5;26.1;4.308027316305198;52.09208920546301;81045;456531
61;061 Laan Copes v. Cattenburch thv nr 58;27;0;30;36;28.6;20.5;23.9;20.7;21.6;29;0;33.4;31;27.4;4.306365775898895;52.09139982514399;80930;456456
62;062 Laan Copes v. Cattenburch thv nr 56;32.9;0;34.1;41;31.5;30.7;27.2;30.1;25.5;31.6;0;35.6;35.1;32.3;4.30628193133124;52.09124624796847;80924;456439
63;063 Burg. Patijnlaan;23;0;28.1;30;24;17;12.6;19.6;16.3;25.3;0;32.9;27.5;23.3;4.302719490039531;52.09011689511937;80678;456317
64;064 Hogewal MP3;28.9;0;37.8;39;33.2;22;18.8;27.2;22.1;28.5;0;37.1;28.5;29.4;4.303392601015237;52.08341749735943;80713;455571
65;065 Scheveningse veer;33.9;0;39.8;42;34;26;18.9;28.3;25.9;29.7;0;36.6;33.6;31.7;4.30543458948821;52.08404749480123;80854;455639
66;066 Mauritskade thv nr 67;29.9;0;32.5;40;30.9;23;20.1;27.2;17.3;27.4;0;36.6;30.5;28.7;4.310680870424966;52.08612699095112;81217;455865
67;067 Jan Hendrikstraat;28;0;31.5;35;26.3;23;18.8;26.1;22.1;27.4;38.9;37.1;30.5;28.7;4.307011811853079;52.076133902439345;80949;454757
68;068 Lutherse Burgwal MP8;27;0;29.5;30;25.2;17;15.1;21.8;18.3;25.3;33.5;34;26.5;25.2;4.310211733205345;52.074707021062;81166;454595
69;069 Lutherse Burgwal MP28;28;0;32.5;34;29.7;21;17.6;21.8;19.2;25.3;35.7;32.9;29.5;27.3;4.310607020437573;52.07464771260652;81193;454588
70;070 Paviljoensgracht;28.9;0;27;34;26.3;19;18.8;24;22.1;26.4;34.6;33.9;27.5;26.9;4.312624697561112;52.07384815764408;81330;454497
71;071 Stille Veerkade thv nr 21;31.9;0;32.5;36.5;33.2;24.3;22.8;28.3;25;29;39.5;37.6;30.5;30.9;4.314151483638406;52.074050836468125;81435;454518
72;072 Schedeldoekshaven;28.5;0;32;35.5;27.5;23.5;17;21.8;23.5;30.2;40;37.1;0;28.8;4.319147770516743;52.076792852000985;81782;454818
73;073 Pr Bernhard viadukt Ammunitiehaven;29.9;39.6;31.5;34.5;28.6;24;20.1;22.3;21.1;28.5;38.9;37.1;32.6;29.9;4.323785095062115;52.07870444999092;82103;455026
74;074 Lekstraat West/oprit;33.1;47.4;33.6;40.4;34;25.1;23.9;29.6;27.6;33.5;40.5;37.5;34.1;33.9;4.326079291684994;52.07854535918802;82260;455006
75;075 Lekstraat Oost/spoor;28;36.3;28.5;32.5;25.2;19;15.1;21.8;20.7;27.4;35.7;34.5;30;27.3;4.326907157404714;52.078085399027586;82316;454954
76;076 Rijswijkseplein;27;38;28.5;34;25.7;20;17.6;22.9;22.1;29.5;37.8;36;30.5;28.4;4.323205450344706;52.07240711506044;82053;454326
77;077 Parallelweg;37.6;47.2;30.5;39;33.5;24.3;21.7;26.2;30.3;38.3;46;41;38.3;34.9;4.312989770266482;52.06471892801243;81340;453481
78;078 Vaillantlaan thv nr 520;34.9;44.1;39.8;41.3;43.1;39.6;33.9;34.9;30.3;34.5;46;43.5;38.3;38.8;4.309687687022199;52.064365175290156;81113;453445
79;079 Vaillantlaan thv nr 264;30.9;41.9;43.7;41.8;40.1;34.1;27.8;31;26.8;29.7;40;39.5;35.6;35.6;4.304148970772015;52.06664247002836;80737;453704
80;080 Vaillantlaan thv nr 82;30.9;46.3;41.7;39.9;38.1;35.8;27.8;33;26.8;31.6;43;44.5;35.6;36.5;4.301705469220787;52.06937053892516;80574;454010
81;081 Buitenom thv nr 266;28.9;46.3;33.6;41;33.2;26.4;22.2;27.2;25;28.5;38;36.6;31.6;32.2;4.300510417814367;52.07173255242898;80496;454274
82;082 Lijnbaan;31.4;44.1;37.8;42.5;33;29;22.8;29.1;25.5;29.5;39.5;37.5;33.6;33.5;4.299470311937861;52.073116210585084;80427;454429
83;083 Wald.Pyrm./Kon. Emmakade;30.9;44.1;37.8;39;34;32.4;31.1;35.9;27.6;29.7;41;36.6;32.6;34.8;4.294147935201696;52.07721975627814;80069;454891
84;084 RIVM De Constant Rebecquestraat;24.3;34;28.1;31.7;22.3;16.4;11.7;17.3;16.1;21.1;31.8;34;28.3;24.4;4.294147935201696;52.07721975627814;80069;454891
85;085 Weteringkade hoog;33.1;43.8;42.7;45.8;42.6;31.5;31.1;37.8;32.6;38.3;49;42.5;36.5;39;4.327190255848417;52.074141901937004;82329;454515
86;086 Pr Bernhard viadukt François Valentijnstraat;27;38.5;28.1;35;22.9;20;15.1;20.7;21.1;25.3;33.5;33.9;29.5;27;4.328788960175598;52.08055623447729;82449;455227
87;087 A12 François Valentijnstraat / Utrechtsebaan (1) 30 meter;29.9;40.8;28.1;34;29.7;20;18.8;25;23.1;28.5;35.7;34;29.5;29;4.330745206589643;52.08050188064725;82583;455219
88;088 A12 François Valentijnstraat / Utrechtsebaan (2) Railing;33.9;46.8;34.8;39;34.9;27.3;22.8;29.6;27.6;33.5;41.5;35.6;35.1;34;4.331698185114723;52.080303681027765;82648;455196
89;089 A12 François Valentijnstraat / Utrechtsebaan (3) 8 meter;29.9;40.8;32.5;38;30.9;21;15.1;25;23.1;29.5;36.8;37.1;30.5;30;4.332398355134011;52.07968973071108;82695;455127
90;090 A12 Prins Clauslaan / Utrechtsebaan A Noord;31.9;45.2;34.8;41;31;27;18.9;22.9;25;30.6;40;36.6;35.6;32.3;4.3275987626177645;52.083376978829754;82372;455542
91;091 A12 Prins Clauslaan / Utrechtsebaan B Zuid;38.1;50.6;36.8;46.3;49.1;38.3;38.9;39.8;34.8;39.3;50;44.5;41.1;42.1;4.327302974372827;52.083545103981365;82352;455561
92;092 Bosweg;30.9;40.8;28.1;39;32;28;20;22.9;24;30.6;37.8;32.9;32.6;30.7;4.3228708472892245;52.08647142731874;82053;455891
93;093 Leidsestraatweg / Marlotlaan;20.7;31.9;20.8;26.2;21.9;16;12.6;17.4;15.5;18.4;26.7;28.3;25.3;21.7;4.35553306599494;52.103238095649964;84318;457724
94;094 Amsterdamse Veerkade thv nr 17;30.4;0;37.3;39;32;27;17;27.8;25;27.4;39.5;37.1;30;30.8;4.315733984882503;52.07497310035199;81545;454619
95;095 Amsterdamse Veerkade RIVM;32.3;42.8;34.1;39;31;24.1;18.9;26.2;25;29.7;38;35.6;33.3;31.6;4.315777307326169;52.07499147177969;81548;454621
96;096 Elandstraat thv nr 180-182;30.9;0;35.3;38.5;33.7;24.5;20.7;25.6;24;31.6;0;38.5;35.1;30.8;4.294875174018996;52.07969840678858;80123;455166
97;097 Torenstraat;28.9;0;32;35.5;26.9;18.5;16.3;24;21.6;27.9;0;36.1;33.1;27.3;4.305648323811802;52.0776225132445;80858;454924
98;098 Prinsegracht;29.9;0;30;36;26.9;27;15.7;17.4;24;30.1;40;35.5;31;28.6;4.3035017106523785;52.07349493380425;80704;454467
99;099 Korte Voorhout;26;0;33.6;34.5;34.3;27;20.5;27.8;22.1;26.4;37.8;36.6;29;29.6;4.316969961202735;52.083065193524035;81643;455518
100;100 Hoefkade thv nr 391A;35.3;43.3;35.8;39.9;37.1;32.8;25.5;27.7;29.4;37.8;42.5;38.5;39.7;35.8;4.3082210633180225;52.06591579358223;81015;453619
101;101 Loosduinsekade thv nr 27;28.9;41.3;34.8;39.5;32.5;24;20.1;26.1;23.5;30.1;37.8;36.1;35.1;31.5;4.295086889418826;52.07341723179014;80127;454467
102;102 Koningstraat;33.9;44.1;32.5;40;32;26;23.3;29.1;25.9;33.5;40;36.6;34.6;33.2;4.315068946803423;52.06802774846701;81488;453847
103;103 Uithofslaan;26;36.3;25.5;30.6;20;12.6;11.3;13.3;15.5;21.1;30.2;34.5;27.5;23.4;4.245868923239442;52.031718853931714;76680;449880
104;104 Rockanjelaan;20.7;30.1;21.3;25.7;19.3;11.4;9.8;14.5;10.3;15;23.8;31.1;24.2;19.8;4.218401834500193;52.06506784769449;74855;453620
105;105 Mecklenburglaan 6;15.3;24.6;18.2;19.1;12.2;10.3;7;8.5;8.2;10.9;18.6;26.6;18.2;15.2;4.355386506373787;52.123497169225395;84340;459978
