aantal,fractie,plaatsing,plaatsingsadres,plaats,frequentie,week,ledigingsdag,latitude,longitude
1,glas,bo,anna paulownahof 1-150,tilburg,,,,51.552306812060365,5.088098272087346
1,textiel,bo,reigerstraat 6,tilburg,,,,51.54610192674479,5.100099795858353
1,glas,bo,de armhoef 33,udenhout,,,,51.60491488502866,5.137811978593279
1,glas,bo,conservatoriumlaan 191,tilburg,,,,51.557746108427665,5.049950544159525
1,textiel,bo,conservatoriumlaan 191,tilburg,,,,51.55778289242197,5.049955726261937
1,glas,bo,corellistraat 336-430,tilburg,,,,51.587432568047134,5.07719693929583
1,glas,bo,frederik van eedenstraat 15,tilburg,,,,51.54930231216924,5.066050372983683
1,glas,bo,bachlaan 238-754,tilburg,,,,51.580786850426264,5.090812465207632
1,textiel,bo,boterbloem 24,udenhout,,,,51.61088989791428,5.137521243738452
1,glas,bo,bredaseweg 90,tilburg,,,,51.555420765259896,5.075880797974582
1,glas,bo,broekhovenseweg 153,tilburg,,,,51.545358979164135,5.093171881659927
1,glas,bo,langendijk 81,tilburg,,,,51.587454868199295,4.9866933294457425
1,textiel,on,liesveldstraat 1,tilburg,,,,51.58756006385841,5.0060287654566915
1,glas,bo,bisschop bekkerslaan 10-102,tilburg,,,,51.571695171773705,5.080168932859988
1,glas,bo,borculolaan 71,tilburg,,,,51.58154073739611,5.022092261810943
1,glas,bo,boterbloem 24,udenhout,,,,51.61088004878192,5.1374958081030435
1,pmd,on,klundertplein 1-44,tilburg,,,,51.57736530356881,5.005593731168453
1,glas,bo,burgemeester damsstraat 42,tilburg,,,,51.55502189163498,5.061757957151104
1,glas,bo,abdij van averbodestraat 3-97,tilburg,,,,51.56372318606153,5.056116604604765
1,glas,bo,achthoevenstraat 43,udenhout,,,,51.61284621524847,5.148957264970262
1,glas,bo,adelaarshorst 5-82,tilburg,,,,51.57420614642854,5.052468587747396
1,glas,bo,alpenlaan 102,tilburg,,,,51.5378252029014,5.094321853763242
1,glas,bo,dolomietenlaan 202,tilburg,,,,51.53905201915595,5.085245589650782
1,glas,bo,generaal smutslaan 65,tilburg,,,,51.54506359432878,5.072535948757221
1,glas,bo,generaal smutslaan 660-858,tilburg,,,,51.54512333695585,5.069491270457336
1,textiel,bo,generaal smutslaan 660-858,tilburg,,,,51.54514333664542,5.069493221001813
1,glas,bo,burgemeester panislaan 21,berkel-enschot,,,,51.57528445246907,5.138465263712773
1,glas,on,burgemeester van de mortelplein 41,tilburg,,,,51.55050017125033,5.058356697781576
1,pmd,on,burgemeester van de mortelplein 41,tilburg,,,,51.55049427410307,5.05838716906365
1,textiel,on,burgemeester van de mortelplein 41,tilburg,,,,51.55048936488406,5.05841575167805
1,glas,bo,dalfsenlaan 50,tilburg,,,,51.57631662845197,5.016933775478033
1,glas,bo,bruinissestraat 60,tilburg,,,,51.582547359224186,5.013839144812978
1,glas,bo,gerard van swietenstraat 1,tilburg,,,,51.55759248611187,5.104140936094093
1,glas,on,klundertplein 1-44,tilburg,,,,51.57732747117649,5.0056155197463035
1,glas,bo,beeklaan 3,tilburg,,,,51.55015777762553,5.0487638521551235
1,pmd,on,beeklaan 109,tilburg,,,,51.54474818558118,5.045878996646349
1,glas,on,beeklaan 109,tilburg,,,,51.544773992457394,5.045875128246287
1,textiel,on,beeklaan 109,tilburg,,,,51.544759216860335,5.045854500460227
1,pmd,on,beethovenlaan 10-94,tilburg,,,,51.58490666801858,5.086562861537989
1,pmd,on,bemmelstraat 6,tilburg,,,,51.58124080272072,5.019041152113263
1,glas,on,bemmelstraat 6,tilburg,,,,51.58122695022426,5.0190191412595055
1,textiel,on,bemmelstraat 6,tilburg,,,,51.58125627262824,5.019061847061128
1,glas,bo,beneluxlaan 67,tilburg,,,,51.57180783689892,5.0493469704150655
1,glas,bo,vogezenlaan 1,tilburg,,,,51.53656095235869,5.088688787858997
1,textiel,bo,vogezenlaan 1,tilburg,,,,51.53652684775676,5.088690969090377
1,textiel,bo,berkenrodelaan 9-85,tilburg,,,,51.58418486789021,5.018286686191719
1,glas,on,besterdring 110,tilburg,,0,,51.56287941647621,5.091354744700696
1,pmd,on,besterdring 110,tilburg,,,,51.5628787056294,5.091413782902161
1,textiel,on,besterdring 110,tilburg,,,,51.562879895969566,5.0913847443765246
1,glas,bo,beukenstraat 48,tilburg,,,,51.559572449643746,5.068144144655161
1,textiel,bo,beukenstraat 48,tilburg,,,,51.55954897692256,5.068148523161456
1,glas,bo,europalaan 445,tilburg,,,,51.57291130051087,5.046863654411099
1,glas,bo,fatimastraat 24-01/24,tilburg,,,,51.55046695065761,5.100044236081463
1,textiel,bo,fatimastraat 24-01/24,tilburg,,,,51.55039909145237,5.09989048492442
1,glas,bo,mahlerstraat 240,tilburg,,,,51.58747677297376,5.08263020189584
1,glas,bo,kapitein nemostraat 33,tilburg,,,,51.56731670077847,5.111775012232033
1,glas,bo,flemingstraat 11,tilburg,,,,51.55688229758064,5.0963959950504645
1,glas,bo,durendaelweg 2,berkel-enschot,,,,51.583564937001945,5.147324343673483
1,textiel,bo,duurswoudelaan 1,tilburg,,,,51.579102863079996,5.011442942321147
1,glas,bo,duurswoudelaan 1,tilburg,,,,51.5790564533899,5.011431949350959
1,glas,bo,edisonlaan 39,tilburg,,,,51.544340297773815,5.084726796862792
1,textiel,bo,kazernehof 75,tilburg,,,,51.556411111162525,5.094229885153236
1,pmd,on,dalempromenade 2,tilburg,,,,51.582423885768826,4.983350020996325
1,textiel,on,dalempromenade 2,tilburg,,,,51.58244150949911,4.983374906802584
1,textiel,bo,dalfsenlaan 50,tilburg,,,,51.5762955614853,5.016924906492518
1,textiel,on,klundertplein 1-44,tilburg,,,,51.57734705611035,5.005604619121011
1,glas,bo,griegstraat 99-467,tilburg,,,,51.59064749508831,5.0941302345867285
1,pmd,on,groenstraat 119,tilburg,,,,51.54703674183229,5.092734596819888
1,glas,on,groenstraat 119,tilburg,,,,51.54701285335637,5.092709888678688
1,textiel,on,groenstraat 119,tilburg,,,,51.54703131620137,5.092705308575659
1,glas,bo,groenvelde 18,udenhout,,,,51.60983423874731,5.1525638619719265
1,glas,on,henriette ronnerstraat 1,tilburg,,,,51.55525967788119,5.068370905942396
1,pmd,on,henriette ronnerstraat 1,tilburg,,,,51.55522023684627,5.068383216919328
1,textiel,on,henriette ronnerstraat 1,tilburg,,,,51.55524096571979,5.06837633916583
1,glas,bo,herstalsestraat 4,tilburg,,,,51.56708229284122,5.070709237853776
1,glas,bo,hertogstraat 80,tilburg,,,,51.54985925975189,5.09559101449615
1,glas,on,kreitenmolenstraat 149,udenhout,,,,51.607799240105315,5.152714367070809
1,pmd,on,kreitenmolenstraat 149,udenhout,,,,51.60781828812741,5.15265711113887
1,glas,on,kreverplein 27,tilburg,,,,51.58485079409493,5.098982208258877
1,pmd,on,kreverplein 27,tilburg,,,,51.584848438769924,5.099012364617068
1,textiel,on,kreverplein 27,tilburg,,,,51.58483294499142,5.098977310457706
1,glas,bo,vlierlaan 2,tilburg,,,,51.57900875282118,5.039582370323713
1,textiel,bo,kruidenlaan 109,tilburg,,,,51.5785385985748,5.0434393356479275
1,glas,bo,kruidenlaan 109,tilburg,,,,51.578535303144484,5.043467408888954
1,pmd,on,lage witsiebaan 400,tilburg,,,,51.57582487932389,5.038104598575209
1,glas,on,lage witsiebaan 400,tilburg,,,,51.57581738602304,5.038133996786775
1,textiel,on,lage witsiebaan 400,tilburg,,,,51.57583147792351,5.0380744902693895
1,glas,bo,lombardijenlaan 2,tilburg,,,,51.58483574258651,4.99249878646452
1,glas,on,louis bouwmeesterplein 2-a,tilburg,,,,51.554586491206436,5.080727259551098
1,pmd,on,louis bouwmeesterplein 2-a,tilburg,,,,51.55456581271,5.080695682925375
1,textiel,on,louis bouwmeesterplein 2-a,tilburg,,,,51.55456507189748,5.0807570004433185
1,glas,bo,maasbommelstraat 1,tilburg,,,,51.59337944717595,4.995569737755457
1,glas,on,koolhovenlaan 145,tilburg,,,,51.5739945399033,4.971278208976998
1,glas,on,ketelhavenplein 41-248,tilburg,,,,51.57423980673181,4.995028100045162
1,textiel,on,ketelhavenplein 41-248,tilburg,,,,51.574219804944626,4.995022154998324
1,glas,bo,sint willibrordstraat 26,berkel-enschot,,,,51.58970547070466,5.140675162714361
1,pmd,on,kerkenbosplaats 1,tilburg,,,,51.57816554122214,5.006172705848949
1,glas,on,kerkenbosplaats 1,tilburg,,,,51.57815070821088,5.006116999540463
1,glas,bo,koningsplein 245-254,tilburg,,,,51.55315334981873,5.088683993830836
1,glas,bo,capucijnenstraat 154-a,tilburg,,,,51.55082175748343,5.0697043174976955
1,glas,bo,dr. ahaushof 171,tilburg,,,,51.568505816827034,5.06443966594298
1,textiel,bo,dr. ahaushof 171,tilburg,,,,51.56847930518902,5.064438184057323
1,glas,on,daniel josephus jittastraat 23-79,tilburg,,,,51.56951476893066,5.053568830187088
1,glas,bo,de fallastraat 95,tilburg,,,,51.59008249080351,5.089743475726084
1,glas,bo,leharstraat 130,tilburg,,,,51.58732829862352,5.0909837196726935
1,glas,bo,berlagehof 1-56,tilburg,,,,51.56710822273399,5.072746707154977
1,glas,bo,europalaan 174-e,tilburg,,,,51.56893237459142,5.045767840246844
1,glas,bo,sullivandreef 3,tilburg,,,,51.580313495656775,5.100868929760721
1,glas,bo,hazelaarstraat 727,tilburg,,,,51.56080831246347,5.066639253635597
1,glas,bo,mascagnistraat 133-311,tilburg,,,,51.58506199984574,5.0719024169388325
1,glas,bo,massenetlaan 20,tilburg,,,,51.58159107679994,5.073036356594086
1,textiel,bo,meddostraat 3,tilburg,,,,51.59151496165981,4.98541254197992
1,glas,bo,meerssenstraat 1-c,tilburg,,,,51.586180017323265,4.997383438949491
1,glas,bo,mozartlaan 245-755,tilburg,,,,51.582010035183984,5.0776124754853305
1,glas,bo,nassauplein 39,tilburg,,,,51.57273643684994,5.067085243184742
1,glas,bo,rentmeesterlaan 37,tilburg,,,,51.57178187030189,5.072188874521433
1,glas,bo,theresiaplein 17,tilburg,,,,51.56572968886135,5.08257506766522
1,glas,on,pater van den elsenplein 34-01/30,tilburg,,,,51.5402426463954,5.093025765590915
1,glas,bo,perosistraat 150,tilburg,,,,51.59211821638023,5.073944249729804
1,glas,bo,waringinstraat 1,tilburg,,,,51.56013425349926,5.061354030729643
1,glas,bo,renkumlaan 35,tilburg,,,,51.58974064362777,4.9790704839372095
1,glas,bo,rentmeesterlaan 37,tilburg,,,,51.571765487262475,5.072177074944736
1,glas,bo,hoogvensestraat 177,tilburg,,,,51.55507547950877,5.091941856608032
1,glas,bo,insulindeplein 30,tilburg,,,,51.56090454326154,5.10029118814574
1,pmd,on,jan heijnstraat 6,tilburg,,,,51.562782180909146,5.076384823618235
1,glas,on,jan heijnstraat 6,tilburg,,,,51.56277997577876,5.0764151774687525
1,textiel,on,jan heijnstraat 6,tilburg,,,,51.562764524974504,5.07638162308438
1,glas,bo,professor gimbrerelaan 156,tilburg,,,,51.5599476381454,5.046175526532647
1,glas,bo,professor verbernelaan 40,tilburg,,,,51.562563811725,5.053189289064223
1,glas,bo,professor verbernelaan 35,tilburg,,,,51.56292742494959,5.049349544036048
1,glas,bo,puccinistraat 119,tilburg,,,,51.58857215645025,5.073089645842052
1,glas,bo,redemptoristenstraat 2,tilburg,,,,51.57620163760578,5.050729211553955
1,textiel,bo,obdamstraat 3,tilburg,,,,51.57517896284625,4.988110900926389
1,glas,bo,obdamstraat 3,tilburg,,,,51.57516985959362,4.988163482983407
1,glas,bo,observantenhof 11,tilburg,,,,51.55160955178528,5.075063732842877
1,glas,bo,oerlesestraat 119,tilburg,,,,51.5470902317799,5.077436682906731
1,glas,bo,paduaplein 5,tilburg,,,,51.56875975151153,5.090258643479834
1,textiel,on,wagnerplein 5,tilburg,,,,51.58418610450792,5.084602639317406
1,glas,bo,wandelboslaan 32,tilburg,,,,51.56643445362249,5.056612585518621
1,pmd,on,heyhoefpromenade 313-359,tilburg,,,,51.57773443574298,5.00392880314888
1,glas,on,heyhoefpromenade 313-359,tilburg,,,,51.57774711149226,5.003986665881272
1,textiel,on,heyhoefpromenade 313-359,tilburg,,,,51.57774121872239,5.003957372257808
2,textiel,bo,hillegomlaan 50,tilburg,,,,51.582449872618994,5.001420692103569
1,textiel,bo,karel doormanlaan 1,tilburg,,,,51.5451216593191,5.060544707773317
1,glas,bo,hoefstraat 246,tilburg,,,,51.56963081016099,5.092125948426085
1,glas,bo,groeseindstraat 9,tilburg,,,,51.57157243887244,5.090095674748635
1,textiel,bo,hoffmannlaan 145-655,tilburg,,,,51.57994412675487,5.082162824690787
1,pmd,on,roelof kranenburgplein 52,tilburg,,,,51.569935510886644,5.0546786976493365
1,textiel,on,roelof kranenburgplein 52,tilburg,,,,51.56995498393012,5.054683759257378
1,glas,on,roelof kranenburgplein 52,tilburg,,,,51.56991603874172,5.054673636038989
1,glas,bo,predikherenlaan 28-g,tilburg,,,,51.5754093196467,5.057820951926761
1,textiel,bo,nassauplein 39,tilburg,,,,51.57277498080137,5.067087436767489
1,glas,bo,ruimelplein 8,tilburg,,,,51.5858274406541,4.9790652585974495
1,glas,bo,redemptoristenstraat 54,tilburg,,,,51.57647338119276,5.048058534142932
1,glas,bo,marjolein 10,udenhout,,,,51.607071942932734,5.13398727764929
1,luiers,bo,frater romboutshof 9,tilburg,0,0,1,51.55686418257704,5.080847595922078
1,glas,on,dalempromenade 2,tilburg,,,,51.582471492529606,4.983377613711359
1,glas,bo,spakenburglaan 100,tilburg,,,,51.58030469994233,4.976920934572409
1,textiel,on,spoordijk 72,tilburg,,,,51.56126000982148,5.105546848914457
1,pmd,on,spoordijk 72,tilburg,,,,51.56124935893965,5.10548780128817
1,glas,on,spoordijk 72,tilburg,,,,51.56125467248485,5.105518915100768
1,glas,bo,sibeliusstraat 381-667,tilburg,,,,51.59328066473313,5.082837411362769
2,textiel,on,verdiplein 102 ,tilburg,,,,51.59016107167916,5.079228919429367
1,glas,on,paleisring 13,tilburg,,,,51.55512304882765,5.089672980355254
1,luiers,bo,curlingstraat 11,tilburg,0,0,1,51.541242878006685,5.075692165340195
1,textiel,bo,fatimastraat 24-01/24,tilburg,,,,51.55040711683132,5.099915480603595
1,pmd,bo,caledoniastraat 6,tilburg,0,0,0,51.584299261859734,5.030884936208327
1,pmd,bo,caledoniastraat 6,tilburg,0,0,0,51.584635830929884,5.030584451161908
1,pmd,bo,caledoniastraat 6,tilburg,0,0,0,51.584628777158464,5.030536860444248
1,textiel,bo,groenvelde 18,udenhout,,,,51.60984727403548,5.152528918762679
1,textiel,bo,sinopelstraat 65,tilburg,,,,51.57357513866338,5.042036947980723
1,glas,bo,sinopelstraat 65,tilburg,,,,51.573527835433715,5.042003622057286
1,textiel,bo,weteringlaan 74,tilburg,,,,51.549156070969374,5.041430572241104
1,pmd,on,tobias asserlaan 286-350,tilburg,,,,51.5676199263028,5.053024720371003
1,glas,on,tobias asserlaan 286-350,tilburg,,,,51.56759590415815,5.053039838032919
1,textiel,on,tobias asserlaan 286-350,tilburg,,,,51.56763643473864,5.053036937967108
1,pmd,on,tongerloplein 23,udenhout,,,,51.609154691755336,5.142512524896967
1,glas,on,tongerloplein 23,udenhout,,,,51.60917404655388,5.14246293854636
1,glas,bo,trouwlaan 47,tilburg,,,,51.55177427395578,5.077785767407428
1,glas,bo,vaartlaan 7,tilburg,,,,51.54094200112542,5.041286219628479
1,glas,bo,jac. van vollenhovenstraat 223,tilburg,,,,51.57973852139144,5.0970841530992645
1,glas,bo,veldhovenring 47,tilburg,,,,51.567863553797004,5.085436754931085
1,glas,on,verdiplein 102,tilburg,,,,51.59017990173126,5.079234295457834
1,glas,bo,pijlijserstraat 1,tilburg,,,,51.56570297579386,5.069430676356734
1,glas,bo,pijnboomstraat 24,tilburg,,,,51.55987292694906,5.070482427028492
1,glas,bo,piushaven 29,tilburg,,,,51.55260185292396,5.093197459253306
1,glas,bo,reinevaarstraat 7,tilburg,,,,51.57643079423509,5.037233450174375
1,textiel,on,reitse hoevenstraat 107,tilburg,,,,51.57017590115653,5.062523354563892
1,pmd,on,reitse hoevenstraat 107,tilburg,,,,51.57017013190762,5.062489568677018
1,glas,bo,sint willebrordstraat 2-a,tilburg,,,,51.56443058169635,5.098672829620206
1,glas,bo,witbrantlaan oost 2,tilburg,,,,51.56730394500772,5.0161685628433625
1,glas,bo,witbrantlaan west 109,tilburg,,,,51.570283036278134,4.995210371987304
1,pmd,bo,caledoniastraat 6,tilburg,0,0,0,51.584344377014546,5.03086167691533
1,glas,bo,sweelincklaan 450,tilburg,,,,51.58282686455164,5.103442814255545
1,glas,bo,vlierakkerweg 4,berkel-enschot,,,,51.5868799274419,5.15337309742469
1,luiers,bo,weteringlaan 74,tilburg,0,0,1,51.54910494327249,5.0414317555930275
1,luiers,bo,vaartlaan 7,tilburg,0,0,1,51.54095948692,5.0412856512509725
1,luiers,bo,oerlesestraat 119,tilburg,0,0,1,51.54708849339156,5.077474682589954
1,glas,bo,caspar houbenstraat 8,tilburg,,,,51.554043675512915,5.109624421644285
1,luiers,bo,caspar houbenstraat 8,tilburg,0,0,1,51.55403474006942,5.109596480604322
1,glas,bo,gendringenlaan 14,tilburg,,0,,51.58240684958944,5.0081554092213825
1,luiers,bo,gendringenlaan 14,tilburg,0,0,1,51.582402669043454,5.008180682859734
1,luiers,bo,koningsplein 245-254,tilburg,0,0,1,51.55317047851967,5.08867551424852
1,luiers,bo,alleenhouderstraat 115-01/52,tilburg,0,0,1,51.56275315685627,5.067742601527137
1,glas,bo,kerkstraat 9,berkel-enschot,,,,51.57800528022431,5.1358670292976365
1,luiers,bo,kerkstraat 9,berkel-enschot,0,0,4,51.57796129032671,5.135894408699403
1,luiers,bo,vlierakkerweg 4,berkel-enschot,0,0,4,51.58688857200708,5.15332554750062
1,glas,bo,schoorstraat 2-a,udenhout,,,,51.612913351212,5.137792483308663
1,luiers,bo,schoorstraat 2-a,udenhout,0,0,2,51.61292686899634,5.137732532182454
1,luiers,bo,zeshoevenstraat 35,udenhout,0,0,4,51.607621814479856,5.144465677791296
1,luiers,bo,kreitenmolenstraat 149,udenhout,0,0,4,51.60816743611494,5.1524544406385475
2,textiel,bo,kreitenmolenstraat 149,udenhout,,,,51.608149976588905,5.15244050051645
1,luiers,bo,boterbloem 24,udenhout,0,0,4,51.61086848257447,5.13747109799312
1,luiers,bo,groenvelde 18,udenhout,0,0,4,51.60982137378859,5.152595893871041
1,luiers,bo,hoefstraat 246,tilburg,0,0,2,51.56961704381772,5.092142597780685
1,glas,bo,kerkstraat 9,berkel-enschot,,,,51.57794163049201,5.135909921950422
1,glas,on,kloosterstraat 5b,biezenmortel,,,,51.62446834040563,5.1778001982871755
1,textiel,bo,capucijnenstraat 42,biezenmortel,,,,51.62657661340271,5.177918979088321
1,luiers,bo,reigerstraat 6,tilburg,0,0,1,51.54611011042509,5.100156325342619
1,luiers,bo,de fallastraat 95,tilburg,0,0,1,51.590079118722,5.089769105826716
1,luiers,bo,leharstraat 130,tilburg,,,,51.58733988939229,5.0910128016256815
1,glas,bo,baden powellaan 127,tilburg,,1,,51.57596689443748,5.03179454169309
1,textiel,on,beethovenlaan 10-94,tilburg,,,,51.584912401864045,5.08653313517379
1,luiers,bo,beneluxlaan 67,tilburg,,,,51.57181655966212,5.049273918952488
1,glas,bo,kwendelhof 55-198,tilburg,,,,51.57744730173942,5.02962534822868
2,textiel,bo,renkumlaan 35,tilburg,,,,51.58976060595606,4.979075969773765
1,textiel,bo,bruinissestraat 60,tilburg,,,,51.58256271082312,5.013859657766821
1,textiel,bo,caspar houbenstraat 8,tilburg,,,,51.55405485060245,5.1096518501294765
1,textiel,bo,durendaelweg 2,berkel-enschot,,,,51.583587656289865,5.147361444188046
2,textiel,bo,groenstraat 252,tilburg,,,,51.54603949438177,5.084909263385018
1,glas,on,kreitenmolenstraat 149,udenhout,,,,51.60780830942352,5.152686474803473
1,pmd,on,wagnerplein 5,tilburg,,,,51.58420549274031,5.084612617262061
1,glas,on,wagnerplein 5,tilburg,,,,51.58422486654484,5.084622230271775
1,glas,on,groenstraat 119,tilburg,,,,51.54701743433497,5.092740002687656
1,glas,bo,frederik van eedenstraat 15,tilburg,,,,51.54928260379119,5.066033750628953
1,glas,on,jan heijnstraat 6,tilburg,,,,51.56277706887721,5.076443596407254
1,glas,on,jan heijnstraat 6,tilburg,,,,51.562761228511306,5.0764092298584025
1,luiers,bo,renkumlaan 35,tilburg,0,0,1,51.589784667488225,4.979082075336386
1,luiers,on,liesveldstraat 1,tilburg,0,0,1,51.58754928559556,5.006054993632308
1,luiers,bo,witbrantlaan west 109,tilburg,0,0,1,51.570288886294975,4.9951720688748065
1,luiers,bo,duurswoudelaan 1,tilburg,0,0,1,51.57908015762196,5.011438165928577
1,luiers,bo,berkenrodelaan 9-85,tilburg,0,0,1,51.58420982066161,5.018325814026491
1,glas,bo,berkenrodelaan 9-85,tilburg,,,,51.58419781442278,5.018307259884012
1,luiers,bo,sinopelstraat 65,tilburg,0,0,1,51.57355297454982,5.042020852150885
1,glas,bo,weteringlaan 74,tilburg,,,,51.54908217697521,5.041434567153471
1,luiers,bo,dalfsenlaan 50,tilburg,,,,51.5763023856544,5.016964937710838
1,luiers,bo,hillegomlaan 50,tilburg,,0,1,51.582467824454234,5.001409681108506
1,luiers,bo,sweelincklaan 450,tilburg,0,0,1,51.582831843767316,5.103416680032437
1,luiers,bo,sullivandreef 3,tilburg,0,0,1,51.58034303568324,5.100866640083126
1,luiers,bo,nassauplein 39,tilburg,0,0,1,51.57275519030552,5.067086057297329
1,luiers,bo,rentmeesterlaan 37,tilburg,0,0,1,51.57174871142688,5.07216794807117
1,glas,bo,zeshoevenstraat 35,udenhout,,,,51.6076055654854,5.14444948822056
1,textiel,on,liesveldstraat 1,tilburg,,,,51.58756852372867,5.006000817973997
1,luiers,bo,witbrantlaan oost 2,tilburg,0,0,1,51.56730404955263,5.0162015187712825
1,luiers,bo,besterdring 110,tilburg,0,0,1,51.56287938323984,5.091444288930808
1,textiel,on,koolhovenlaan rotonde 0,tilburg,,,,51.57073008236606,4.992053279498619
1,luiers,on,koolhovenlaan rotonde 0,tilburg,0,0,1,51.57073435411019,4.992025700746371
1,pmd,on,koolhovenlaan rotonde 0,tilburg,,,,51.57074213345917,4.991967592912766
1,glas,on,koolhovenlaan rotonde 0,tilburg,,,,51.57073817638322,4.99199625075279
1,glas,bo,franz lisztstraat 136-230,tilburg,,,,51.58297179978624,5.07943097202822
1,glas,bo,kloosterstraat 1,tilburg,,,,51.55396109052598,5.08329565010586
1,glas,bo,groenstraat 252,tilburg,,,,51.546045468395704,5.0848836030055
1,glas,on,wagnerplein 92,tilburg,,,,51.58443423808224,5.0867035169123005
1,glas,bo,wethouder v ierlantstraat 3,tilburg,,,,51.55138513770476,5.105982564764203
1,glas,bo,wethouder v ierlantstraat 3,tilburg,,,,51.55137060494692,5.105996801588748
1,glas,on,statenlaan 127-205,tilburg,,,,51.569827142832985,5.051859255332316
1,textiel,on,kerkenbosplaats 1,tilburg,,,,51.57815834731602,5.0061442016271
1,textiel,bo,witbrantlaan oost 2,tilburg,,,,51.56730415468943,5.016233247288735
1,luiers,on,wagnerplein 5,tilburg,0,0,1,51.584790692924834,5.084893686589809
1,luiers,bo,generaal smutslaan 660-858,tilburg,0,0,1,51.54514344310463,5.069520153714603
1,luiers,bo,heyhoefpromenade 313-359,tilburg,0,0,1,51.57772923134048,5.0039968590055866
1,luiers,on,koolhovenlaan 145,tilburg,0,0,1,51.57398872060992,4.971306020810147
1,glas,bo,fatimastraat 2k,tilburg,,,,51.55228818157579,5.10477717314329
1,textiel,on,pater ruttenstraat 1,tilburg,,,,51.57486620244072,5.083663221993481
1,pmd,on,pater ruttenstraat 1,tilburg,,,,51.57488413703779,5.083662705464294
1,glas,on,pater ruttenstraat 1,tilburg,,,,51.57497436647787,5.083664647258182
1,luiers,bo,dalempromenade 2,tilburg,0,0,1,51.582436665794624,4.983327077988159
1,pmd,on,curlingstraat 11,tilburg,,0,,51.54117842966524,5.07568253244498
1,textiel,on,curlingstraat 11,tilburg,,,,51.541198434437916,5.075686091320194
1,glas,on,curlingstraat 11,tilburg,,,,51.54121633502096,5.075688322600556
1,textiel,on,koningsoord 131-180,berkel-enschot,,,,51.586721716890324,5.133668625006725
1,glas,on,koningsoord 131-180,berkel-enschot,,,,51.58668718500958,5.133693356009387
1,glas,on,koningsoord 131-180,berkel-enschot,,,,51.586668981641786,5.133704309780006
1,glas,on,koningsoord 131-180,berkel-enschot,,,,51.5867047375954,5.133680740730876
1,glas,on,magazijnstraat 24-50,tilburg,,,,51.55886580198666,5.088832714949802
1,pmd,on,magazijnstraat 24-50,tilburg,,,,51.55882833415142,5.08882866798847
1,textiel,on,magazijnstraat 24-50,tilburg,,,,51.55880870492562,5.0888252206099525
1,luiers,bo,hoolstraat 2 (milieustraat),berkel-enschot,0,0,2,51.59559612282257,5.1424656212189594
1,glas,bo,karel doormanlaan 1,tilburg,,,,51.54510586633444,5.0605170862876205
1,luiers,bo,academielaan 8-a,tilburg,0,0,1,51.56037854773106,5.056779585757448
1,glas,bo,academielaan 8-a,tilburg,,,,51.56044221912142,5.056788878480836
1,luiers,bo,baden powellaan 127,tilburg,0,0,1,51.57599176211786,5.031802703987567
1,textiel,bo,frederik van eedenstraat 15,tilburg,,,,51.54932287881179,5.066067594818129
1,glas,bo,friezenlaan 44-86,tilburg,,,,51.555573576108245,5.047764667014558
1,glas,bo,reigerstraat 6,tilburg,,,,51.54610549370118,5.10012771503747
1,glas,on,reitse hoevenstraat 107,tilburg,,,,51.57018004165041,5.0625545500121145
1,luiers,bo,spoordijk 72,tilburg,0,0,1,51.561276957847575,5.105746519843942
1,glas,on,tivolistraat 131,tilburg,,,,51.55747037462636,5.0930237331232515
1,textiel,bo,koolhovenlaan 145,tilburg,,,,51.573998154096586,4.971248580999326
1,pmd,on,verdiplein 102,tilburg,,,,51.590181496470706,5.0792046504999835
1,glas,on,dalempromenade 2,tilburg,,,,51.582455980673984,4.983352592235673
1,luiers,bo,durendaelweg 2,berkel-enschot,0,0,4,51.58359873235672,5.147381756919228
1,glas,bo,hazelaarstraat 95-249,tilburg,,,,51.56077216892345,5.068854223625333
1,glas,bo,hoffmannlaan 145-655,tilburg,,0,,51.579917586281525,5.082174306534507
1,glas,bo,hogeschoollaan 100,tilburg,,,,51.56410119557485,5.045935415760572
1,glas,bo,kapelmeesterlaan 425-519,tilburg,,,,51.593874673811264,5.078205739398471
1,textiel,bo,kerkstraat 9,berkel-enschot,,,,51.57798217141337,5.1358800110570035
1,luiers,bo,koningsoord 131-180,berkel-enschot,0,0,4,51.58667446573864,5.133736731889719
1,glas,bo,lambert de wijsstraat 11,tilburg,,,,51.571188016524204,5.075635809682937
1,textiel,bo,langendijk 81,tilburg,,,,51.587475159340705,4.986699658147038
1,glas,bo,minckelersstraat 34,tilburg,,,,51.56369688835452,5.087298995091531
1,pmd,on,wagnerplein 92,tilburg,,,,51.58444700333009,5.086641434584892
1,textiel,on,pater van den elsenplein 34-01/30,tilburg,,,,51.540275472485455,5.09300057005748
1,textiel,on,tongerloplein 23,udenhout,,,,51.60916274763452,5.14248774046567
1,textiel,on,wagnerplein 92,tilburg,,,,51.58444140658609,5.086672055733263
1,glas,on,beethovenlaan 10-94,tilburg,,,,51.584919844315735,5.086503359975303
1,glas,on,liesveldstraat 1,tilburg,,,,51.58757695755142,5.005976740706435
1,glas,on,dalempromenade 2,tilburg,,,,51.58245886544403,4.983399816651831
1,glas,bo,hillegomlaan 50,tilburg,,,,51.58243190237456,5.001432935390795
1,glas,bo,kazernehof 75,tilburg,,,,51.55640966859767,5.094264008318511
1,textiel,bo,witbrantlaan west 109,tilburg,,,,51.57029332692126,4.995136193950335
1,glas,bo,koningsplein 245-254,tilburg,,,,51.55313413936426,5.088692833123121
1,textiel,bo,schoorstraat 2-a,udenhout,,,,51.61291905682478,5.137764910892052
1,glas,bo,schubertstraat 468-562,tilburg,,,,51.58202395968684,5.089889799859158
1,glas,bo,schubertstraat 130-224,tilburg,,,,51.58238784270809,5.0934375153868885
1,glas,on,liesveldstraat 1,tilburg,,,,51.58758700718801,5.005950626836591
1,glas,bo,achthoevenstraat 43,udenhout,,,,51.61285629408475,5.148929864527688
1,luiers,bo,lage witsiebaan 400,tilburg,0,0,1,51.57584209974361,5.038044048083954
1,luiers,bo,maasbommelstraat 1,tilburg,0,0,1,51.593385507925944,4.99552855015937
1,glas,bo,indigolaan 30,tilburg,,,,51.573351191115044,5.037469604394158
1,luiers,bo,fatimastraat 24-01/24,tilburg,0,0,1,51.550417711089054,5.099940080874313
1,glas,on,petrus canisiusstraat 1-25,tilburg,,,,51.569636901997036,5.059292094263819
1,glas,on,talent square 1-150,tilburg,,,,51.560518775971175,5.07632819713135
1,luiers,bo,karel doormanlaan 1,tilburg,0,0,1,51.54509307032416,5.060488235219093
1,luiers,bo,capucijnenstraat 42,biezenmortel,3,2,4,51.626536171086215,5.177927460932973
1,luiers,bo,burgemeester van de mortelplein 41,tilburg,0,1,1,51.55048569200882,5.058444479613304
1,textiel,bo,durendaelweg 2,berkel-enschot,,,,51.583577106547914,5.147344002787025
1,textiel,bo,langendijk 81,tilburg,,,,51.58749603127649,4.986703660016206
1,luiers,on,verdiplein 102,tilburg,0,0,1,51.590164040305254,5.079199777442092
1,glas,bo,dijksterhuissstraat 57,tilburg,,,,51.568325529902985,5.099297206862995
