ZAAKNUMMER,ZAAKTYPECODE,KANAAL,OMSCHRIJVING,TOELICHTING,REGISTRATIEDATUM,STARTDATUM,EINDDATUM,GEPLANDE EINDDATUM,CASE_TYPE_ID,NIVEAU1CASE,NIVEAU2CASE,NIVEAU3CASE,class_classificatie,class_vies,class_stuk,class_overlast,class_niet_relevant,STRAATNAAM,HUISNUMMER,POSTCODE,BUURTCODE,BUURT,WIJKCODE,WIJK,WOONPLAATS,X-coordinaat,Y-coordinaat,LONGITUDE,LATITUDE,BAG_STRAATNAAM,PC6_BRON,PC6
18691,MLD0701,WEBFORM,aanhangers / caravans,"Geachte heer/mevrouw,ongeveer 6 weken terug heb ik melding gemaakt van aanhanger overlast op de Philippusweg t.h.v. nummer 6 t/m 10 (overkant). Er staan op dit moment circa 7 aanhangers gestald op de openbare weg, deze staan er al langer als 2 jaar.Wat gaat u hier aan doen?Neem a.u.b. actie !!!",20111210090829,20111212,20111229,20111215,261,Overlast,Parkeeroverlast,aanhangers / caravans,parkeren,ONWAAR,ONWAAR,WAAR,ONWAAR,Philippusweg,8,3125AS,81,Spaanse Polder,80,Industriegebied,Schiedam,,,4.411108493,51.92642477,Philippusweg,melding,3125AS
14370,MLD0821,WEBFORM,OV 1 lamp stuk,al enige tijd is er een ov kapot ook na diverse telefoontjes wordt er niets aan gedaan,20111010201052,20111011,20111012,20111014,266,Straatmeubilair,Straatverlichting,OV 1 lamp stuk,verlichting,ONWAAR,WAAR,WAAR,ONWAAR,Rembrandtlaan,27,3117VC,31,Schildersbuurt,30,West,Schiedam,,,4.383540348,51.91257533,Rembrandtlaan,melding,3117VC
29237,MLD0303,WEBFORM,vuilniszakken,"gaat over afvalbak. staat hierboven niet aangegeven.In onze staat afvalbak geplaatst in het gras in een bocht vlak langs straat. a. niemand steekt over om iets weg te gooien. b. nauwe straat nauwelijks passeren auto's, in de bocht, hier gebeuren ongelukken. .m.vr.gr.Irma Nuijten",20120328132651,20120329,20120417,20120403,326,dumpen van vuilnis,vuilniszakken,,grofvuil en dumping,WAAR,ONWAAR,WAAR,ONWAAR,Gustav Vasaborg,45,3124TH,98,Sveaborg en -Dal,90,Woudhoek en Spaland/Sveaparken,Schiedam,,,4.385563633,51.94510623,Gustav Vasaborg,melding,3124TH
31473,MLD0821,WEBFORM,OV 1 lamp stuk,Straatlantaarn doet het al heel lang niet,20120421120902,20120423,20120510,20120426,266,Straatmeubilair,Straatverlichting,OV 1 lamp stuk,verlichting,ONWAAR,WAAR,WAAR,ONWAAR,Burgemeester Van Haarenl,973,3119GG,67,Nolensbuurt,60,Nieuwland,Schiedam,,,4.38765286,51.92202346,Burgemeester Van Haarenlaan,melding,3119GG
44260,MLD0402,WEBFORM,hinderlijk gedrag,Betreft werkzaamheden aan het Heijermansplein te Schiedam. Na een lek aan de waterleiding heb ik mijn gevel onderzocht. Hier heb ik een scheur en schade aan mijn gevel ontdekt. Dit door zwaar verkeer en werkzaamheden in het van Gasterenpad. Ik verzoek u naar aanleiding van scheurvorming een bouwonderzoek te doen.,20121001193107,20121002,20121107,20121005,265,Overlast,Hinderlijk gedrag personen/groepen,hinderlijk gedrag,,,,,,Arnoldipad,37,3123NB,91,Toneelspelersbuurt,90,Woudhoek en Spaland/Sveaparken,Schiedam,,,4.371641929,51.93952839,Arnoldipad,melding,3123NB
42025,MLD0102,WEBFORM,onbeheerde (brom)fietsen,"De meeste bewoners die aan het einde van de Lange Nieuwstraat wonen (voor de brug) hebben geen schuur of tuin en zijn genoodzaakt hun fiets op straat te zetten . Deze worden alleen met regelmaat vernield, zoals afgelopen week zijn alle ventielen eruit gedraaid, ook bij onze fietsen. Ook staan er vaak zoveel fietsen dat uit de auto stappen aan de kant van de stoep niet mogelijk is. Maar de vernielingen zijn het grootste probleem.",20120902200746,20120903,20120905,20120906,404,Overlast,(Brom)fietsen,onbeheerde (brom)fietsen,,ONWAAR,ONWAAR,WAAR,ONWAAR,Lange Nieuwstraat,19,3111AC,23,De Plantage,20,Centrum (tussen havens en grachten),Schiedam,,,4.405719597,51.90940681,Lange Nieuwstraat,melding,3111AC
40181,MLD0502,WEBFORM,niet opruimen hondenpoep,"Op de grasvelden van de Zwaluwlaan, grenzend aan het Hargplein, stonden tot voor kort 2 verbodsborden om honden uit te laten. Die borden zijn in het voorjaar weggehaald (waarom??) en niet meer teruggeplaatst. Gevolg: er worden steeds meer en meer honden op die grasvelden uitgelaten met als gevolg steeds meer hondenpoep.  Daarom een dringend verzoek de borden weer terug te plaatsen. Toen ze er nog stonden was er veel minder overlast van hondenpoep.",20120808172215,20120809,20120823,20120814,268,Overlast,Hondenoverlast,niet opruimen hondenpoep,hondenpoep,WAAR,ONWAAR,WAAR,ONWAAR,Hargplein,9,3121VB,76,Vogelbuurt,70,Groenoord en Kethel,Schiedam,,,4.377629671,51.93400997,Hargplein,melding,3121VB
36523,MLD0701,WEBFORM,aanhangers / caravans,"Helaas worden de parkeerplaatsen bij mij voor de deur te vaak gebruikt voor bedrijfsmatig parkeren. 18 juni vanaf 18:45 staat er een auto met oplegger en aanhanger, gezamenlijke lengte 2,5 parkeervak, met daarop twee personenauto's. Kenteken: 55-VG-LZEigenaar: Fa. Kombe uit BrakelTel Nr. 0624 291877",20120618194944,20120619,20120623,20120622,261,Overlast,Parkeeroverlast,aanhangers / caravans,parkeren,ONWAAR,ONWAAR,WAAR,ONWAAR,Burgemeester Knappertlaa,41,3116BB,37,Oranjekwartier,30,West,Schiedam,,,4.391721558,51.91104132,Burgemeester Knappertlaan,melding,3116BB
44352,MLD0822,WEBFORM,OV meer lampen stuk,"Er zijn lantaarn lampen stuk.Dat gebeurt  meerderen malen per maand,de enen keer blijfen ze de hele dag branden en nu al 2 keer in de week branden ze weer niet ze branden nu al 3 dagen niet.het gebeurt zeker met regelmaat dat ze niet branden.",20121002122219,20121003,20121026,20121008,258,Straatmeubilair,Straatverlichting,OV meer lampen stuk,verlichting,ONWAAR,WAAR,WAAR,ONWAAR,Thorbeckesingel,47,3118RW,68,Wibautbuurt,60,Nieuwland,Schiedam,,,4.384537602,51.91795186,Thorbeckesingel,melding,3118RW
47639,MLD0502,WEBFORM,niet opruimen hondenpoep,"Ls.Nu de dijk niet meer toegankelijk is voor wandelaars ivm aanleg A4 en het wandelpad door de bossage ook is afgesloten ivm het kappen van de bomen lopen veel mensen met hun honden langs de speeltoestellen, grasstrook en door de woonwijk met hun loslopende honden, met als gevolg dat het vol ligt met hondenpoep waar kinderen spelen en ook op de stoepen en vlak voor voortuintjes in de aangrenzende straten. Graag zien wij actie ten opzichten van deze overlast.Mvg. Esther Meertens",20121116154037,20121119,20121128,20121122,268,Overlast,Hondenoverlast,niet opruimen hondenpoep,hondenpoep,WAAR,ONWAAR,WAAR,ONWAAR,Tinnengieterhof,3,3123PH,92,Ambachtenbuurt,90,Woudhoek en Spaland/Sveaparken,Schiedam,,,4.362544401,51.94287076,Tinnengieterhof,melding,3123PH
61380,MLD0101,WEBFORM,(brom)fietswrakken,"Voor de buitendeur staan al geruime tijd 2 fietsen die volledig ''op'' zijn. De zadels zijn eraf, ze zijn volledig verroest, voorwiel eraf etc. Deze fietsen houden de berschikbare fietsplekken in beslag. Ook zitten de verankerde fietsplekken niet meer goed in de grond, de tegels eromheen zijn volledig losgerukt/scheef waardoor ik mijn eigen fiets daar niet netjes kwijt kan.",20130422111259,20130423,20130516,20130426,264,Overlast,(Brom)fietsen,(brom)fietswrakken,,ONWAAR,ONWAAR,WAAR,ONWAAR,Diepenbrockstraat,90,3122AD,72,Groenoord-Zuid,70,Groenoord en Kethel,Schiedam,,,4.371591394,51.92767694,Diepenbrockstraat,melding,3122AD
67024,MLD0822,WEBFORM,OV meer lampen stuk,Straatverlichting  (gevelverlichting) uit / defect. Gedeelte Langekerkstraat en Land van Belofte.,20130806233353,20130807,20130827,20130812,258,Straatmeubilair,Straatverlichting,OV meer lampen stuk,verlichting,ONWAAR,WAAR,WAAR,ONWAAR,Land van Belofte,7,3111NW,00,Binnenstad,00,Centrum (binnenstad),Schiedam,,,4.401979565,51.91754924,Land van Belofte,melding,3111NW
65476,MLD0701,WEBFORM,aanhangers / caravans,"Hierbij wil ik U vragen of het mogelijk is om een parkeerplek voor een motor te creëren. De parkeerdruk is redelijk hoog in onze wijk daarom parkeer ik mijn motor op de stoep. Hierdoor wordt de doorgang voor de voetgangers minder. Voor mijn portiek staat een aantal meter bosjes waar naar mijn idee prima een parkeerplek aan de straatkant gemaakt kan worden zodat ik niemand tot last ben. Vriendelijke groet, Rob van Giessen",20130709155504,20130710,20130816,20130715,261,Overlast,Parkeeroverlast,aanhangers / caravans,parkeren,ONWAAR,ONWAAR,WAAR,ONWAAR,Royaardsplein,128,3123AR,91,Toneelspelersbuurt,90,Woudhoek en Spaland/Sveaparken,Schiedam,,,4.368691205,51.93832305,Royaardsplein,melding,3123AR
70560,UD.01.06,TELEFOON,Bestrating plaatselijke verzakking,na eerdere reparatie is het wederom verzakt. Dit komt door wagens die op de stoep parkeren.,20131022092608,20131023,20131030,20131030,368,Bestrating,Bestrating plaatselijke verzakking,,bestrating,ONWAAR,WAAR,WAAR,ONWAAR,Rotterdamsedijk,41,3112AA,17,Rotterdamsedijk,10,Oost,Schiedam,,,4.411736536,51.91364444,Rotterdamsedijk,melding,3112AA
69052,MLD0821,WEBFORM,OV 1 lamp stuk,Lamp kapot van lantaarnpaal t.h.v. Singel 15/17,20130920170751,20130923,20130927,20130926,266,Straatmeubilair,Straatverlichting,OV 1 lamp stuk,verlichting,ONWAAR,WAAR,WAAR,ONWAAR,Singel,15,3112GH,17,Rotterdamsedijk,10,Oost,Schiedam,,,4.40351305,51.91557847,Singel,melding,3112GH
72369,MLD0821,TELEFOON,Straatverlichting; OV 1 lamp stuk,Lamp brandt overdag en 's nachts niet.,20131115164126,20131118,20131118,20131121,266,Straatmeubilair,Straatverlichting,OV 1 lamp stuk,verlichting,ONWAAR,WAAR,WAAR,ONWAAR,Warande,215,3117CL,35,Liduinabuurt,30,West,Schiedam,,,4.394687927,51.91348251,Warande,melding,3117CL
72673,MLD0821,WEBFORM,Straatverlichting; OV 1 lamp stuk,Straatverlichting Leeuweriksingel ter hoogte van nr. 15 is kapot.,20131120083047,20131121,20131120,20131126,266,Straatmeubilair,Straatverlichting,OV 1 lamp stuk,verlichting,ONWAAR,WAAR,WAAR,ONWAAR,Leeuweriksingel,15,3121XL,76,Vogelbuurt,70,Groenoord en Kethel,Schiedam,,,4.380098166,51.93415422,Leeuweriksingel,melding,3121XL
71839,MLD0822,WEBFORM,Straatverlichting; OV meer lampen stuk,De lantaarns doen het al 4 dagen niet meer,20131110195920,20131111,20131111,20131114,258,Straatmeubilair,Straatverlichting,OV meer lampen stuk,verlichting,ONWAAR,WAAR,WAAR,ONWAAR,Faassenplein,58,3123NK,91,Toneelspelersbuurt,90,Woudhoek en Spaland/Sveaparken,Schiedam,,,4.370203173,51.94050964,Faassenplein,melding,3123NK
72278,MLD0822,TELEFOON,Straatverlichting; OV meer lampen stuk,Meerdere lichtmasten branden niet. Ze zijn mogelijk defect.,20131114163759,20131115,20131118,20131120,258,Straatmeubilair,Straatverlichting,OV meer lampen stuk,verlichting,ONWAAR,WAAR,WAAR,ONWAAR,Faassenplein,9,3123NE,91,Toneelspelersbuurt,90,Woudhoek en Spaland/Sveaparken,Schiedam,,,4.369721343,51.93948883,Faassenplein,melding,3123NE
71290,UC.01.04,TELEFOON,Bomen; Bomen beschadigd,2 Bomen zijn door de harde wind scheef gaan staan.,20131104085459,20131105,20131113,20131107,278,Groen,Bomen,Bomen beschadigd,bomen en beplanting,ONWAAR,WAAR,ONWAAR,ONWAAR,Dr Wibautplein,100,3118KG,68,Wibautbuurt,60,Nieuwland,Schiedam,,,4.383340143,51.91773313,Dr Wibautplein,melding,3118KG
72739,UA.01.06,EMAIL,Op bestrating en in het groen; Overlast bladeren/bloesem op straat,gaat hier om een waaihoek waardoor er veel bladeren liggen. Volgens mevr wordt hier nooit geveegd. Heeft het tot op heden altijd zelf gedaan maar doet dit nu niet meer omdat er ook niemand anders mee helpt.,20131120120640,20131121,20170319,,128,Reiniging,Op bestrating en in het groen,Overlast bladeren/bloesem op straat,bomen en beplanting,ONWAAR,ONWAAR,WAAR,ONWAAR,Joop den Uyllaan,62,3119VH,66,Schiehart,60,Nieuwland,Schiedam,,,4.395888078,51.92264201,Joop den Uyllaan,melding,3119VH
73877,AB.10.0103,TELEFOON,WC Huisvuil met pas; WC HV MP Nog geen pas ontvangen,Mevrouw heeft nog geen pas ontvangen voor de ondergrondse container,20131127120530,20131128,20161121,20131203,12,Afval inzameling,WC Huisvuil met pas,WC HV MP Nog geen pas ontvangen,afvalinzameling,ONWAAR,ONWAAR,ONWAAR,WAAR,Boerhaavelaan,4,3112LH,16,Newtonbuurt,10,Oost,Schiedam,,,4.412021857,51.91830047,Boerhaavelaan,melding,3112LH
72485,MLD0821,TELEFOON,Straatverlichting; OV 1 lamp stuk,de lantaarn brandt helemaal niet,20131118095312,20131119,20131118,20131122,266,Straatmeubilair,Straatverlichting,OV 1 lamp stuk,verlichting,ONWAAR,WAAR,WAAR,ONWAAR,Dam,14,3111BD,21,Brandersbuurt,20,Centrum (tussen havens en grachten),Schiedam,,,4.395731703,51.91788496,Dam,melding,3111BD
71625,UE.01.05,TELEFOON,Riolering water op straat bij kolk/put,2 putten stromen bij harde regenval over waardoor er 10 tot 15 cm water in het tussenpad,20131107120405,20131108,20131113,20131113,435,Riolering,Riolering water op straat bij kolk/put,,riolering en water,ONWAAR,ONWAAR,WAAR,ONWAAR,Iepenlaan,26,3121BB,77,Tuindorp,70,Groenoord en Kethel,Schiedam,,,4.377116895,51.93175476,Iepenlaan,melding,3121BB
71696,MLD0401,WEBFORM,Gedrag personen; hanggroep,"Overlast hangjeugd onder de doorgangspoort aan het Vendelhof (zijde centrum).Hangen nu dagelijks s'middags en s'avonds zo'n 25 jongeren rond.
Maken lawaai en laten afval achter.De situatie wordt voor de bewoners steeds grimmiger en gevaarlijk.",20131108084351,20131111,20131112,20131114,263,Overlast,Hinderlijk gedrag personen/groepen,hanggroep,,,,,,Vendelhof,106,3119DM,67,Nolensbuurt,60,Nieuwland,Schiedam,,,4.392128181,51.91885147,Vendelhof,melding,3119DM
74015,UD.01.01,WEBFORM,Gat in de bestrating,"In de hoek van de Van der Duyn van Maasdamstraat is met de storm een boom omgewaaid, in de stoep is nog een gat waar al iemand is gestruikeld. Daarna is er door de groenvoorziening (bladblazers) een afzet lint gespannen. Graag zou ik zien dat dit gerepareerd wordt.
Met dank.",20131128145453,20131129,20131203,20131204,87,Bestrating,Gat in de bestrating,,,ONWAAR,WAAR,WAAR,ONWAAR,Van der Duyn van Maasdam,2,3118LD,62,Spieringshoek,60,Nieuwland,Schiedam,,,4.381133377,51.92134609,Van der Duyn van Maasdamstraat,melding,3118LD
71704,UA.01.06,TELEFOON,Op bestrating en in het groen; Overlast bladeren/bloesem op straat,Er liggen heel veel bladeren op straat. Havendijk is wel schoogemaakt bij mw overgeslagen waardoor de putten ook verstopt komen te zitten.,20131108093221,20131111,20131113,,128,Reiniging,Op bestrating en in het groen,Overlast bladeren/bloesem op straat,bomen en beplanting,ONWAAR,ONWAAR,WAAR,ONWAAR,Havendijk,247,3114EC,44,Maasboulevard,40,Zuid,Schiedam,,,4.405251321,51.90250792,Havendijk,melding,3114EC
72236,UC.01.03,TELEFOON,Bomen; Bomen takken gebroken,Van 1 van de 5 treurwilgen op het grasveld is een grote tak afgebroken.,20131114110008,20131115,20131120,20131120,68,Groen,Bomen,Bomen takken gebroken,bomen en beplanting,ONWAAR,WAAR,WAAR,ONWAAR,Smetanalaan,11,3122HM,74,Groenoord-Noord,70,Groenoord en Kethel,Schiedam,,,4.366073447,51.93544036,Smetanalaan,melding,3122HM
74064,AB.10.0111,TELEFOON,WC Huisvuil met pas; WC HV MP Huisvuil ernaast,Mevrouw geeft aan dat de bewoners die nog geen pas hebben het huisvuil naast de container zetten.,20131129102613,20131202,20131215,20131203,16,Afval inzameling,WC Huisvuil met pas,WC HV MP Huisvuil ernaast,afvalinzameling,WAAR,ONWAAR,WAAR,ONWAAR,Prof Kamerlingh Onnesln,112,3112VK,14,Stationsbuurt,10,Oost,Schiedam,,,4.410666553,51.91950008,Professor Kamerlingh Onneslaan,melding,3112VK
73391,UD.01.01,TELEFOON,Gat in de bestrating,"Het betreft een gat van 1m breed 1 m lang en 0,5m diep. Bevindt zich naast een put. Vermoedelijk is het wel zo als je er overheen rijdt dat het gat nog dieper zal zakken",20131126104349,20131127,20131203,20131202,87,Bestrating,Gat in de bestrating,,,ONWAAR,WAAR,WAAR,ONWAAR,De Akkers,71,3124AC,97,De Akkers en De Velden,90,Woudhoek en Spaland/Sveaparken,Schiedam,,,4.377420846,51.9414268,De Akkers,melding,3124AC
72682,UD.01.09,TELEFOON,Bestrating overlast gladheid,Mevrouw geeft aan dat er sprake is van gladheid. Graag een verzoek tot strooien.,20131120090207,20131121,20131121,20131122,91,Bestrating,Bestrating overlast gladheid,,bestrating,ONWAAR,ONWAAR,WAAR,ONWAAR,Dilleveld,80,3124VC,97,De Akkers en De Velden,90,Woudhoek en Spaland/Sveaparken,Schiedam,,,4.379282922,51.9471238,Dilleveld,melding,3124VC
75423,AB.08.0107,TELEFOON,Wijkcontainers Huisvuil; WC HV Grofvuil ernaast,"Krukje,karton,TV....",20131219103902,20131220,20131224,20131223,185,Afval inzameling,Wijkcontainers Huisvuil,WC HV Grofvuil ernaast,grofvuil en dumping,WAAR,ONWAAR,WAAR,ONWAAR,Bart Verhallenplein,117,3122TG,73,Groenoord-Midden,70,Groenoord en Kethel,Schiedam,,,4.369997223,51.9300017,Bart Verhallenplein,melding,3122TG
75293,AB.10.0105,TELEFOON,WC Huisvuil met pas; WC HV MP Pasje stuk,"Pasje geeft aan ongeldig, daarvoor deed hij het wel.",20131217123129,20131218,20161121,20131223,13,Afval inzameling,WC Huisvuil met pas,WC HV MP Pasje stuk,afvalinzameling,ONWAAR,ONWAAR,ONWAAR,WAAR,Lorentzlaan,46,3112KL,15,Wetenschappersbuurt,10,Oost,Schiedam,,,4.414110195,51.91841886,Lorentzlaan,melding,3112KL
74457,UD.01.06,TELEFOON,Bestrating plaatselijke verzakking,Stoeptegels plaatselijk verzakt. +/- 1 m x 1m,20131204152018,20131205,20131206,20131212,368,Bestrating,Bestrating plaatselijke verzakking,,bestrating,ONWAAR,WAAR,WAAR,ONWAAR,Van Limburg Stirumstraat,15,3118LR,62,Spieringshoek,60,Nieuwland,Schiedam,,,4.383096154,51.92135501,Van Limburg Stirumstraat,melding,3118LR
74661,AB.08.0109,TELEFOON,Wijkcontainers Huisvuil; WC HV Deuren containers open,Container is op de stoep gezet ivm plaatsen ondergrondse.  Deuren van de container staan iedere keer open als deze geleegd is......,20131209090707,20131210,20131211,20131211,186,Afval inzameling,Wijkcontainers Huisvuil,WC HV Deuren containers open,afvalinzameling,ONWAAR,ONWAAR,WAAR,ONWAAR,Ringvaart,42,3124PB,95,De Gaarden/Sveafors,90,Woudhoek en Spaland/Sveaparken,Schiedam,,,4.387110157,51.93853321,Ringvaart,melding,3124PB
74930,AB.04.0111,EMAIL,Grofvuil; GV Onjuist aangeboden,1x droog rek en 2 x plastictasjes,20131211153408,20131212,20131211,20131213,422,Afval inzameling,Grofvuil,GV Onjuist aangeboden,grofvuil en dumping,WAAR,ONWAAR,WAAR,ONWAAR,Buys Ballotsingel,98,3112JG,16,Newtonbuurt,10,Oost,Schiedam,,,4.413500736,51.91738645,Buys Ballotsingel,melding,3112JG
74812,AB.10.0111,TELEFOON,WC Huisvuil met pas; WC HV MP Huisvuil ernaast,Er worden vuilniszakken naast de container gezet.,20131210111329,20131211,20131213,20131212,16,Afval inzameling,WC Huisvuil met pas,WC HV MP Huisvuil ernaast,afvalinzameling,WAAR,ONWAAR,WAAR,ONWAAR,Voltastraat,18,3112MR,16,Newtonbuurt,10,Oost,Schiedam,,,4.410392993,51.91722579,Voltastraat,melding,3112MR
75303,AB.08.0106,TELEFOON,Wijkcontainers Huisvuil; WC HV Huisvuil ernaast,Mevrouw geeft aan dat sinds de containers zijn afgesloten er vaak vuilniszakken naast de containers worden geplaatst. Dit heeft tot gevolg dat er ook zwerfvuil door de wijk heen ligt.,20131217133457,20131218,20131220,20131219,184,Afval inzameling,Wijkcontainers Huisvuil,WC HV Huisvuil ernaast,afvalinzameling,WAAR,ONWAAR,WAAR,ONWAAR,Ampèrestraat,47,3112MB,16,Newtonbuurt,10,Oost,Schiedam,,,4.411210594,51.91685063,Ampèrestraat,melding,3112MB
74853,AB.10.0103,TELEFOON,WC Huisvuil met pas; WC HV MP Nog geen pas ontvangen,Geen pas ontvangen,20131210154433,20131211,20161121,20131216,12,Afval inzameling,WC Huisvuil met pas,WC HV MP Nog geen pas ontvangen,afvalinzameling,ONWAAR,ONWAAR,ONWAAR,WAAR,Boerhaaveplein,112,3112LN,17,Rotterdamsedijk,10,Oost,Schiedam,,,4.412132103,51.91497645,Boerhaaveplein,melding,3112LN
74886,UA.01.06,TELEFOON,Op bestrating en in het groen; Overlast bladeren/bloesem op straat,voor de woning bij de fietsbeugels zit een put en deze raakt verstopt door de bladeren die er omheen liggen. Mevr geeft aan dat hier nooit de veegwagen komt omdat deze er niet bij kan komen omdat de put eigenlijk tussen beugels in ligt,20131211083633,20131212,20131213,,128,Reiniging,Op bestrating en in het groen,Overlast bladeren/bloesem op straat,bomen en beplanting,ONWAAR,ONWAAR,WAAR,ONWAAR,Henriëtte Bosmansplein,37,3122CA,73,Groenoord-Midden,70,Groenoord en Kethel,Schiedam,,,4.372078512,51.93153862,Henriëtte Bosmansplein,melding,3122CA
76597,AB.10.0105,TELEFOON,WC Huisvuil met pas; WC HV MP Pasje stuk,Meneer heeft het bij 3 containers geprobeerd maar op geen van de 3 werkt zijn pas. Dit is pas sinds afgelopen zondag.,20140113090146,20140114,20170319,20140117,13,Afval inzameling,WC Huisvuil met pas,WC HV MP Pasje stuk,afvalinzameling,ONWAAR,ONWAAR,ONWAAR,WAAR,Walvisstraat,8,3111BR,22,Walvisbuurt,20,Centrum (tussen havens en grachten),Schiedam,,,4.395972037,51.91609199,Walvisstraat,melding,3111BR
75678,UE.01.03,WEBFORM,Riolering verstopt,"Na een flinke regenbui loopt de riolering in mijn woning niet meer door. Dit is een terugkerend probleem. Ik kan hierdoor het toilet niet gebruiken, niet douchen, niet afwassen etc. Etc.",20131224162615,20131227,20161121,20131230,421,Riolering,Riolering verstopt,,riolering en water,ONWAAR,WAAR,WAAR,ONWAAR,Westfrankelandsestraat,46,3117AS,33,Fabribuurt,30,West,Schiedam,,,4.391272342,51.91448639,Westfrankelandsestraat,melding,3117AS
75899,AB.10.0116,TELEFOON,WC Huisvuil met pas; WC HV MP Trommel geblokkeerd,"Container is geblokkeerd, kan niets meer ingegooid worden.",20131230150415,20131231,20131231,20140102,125,Afval inzameling,WC Huisvuil met pas,WC HV MP Trommel geblokkeerd,afvalinzameling,ONWAAR,WAAR,WAAR,ONWAAR,Merwedestraat,33,3114SW,44,Maasboulevard,40,Zuid,Schiedam,,,4.407898912,51.90370472,Merwedestraat,melding,3114SW
75848,UA.01.13,TELEFOON,Op bestrating en in het groen; Overlast van zwerfvuil in beplanting,Overmatig veel zwerfafval om en nabij plantsoen school de Gorzen,20131230105330,20131231,20140108,20140103,129,Reiniging,Op bestrating en in het groen,Overlast van zwerfvuil in beplanting,zwerfvuil,WAAR,ONWAAR,WAAR,ONWAAR,Dwarsstraat,1,3114LA,41,Noletbuurt,40,Zuid,Schiedam,,,4.40623249,51.90612177,Dwarsstraat,melding,3114LA
76306,UB.05.02,TELEFOON,"Beton, hout of kunststofpaal; Beton, hout of kunststofpaal staat scheef/los",De paaltjes staan te ver uit elkaar de auto's kunnen er nu nog gewoon door. Graag hier naar kijken.,20140107120911,20140108,20170319,20140113,344,Straatmeubilair,"Beton, hout of kunststofpaal","Beton, hout of kunststofpaal staat scheef/los",straatmeubilair,ONWAAR,WAAR,ONWAAR,ONWAAR,Chopinplein,192,3122VM,73,Groenoord-Midden,70,Groenoord en Kethel,Schiedam,,,4.367704597,51.93002172,Chopinplein,melding,3122VM
76540,AB.10.0111,TELEFOON,WC Huisvuil met pas; WC HV MP Huisvuil ernaast,Veel vuilniszakken er naast.,20140110133017,20140113,20140110,20140114,16,Afval inzameling,WC Huisvuil met pas,WC HV MP Huisvuil ernaast,afvalinzameling,WAAR,ONWAAR,WAAR,ONWAAR,Edisonstraat,27,3112LS,16,Newtonbuurt,10,Oost,Schiedam,,,4.413358269,51.91779628,Edisonstraat,melding,3112LS
76390,AB.10.0102,TELEFOON,WC Huisvuil met pas; WC HV MP Nieuwe bewoner heeft geen pas,Meneer heeft nog geen sleutelpas ontvangen.,20140108123458,20140109,20170319,20140114,336,Afval inzameling,WC Huisvuil met pas,WC HV MP Nieuwe bewoner heeft geen pas,afvalinzameling,ONWAAR,ONWAAR,ONWAAR,ONWAAR,Nieuwe Haven,303,3117AD,33,Fabribuurt,30,West,Schiedam,,,4.392325823,51.91699101,Nieuwe Haven,melding,3117AD
76873,UC.01.05,TELEFOON,Bomen; Bomen paal/band,1 paal van de boom is los getrokken waardoor hij alleen nog aan de band vast staat.,20140115143403,20140116,20140128,20140121,69,Groen,Bomen,Bomen paal/band,bomen en beplanting,ONWAAR,ONWAAR,ONWAAR,ONWAAR,Visserstraat,21,3114NS,41,Noletbuurt,40,Zuid,Schiedam,,,4.404256932,51.90694596,Visserstraat,melding,3114NS
77078,AB.08.0101,TELEFOON,Wijkcontainers Huisvuil; WC HV Volle containers,Container zit momenteel vol kan niks meer bij mensen zetten hun huisvuil nu ook naast de container. Hier heb ik ook een melding van gemaakt zaaknummer 77076. Het gebeurt met enige regelmaat dat de containers vol zitten.,20140120092829,20140121,20140120,20140122,183,Afval inzameling,Wijkcontainers Huisvuil,WC HV Volle containers,afvalinzameling,ONWAAR,ONWAAR,WAAR,ONWAAR,Delflandseweg,281,3119XW,65,Hollandiabuurt,60,Nieuwland,Schiedam,,,4.402980801,51.92123186,Delflandseweg,melding,3119XW
77228,UA.01.08,WEBFORM,Op bestrating en in het groen; Overlast van hondenpoep,"De laatste tijd weer erg veel last van mensen die de hondenpoep niet opruimen. Vooral in de avond is dit moeilijk te zien en moet je constant opletten waar je loopt.

Bovendien liggen er ook nog resten van vuurwerkt e.d. misschien een idee om de lange haven op de kruising van de walvis straat grondig schoon te maken.",20140121163727,20140122,20140124,20140127,24,Reiniging,Op bestrating en in het groen,Overlast van hondenpoep,hondenpoep,WAAR,ONWAAR,WAAR,ONWAAR,Lange Haven,99,3111CD,22,Walvisbuurt,20,Centrum (tussen havens en grachten),SCHIEDAM,,,4.396383092,51.91592785,Lange Haven,melding,3111CD
84909,AB.10.0103,TELEFOON,WC Huisvuil met pas; WC HV MP Nog geen pas ontvangen,Is ingeschreven vanaf afgelopen vrijdag 7 maart.,20140310101633,20140311,20170319,20140314,12,Afval inzameling,WC Huisvuil met pas,WC HV MP Nog geen pas ontvangen,afvalinzameling,ONWAAR,ONWAAR,ONWAAR,WAAR,Villastraat,48,3112TE,13,Singelkwartier,10,Oost,Schiedam,,,4.407850942,51.91842117,Villastraat,melding,3112TE
84326,UD.01.06,TELEFOON,Verzakking - plaatselijk,een tegel zakt weg,20140306115457,20140307,20170319,20140314,368,Bestrating,Bestrating plaatselijke verzakking,,bestrating,ONWAAR,WAAR,WAAR,ONWAAR,Nieuwe Haven,3,3114AA,41,Noletbuurt,40,Zuid,Schiedam,,,4.40616282,51.90861793,Nieuwe Haven,melding,3114AA
79254,UD.01.04,EMAIL,Bestrating los/scheef/omhoogst. geen wortelopdruk,"over het pleintje Nassaulaan 69/71/73, over de deplorabele staat",20140207130955,20140210,20170319,20140213,355,Bestrating,Bestrating los/scheef/omhoogst. geen wortelopdruk,,bestrating,ONWAAR,WAAR,WAAR,ONWAAR,Nassaulaan,71,3116ET,37,Oranjekwartier,30,West,Schiedam,,,4.397411743,51.91092432,Nassaulaan,melding,3116ET
88938,UB.01.07,TELEFOON,Afvalbak; Verzoek plaatsing afvalbak,"IVM afsluiting containers, veel zwerfvuil en hondenpoepzakjes op straat en bij de bomen, ook in straatkolken!!!",20140327153343,20140328,20140408,20140422,363,Straatmeubilair,Afvalbak,Verzoek plaatsing afvalbak,straatmeubilair,ONWAAR,ONWAAR,ONWAAR,WAAR,Prins Mauritsstraat,2,3116GG,36,Nassaukwartier,30,West,Schiedam,,,4.400352669,51.90998393,Prins Mauritsstraat,melding,3116GG
78109,UA.01.07,TELEFOON,Op bestrating en in het groen; Overlast bladeren/bloesem in beplanting/gazon,Bij mevrouw aan de tuinzijde liggen veel bladeren. Verzoek om dit op te ruimen.,20140203083806,20140204,20140212,20140211,413,Reiniging,Op bestrating en in het groen,Overlast bladeren/bloesem in beplanting/gazon,bomen en beplanting,ONWAAR,ONWAAR,WAAR,ONWAAR,Johann Straussplein,128,3122ZC,74,Groenoord-Noord,70,Groenoord en Kethel,Schiedam,,,4.368989761,51.935846,Johann Straussplein,melding,3122ZC
83219,UD.01.06,TELEFOON,Verzakking - plaatselijk,Bij de voordeur is de stoep verzakt waardoor bewoonster moeite krijgt met naar binnen en buiten gaan.,20140303120103,20140304,20140326,20140311,368,Bestrating,Bestrating plaatselijke verzakking,,bestrating,ONWAAR,WAAR,WAAR,ONWAAR,Paulus Potterstraat,28,3117XE,31,Schildersbuurt,30,West,Schiedam,,,4.38046656,51.91257964,Paulus Potterstraat,melding,3117XE
78407,UA.01.01,TELEFOON,Op bestrating en in het groen; Overlast van zwerfvuil op verharding,"Ligt door heel de straat blikjes, plastic etc.",20140204113953,20140205,20140212,20140207,351,Reiniging,Op bestrating en in het groen,Overlast van zwerfvuil op verharding,zwerfvuil,WAAR,ONWAAR,WAAR,ONWAAR,Willem Brouwerstraat,20,3114NW,41,Noletbuurt,40,Zuid,Schiedam,,,4.407124936,51.90615346,Willem Brouwerstraat,melding,3114NW
86432,UC.01.01,EMAIL,Bomen; Bomen snoeien,Graag de bomen toppen nemen veel zonlicht weg,20140317091106,20140318,20140320,20140321,67,Groen,Bomen,Bomen snoeien,bomen en beplanting,ONWAAR,ONWAAR,WAAR,ONWAAR,Heelmeesterstraat,43,3123EE,92,Ambachtenbuurt,90,Woudhoek en Spaland/Sveaparken,Schiedam,,,4.365439616,51.94069798,Heelmeesterstraat,melding,3123EE
78768,AB.10.0116,TELEFOON,WC Huisvuil met pas; WC HV MP Trommel geblokkeerd,Mevrouw geeft aan dat de trommel van de ondergrondse container blokkeert. De ondergrondse container geeft niet aan vol te zitten. De trommel blokkeert.,20140205133211,20140206,20140206,20140207,125,Afval inzameling,WC Huisvuil met pas,WC HV MP Trommel geblokkeerd,afvalinzameling,ONWAAR,WAAR,WAAR,ONWAAR,Nieuwe Haven,83,3116AB,36,Nassaukwartier,30,West,Schiedam,,,4.40134942,51.9106169,Nieuwe Haven,melding,3116AB
88220,AB.10.0105,TELEFOON,WC Huisvuil met pas; WC HV MP Pasje stuk,De pas van mijnheer ( 0028705 ) werkt niet op de container Koolwitjehof.,20140324165850,20140325,20170319,20140328,13,Afval inzameling,WC Huisvuil met pas,WC HV MP Pasje stuk,afvalinzameling,ONWAAR,ONWAAR,ONWAAR,WAAR,Koolwitjehof,34,3124BH,96,De Vlinderhoven/Sveaholm,90,Woudhoek en Spaland/Sveaparken,Schiedam,,,4.381079585,51.94283541,Koolwitjehof,melding,3124BH
85662,AB.10.0110,EMAIL,WC Huisvuil met pas; WC HV MP Beschadigd,"container WES 011, is meerdere malen melding van gemaakt, heeft het gisteren gedaan tot 17:00 uur, meneer constateert dat de container om  18:56 uur weer niet opengaat",20140312113627,20140313,20140312,20140318,124,Afval inzameling,WC Huisvuil met pas,WC HV MP Beschadigd,afvalinzameling,ONWAAR,WAAR,ONWAAR,ONWAAR,Filips van Bourgondiëstr,21,3117SB,32,Schrijversbuurt,30,West,Schiedam,,,4.387353141,51.91413485,Filips van Bourgondiëstraat,melding,3117SB
85052,AB.10.0110,TELEFOON,WC Huisvuil met pas; WC HV MP Beschadigd,mevr heeft zak in de container gedaan maar deze blijft nu hangen en daardoor gaat de klep niet meer open of dicht.,20140310133114,20140311,20140312,20140314,124,Afval inzameling,WC Huisvuil met pas,WC HV MP Beschadigd,afvalinzameling,ONWAAR,WAAR,ONWAAR,ONWAAR,Hagastraat,81,3114NC,41,Noletbuurt,40,Zuid,Schiedam,,,4.403604626,51.90816901,Hagastraat,melding,3114NC
82638,MLD0200,TELEFOON,Autowrakken,Het betreft een auto die al 3 maanden niet gebruikt wordt waar inmiddels ook een band lek is. Renault donkerblauw bulgaars kenteken T4300XT. Graag kijken of de auto mogelijk weggehaald kan worden.,20140227164510,20140228,20140301,20140305,322,Overlast,Autowrakken,,grofvuil en dumping,ONWAAR,ONWAAR,WAAR,ONWAAR,Albert Cuijpstraat,2,3117WC,31,Schildersbuurt,30,West,Schiedam,,,4.383208178,51.91339506,Albert Cuijpstraat,melding,3117WC
83760,UF.01.02,TELEFOON,Plaagdierbestrijding Ratten,verzakkingen bij de voordeur van nummers 175/177 die naar alle waarschijnlijkheid wordt veroorzaakt door ratten,20140304132930,20140305,20140306,20140307,96,Plaagdieren,Plaagdierbestrijding Ratten,,,ONWAAR,ONWAAR,WAAR,ONWAAR,Vlaardingerdijk,175,3117EK,31,Schildersbuurt,30,West,Schiedam,,,4.383622952,51.91476637,Vlaardingerdijk,melding,3117EK
79208,UD.01.06,TELEFOON,Verzakking - plaatselijk,Er is momenteel een verzakking van 2 a 3 stoeptegels groot en een halve meter diep.,20140207100817,20140210,20140211,20140217,368,Bestrating,Bestrating plaatselijke verzakking,,bestrating,ONWAAR,WAAR,WAAR,ONWAAR,Brugmanstraat,54,3117KH,34,Frankenland,30,West,Schiedam,,,4.391536231,51.91415733,Brugmanstraat,melding,3117KH
81378,UC.03.03,TELEFOON,"Gazon en gras; Gazon en gras beschadigd, kuilen, sporen",Bij mevrouw voor de deur is het plantsoen platgetrapt.,20140220125548,20140221,20140227,20140226,352,Groen,Gazon en gras,"Gazon en gras beschadigd, kuilen, sporen",,ONWAAR,WAAR,ONWAAR,ONWAAR,Nieuwe Damlaan,415,3119AJ,63,Staatsliedenbuurt,60,Nieuwland,Schiedam,,,4.384864622,51.92229344,Nieuwe Damlaan,melding,3119AJ
79308,UE.01.05,TELEFOON,Riolering water op straat bij kolk/put,bij de parkeerplaatsen blijft veel water bij de kolken staan. De kolken lopen niet door.,20140207161020,20140210,20140221,20140213,435,Riolering,Riolering water op straat bij kolk/put,,riolering en water,ONWAAR,ONWAAR,WAAR,ONWAAR,Tuinlaan,16,3111AT,23,De Plantage,20,Centrum (tussen havens en grachten),Schiedam,,,4.406265451,51.90988953,Tuinlaan,melding,3111AT
79034,UD.01.06,TELEFOON,Verzakking - plaatselijk,"Tegel zakt rechtstandig naar beneden zowel bij huisnummer 21b en 19b

21b om 1 stoeptegel ong 2 cm gezakt

19b om 3 stoeptegels scheef omhoogstaand",20140206125229,20140207,20140211,20140214,368,Bestrating,Bestrating plaatselijke verzakking,,bestrating,ONWAAR,WAAR,WAAR,ONWAAR,Amalia van Solmsstraat,21,3116EC,36,Nassaukwartier,30,West,Schiedam,,,4.398562164,51.90940799,Amalia van Solmsstraat,melding,3116EC
78785,AB.04.0107,TELEFOON,Grofvuil; GV Aanbiedplaats fout,Matras plus houten frame is tegen de woning van meneer gezet.,20140205140014,20140206,20140208,20140207,165,Afval inzameling,Grofvuil,GV Aanbiedplaats fout,grofvuil en dumping,WAAR,ONWAAR,WAAR,ONWAAR,Nieuwstraat,33,3111JN,00,Binnenstad,00,Centrum (binnenstad),Schiedam,,,4.398200572,51.91734483,Nieuwstraat,melding,3111JN
85238,UA.01.08,TELEFOON,Op bestrating en in het groen; Overlast van hondenpoep,Burger heeft veel last van hondenpoep. Doordat de containers nu gelocked zijn gooien mensen hun hondenpoepzakjes nu weg in het hondentoilet. Graag reinigen. Burger zou graag een prullenbak naar het hondentoilet willen zodat de zakjes daar in gedoponeerd kunnen worden.,20140311093337,20140312,20140312,20140317,24,Reiniging,Op bestrating en in het groen,Overlast van hondenpoep,hondenpoep,WAAR,ONWAAR,WAAR,ONWAAR,Warande,32,3116CH,36,Nassaukwartier,30,West,Schiedam,,,4.400587448,51.91031831,Warande,melding,3116CH
86274,AB.10.0104,TELEFOON,WC Huisvuil met pas; WC HV MP Pasje kwijt,Mevrouw is pas kwijt.,20140314165229,20140317,20170319,20140320,412,Afval inzameling,WC Huisvuil met pas,WC HV MP Pasje kwijt,afvalinzameling,ONWAAR,ONWAAR,ONWAAR,WAAR,Pieter de Hooghstraat,3,3117TL,31,Schildersbuurt,30,West,Schiedam,,,4.381937392,51.91216489,Pieter de Hooghstraat,melding,3117TL
85287,AB.10.0105,TELEFOON,WC Huisvuil met pas; WC HV MP Pasje stuk,mevr heeft pas op 3 maart ontvangen maar ze geeft aan dat hij niet werkt.,20140311104040,20140312,20170319,20140317,13,Afval inzameling,WC Huisvuil met pas,WC HV MP Pasje stuk,afvalinzameling,ONWAAR,ONWAAR,ONWAAR,WAAR,Schaperlaan,68,3118XP,68,Wibautbuurt,60,Nieuwland,Schiedam,,,4.381474619,51.91628895,Schaperlaan,melding,3118XP
84866,UF.01.01,TELEFOON,Plaagdierbestrijding dode plaagdieren (stank),men vermoedt ergens een dood dier maar kan het niet plaatsen. Zou al meer dan een week het geval zijn. Het komt van buiten zegt mevr.,20140310092934,20140311,20140318,20140320,418,Plaagdieren,Plaagdierbestrijding dode plaagdieren (stank),,ongedierte,WAAR,ONWAAR,WAAR,ONWAAR,Burgemeester V Haarenln,680,3119GS,63,Staatsliedenbuurt,60,Nieuwland,Schiedam,,,4.388383071,51.92332047,Burgemeester Van Haarenlaan,melding,3119GS
88509,AB.10.0116,TELEFOON,WC Huisvuil met pas; WC HV MP Trommel geblokkeerd,WC gaat niet open. Mevrouw doet pasje ervoor en vervolgens gaat de deksel niet open.,20140325155421,20140326,20140328,20140327,125,Afval inzameling,WC Huisvuil met pas,WC HV MP Trommel geblokkeerd,afvalinzameling,ONWAAR,WAAR,WAAR,ONWAAR,Laurens Costerstraat,28,3112DN,12,Natuurkundigenbuurt,10,Oost,Schiedam,,,4.405404192,51.91727281,Laurens Costerstraat,melding,3112DN
87657,UC.03.03,TELEFOON,"Gazon en gras; Gazon en gras beschadigd, kuilen, sporen","Meneer maakt melding van het veld voor zijn flat, is helemaal vernield door de honden. Is een hondenspeelplaats die aangelegd is. Kan dit hersteld worden.",20140321104501,20140324,20140325,20140327,352,Groen,Gazon en gras,"Gazon en gras beschadigd, kuilen, sporen",,ONWAAR,WAAR,ONWAAR,ONWAAR,Griegplein,176,3122VN,73,Groenoord-Midden,70,Groenoord en Kethel,Schiedam,,,4.367430021,51.93149364,Griegplein,melding,3122VN
89080,UD.01.06,TELEFOON,Verzakking - plaatselijk,De woning staat op de lijst van fundering herstel deze wordt aangepakt. Twee rijen tegels zijn nu verzakt bij de gevel. Meneer de info gegeven wil toch de melding. Hij heeft eerder deze melding ook maakt en toen is de stoep wel herstel.,20140328122319,20140331,20140402,20140407,368,Bestrating,Bestrating plaatselijke verzakking,,bestrating,ONWAAR,WAAR,WAAR,ONWAAR,Rembrandtlaan,81,3117VG,31,Schildersbuurt,30,West,Schiedam,,,4.384511361,51.91427982,Rembrandtlaan,melding,3117VG
97824,UC.02.03,TELEFOON,Beplanting; Beplanting onkruid,het betreft slecht van de beplanting. Slecht gesnoeid soms voor de helft gedaan veel onkruid. Ziet er momenteel onverzorgd uit.,20140520112710,20140521,20140522,20140526,454,Groen,Beplanting,Beplanting onkruid,onkruid,ONWAAR,ONWAAR,WAAR,WAAR,Diepenbrockstraat,100,3122AD,72,Groenoord-Zuid,70,Groenoord en Kethel,Schiedam,,,4.371591394,51.92767694,Diepenbrockstraat,melding,3122AD
90350,UI.01.01,TELEFOON,Fontein spuit niet,Fontein werkt nog steeds niet. Er is gezegd dat de vorst eerst uit de grond moet zijn.,20140403132247,20140404,20140417,20140408,100,Fonteinen,Fontein spuit niet,,,ONWAAR,WAAR,ONWAAR,WAAR,Van Maanenstraat,73,3119MV,63,Staatsliedenbuurt,60,Nieuwland,Schiedam,,,4.392105157,51.92574663,Van Maanenstraat,melding,3119MV
96748,UF.01.03,WEBFORM,Plaagdierbestrijding Wespen,"Ik wil graag een verzoek indienen voor het verwijderen van wespennest in een vogelhuisje bij de schuurdeur in mijn achtertuin.
Ik ben extreem allergisch voor wespen en dus levensgevaarlijk.",20140513143416,20140514,20140520,20140516,150,Plaagdieren,Plaagdierbestrijding Wespen,,,ONWAAR,ONWAAR,WAAR,ONWAAR,Jan Jacobus Smitpad,27,3123CG,93,Kastelenbuurt,90,Woudhoek en Spaland/Sveaparken,Schiedam,,,4.36694742,51.9440484,Jan Jacobus Smitpad,melding,3123CG
97081,AB.10.0111,TELEFOON,WC Huisvuil met pas; WC HV MP Huisvuil ernaast,bijna elke en ook het weekend is het een zooitje bij de containers omdat er zakken om heen worden gezet. Deze worden dan kapot gemaakt door de vogels.,20140515090234,20140516,20140517,20140519,16,Afval inzameling,WC Huisvuil met pas,WC HV MP Huisvuil ernaast,afvalinzameling,WAAR,ONWAAR,WAAR,ONWAAR,Dr Kuyperlaan,237,3118RP,68,Wibautbuurt,60,Nieuwland,Schiedam,,,4.385076259,51.92011234,Dr Kuyperlaan,melding,3118RP
94917,UD.01.06,TELEFOON,Verzakking - plaatselijk,voor het portiek is het weer verzakt.,20140501084908,20140502,20140508,20140512,368,Bestrating,Bestrating plaatselijke verzakking,,bestrating,ONWAAR,WAAR,WAAR,ONWAAR,Mariastraat,213,3117NK,33,Fabribuurt,30,West,Schiedam,,,4.389104851,51.91421741,Mariastraat,melding,3117NK
97090,MLD0821,EMAIL,Straatverlichting; OV 1 lamp stuk,"Wederom deel ik U mede dat de verlichting op het Bieslookveld nog defect is.
 is al eerder gemeld in zaaknummer  96904",20140515092536,20140516,20140515,20140521,266,Straatmeubilair,Straatverlichting,OV 1 lamp stuk,verlichting,ONWAAR,WAAR,WAAR,ONWAAR,Bieslookveld,28,3124VB,97,De Akkers en De Velden,90,Woudhoek en Spaland/Sveaparken,Schiedam,,,4.37584405,51.94769204,Bieslookveld,melding,3124VB
90175,UE.01.04,WEBFORM,Riolering stankoverlast,stank in de middag en avond achter de woning komend uit de richting van de Warande,20140402175312,20140403,20140415,20140408,93,Riolering,Riolering stankoverlast,,riolering en water,ONWAAR,ONWAAR,WAAR,ONWAAR,Sint Liduinastraat,5,3117CN,35,Liduinabuurt,30,West,Schiedam,,,4.395155726,51.91413543,Sint Liduinastraat,melding,3117CN
93433,UC.01.08,TELEFOON,Bomen; Bomen gevaarlijke situatie,"Mevrouw meldt dat boom helemaal doorhangt. Staat scheef, is bang dat de boom om zal vallen.",20140423091825,20140424,20140519,20140424,73,Groen,Bomen,Bomen gevaarlijke situatie,bomen en beplanting,ONWAAR,ONWAAR,WAAR,ONWAAR,Thomas à Kempisstraat,42,3117CC,35,Liduinabuurt,30,West,Schiedam,,,4.39448626,51.91307101,Thomas à Kempisstraat,melding,3117CC
92815,UD.01.13,TELEFOON,Vraag over bestrating (niets stuk),"De stoep ligt zo bestraat dat de regen niet van de muur loopt maar naar de muur toe. Hierdoor heeft meneer al verschillende reparaties aan de muur moeten laten doen. 
Meneer Biskin belt hier voor, zijn dochter woon op dit adres. Telefoonnummer 06-54797328.",20140417110206,20140422,20140506,20140429,115,Bestrating,Vraag over bestrating (niets stuk),,bestrating,ONWAAR,ONWAAR,ONWAAR,WAAR,Vlaardingerdijk,281,3117ER,31,Schildersbuurt,30,West,Schiedam,,,4.37963283,51.91360394,Vlaardingerdijk,melding,3117ER
91705,AB.10.0103,TELEFOON,WC Huisvuil met pas; WC HV MP Nog geen pas ontvangen,Woont sinds juni op dit adres. graag pas opsturen.,20140410133325,20140411,20140424,20140416,12,Afval inzameling,WC Huisvuil met pas,WC HV MP Nog geen pas ontvangen,afvalinzameling,ONWAAR,ONWAAR,ONWAAR,WAAR,Parkweg,236,3119CR,67,Nolensbuurt,60,Nieuwland,Schiedam,,,4.394391426,51.92188446,Parkweg,melding,3119CR
102768,UC.02.01,TELEFOON,Beplanting; Beplanting snoeien,de beplanting om de gehandicapten parkeerplaats is behoorlijk aan het groeien. Men komt dit altijd snoeiein maar zijn nu nog niet geweest.,20140619105842,20140620,20140626,20140625,75,Groen,Beplanting,Beplanting snoeien,bomen en beplanting,ONWAAR,ONWAAR,WAAR,ONWAAR,Populierenlaan,16,3121AN,77,Tuindorp,70,Groenoord en Kethel,Schiedam,,,4.379036929,51.93139749,Populierenlaan,melding,3121AN
105787,MLD0402,WEBFORM,Gedrag personen; hinderlijk gedrag,overlast.,20140707142055,20140708,20140711,20140711,265,Overlast,Hinderlijk gedrag personen/groepen,hinderlijk gedrag,,,,,,Bouwmeesterweg,66,3123AA,94,Botenbuurt,90,Woudhoek en Spaland/Sveaparken,Schiedam,,,4.368020936,51.94084878,Bouwmeesterweg,melding,3123AA
105408,UE.01.07,TELEFOON,Huisaansluiting afgebroken,"In de straat wordt glasvezel aangelegd. Daarbij is de rioolbuis aansluiting gescheurd en afgebroken. Het rioolwater loopt souterain in. CIF maakt nu wel de buizen, maar meneer wil graag dat iemand er goed na kijkt.",20140704102131,20140707,20140708,20140710,95,Riolering,Huisaansluiting afgebroken,,riolering en water,ONWAAR,WAAR,ONWAAR,ONWAAR,Marconistraat,41,3112EJ,17,Rotterdamsedijk,10,Oost,Schiedam,,,4.406738443,51.9152166,Marconistraat,melding,3112EJ
101720,UE.01.03,WEBFORM,Riolering verstopt,Afgelopen week heeft kort en hevig veel geregend. Sinds die tijd komt het water in het beneden toilet  omhoog als er wordt gedouched of als je boven het toilet doortrekt en komen er borrel geluiden uit het toilet beneden en uit de gootsteen in de keuken en hoor je het water omhoog borreleni,20140613085101,20140616,20140701,20140617,421,Riolering,Riolering verstopt,,riolering en water,ONWAAR,WAAR,WAAR,ONWAAR,Pruimengaarde,25, ,15,Wetenschappersbuurt,10,Oost,Schiedam,,,4.416360822,51.91831647,Hogenbanweg,adres,
101781,AB.08.0106,WEBFORM,Wijkcontainers Huisvuil; WC HV Huisvuil ernaast,Op de kruising Genestetstraat/Rembrandtln wordt meermalen per week huisvuil gedumpt. Aan de inhoud van de zakken is te zien dat het standaard om dezelfde dader gaat. Meeuwen scheuren de zak(ken) open en verspreiden het stinkende afval tientallen meters in alle richtingen. Schiedam doet er niks aan. Structureel is na een melding 's morgens de troep er nog steeds 's avonds. Gemeente meldt na telefonische navraag: &quot;Wen er maar aan&quot;. Echt !!,20140613113052,20140616,20140616,20140617,184,Afval inzameling,Wijkcontainers Huisvuil,WC HV Huisvuil ernaast,afvalinzameling,WAAR,ONWAAR,WAAR,ONWAAR,Rembrandtlaan,37, ,15,Wetenschappersbuurt,10,Oost,Schiedam,,,4.416277949,51.91804469,Hogenbanweg,adres,
102820,UA.01.01,EMAIL,Op bestrating en in het groen; Overlast van zwerfvuil op verharding,Zwerfvuil,20140619124410,20140620,20140626,20140624,351,Reiniging,Op bestrating en in het groen,Overlast van zwerfvuil op verharding,zwerfvuil,WAAR,ONWAAR,WAAR,ONWAAR,Reaumurstraat,75, ,71,Parkenbuurt/Bijdorp,70,Groenoord en Kethel,Schiedam,,,4.371722953,51.92018674,Esther Vergeerstraat,adres,
104358,UD.01.05,TELEFOON,Bestrating los/scheef/omhoogstaand (wortelopdruk),op de parkeerplaats komen tegels weer omhoog. Is al eerder hersteld maar komt nu dus weer terug.,20140630091539,20140701,20140714,20140704,88,Bestrating,Bestrating los/scheef/omhoogstaand (wortelopdruk),,bestrating,ONWAAR,WAAR,WAAR,ONWAAR,Schermerhornlaan,13,3119SJ,67,Nolensbuurt,60,Nieuwland,Schiedam,,,4.393391764,51.92229722,Schermerhornlaan,melding,3119SJ
104472,UD.01.02,WEBFORM,Bestrating ligt open zonder zichtbare actie,Voor ons erf ligt de straat open. Bij regen is zand onder het huis gespoeld.,20140630115349,20140701,20170904,20140704,148,Bestrating,Bestrating ligt open zonder zichtbare actie,,bestrating,ONWAAR,ONWAAR,WAAR,ONWAAR,Bosrand,21, ,15,Wetenschappersbuurt,10,Oost,Schiedam,,,4.416387295,51.91840559,Hogenbanweg,adres,
101785,UC.02.01,TELEFOON,Beplanting; Beplanting snoeien,Graag hedra snoeien rondom het hondentoilet. En het gaaswerk wat er omheen staat vastzetten.,20140613114209,20140616,20140620,20140619,75,Groen,Beplanting,Beplanting snoeien,bomen en beplanting,ONWAAR,ONWAAR,WAAR,ONWAAR,Warande,32,3116CH,36,Nassaukwartier,30,West,Schiedam,,,4.400587448,51.91031831,Warande,melding,3116CH
106821,UD.01.06,TELEFOON,Verzakking - plaatselijk,"Verzakking voor oprit van mevrouw, zij heeft een nieuwe auto gekocht maar kan nu de oprit niet op. Zijn aan het verbouwen in heel de straat dus er zijn geen parkeerplaatsen en mevrouw is invalide dus het is van belang dat het snel gebeurt.",20140714091531,20140715,20140718,20140722,368,Bestrating,Bestrating plaatselijke verzakking,,bestrating,ONWAAR,WAAR,WAAR,ONWAAR,Oever,3,3121XR,76,Vogelbuurt,70,Groenoord en Kethel,Schiedam,,,4.385613828,51.93481189,Oever,melding,3121XR
102854,UD.01.06,TELEFOON,Verzakking - plaatselijk,na werrkzaamheden in het verleden bij de zijkant van de woning is hier een bobbel ontstaan in de bestrating. Kan hier iets aan gedaan worden.,20140619141758,20140620,20140627,20140627,368,Bestrating,Bestrating plaatselijke verzakking,,bestrating,ONWAAR,WAAR,WAAR,ONWAAR,Atalantahof,31,3124BA,96,De Vlinderhoven/Sveaholm,90,Woudhoek en Spaland/Sveaparken,Schiedam,,,4.380303127,51.93957061,Atalantahof,melding,3124BA
106499,UC.02.03,TELEFOON,Beplanting; Beplanting onkruid,onkruid weghalen tussen bestrating en parkeerplaatsen en de speelveldjes bij de kerk.,20140710152805,20140711,20140717,20140716,454,Groen,Beplanting,Beplanting onkruid,onkruid,ONWAAR,ONWAAR,WAAR,WAAR,Merwedestraat,33,3114SW,44,Maasboulevard,40,Zuid,Schiedam,,,4.407898912,51.90370472,Merwedestraat,melding,3114SW
108260,AB.10.0110,TELEFOON,WC Huisvuil met pas; WC HV MP Beschadigd,"de container gaat sinds gisteren niet meer open.
Geeft storing aan op het display",20140722093934,20140723,20140731,20140728,124,Afval inzameling,WC Huisvuil met pas,WC HV MP Beschadigd,afvalinzameling,ONWAAR,WAAR,ONWAAR,ONWAAR,Van Hogendorpstraat,96,3118LJ,62,Spieringshoek,60,Nieuwland,Schiedam,,,4.382095985,51.92119869,Van Hogendorpstraat,melding,3118LJ
100029,UC.02.04,EMAIL,Beplanting; Beplanting plantvak beschadigd,Op ons pleintje staan drie planten bakken alles er zijn nauwelijks planten in. Op de stenen van het plein zitten vaak toeristen van de fluisterboot of grote campers op de parkeerplaats. Het zou mooi zijn wanneer daar wat lavendel of andere planten in gezet zouden worden. Ze staan er toch niet voor niets. Het gaat om de KINDERBUURT,20140603085705,20140604,20140613,20140610,76,Groen,Beplanting,Beplanting plantvak beschadigd,bomen en beplanting,ONWAAR,WAAR,ONWAAR,WAAR,Kinderbuurt,3,3111PW,21,Brandersbuurt,20,Centrum (tussen havens en grachten),Schiedam,,,4.398679492,51.92007102,Kinderbuurt,melding,3111PW
103768,AB.06.0101,EMAIL,Mini-container Huisvuil; MC HV Niet geleegd,"Restafval container te laat neer gezet, normaal gesproken wordt deze later op de dag geleegd.
  
Meneer was nu te laat. Regels uit gelegd. Kan er gekeken worden of de container als nog geleegd kan worden?",20140625140036,20140626,20140630,,169,Afval inzameling,Mini-container Huisvuil,MC HV Niet geleegd,afvalinzameling,ONWAAR,ONWAAR,WAAR,ONWAAR,Westerkade,7,3116GL,36,Nassaukwartier,30,West,Schiedam,,,4.402331202,51.90904139,Westerkade,melding,3116GL
101769,MLD999,TELEFOON,Winkelwagentjes,Er staat momenteel een bouwmarkt wagentje in de straat. graag verwijderen.,20140613105454,20140616,20140616,20140619,275,Overlast,Winkelwagentjes,,,ONWAAR,ONWAAR,WAAR,ONWAAR,Prof Kamerlingh Onnesln,112,3112VK,14,Stationsbuurt,10,Oost,Schiedam,,,4.410666553,51.91950008,Professor Kamerlingh Onneslaan,melding,3112VK
99169,AB.10.0110,TELEFOON,WC Huisvuil met pas; WC HV MP Beschadigd,na aanbieden pas wordt de lezer groen maar de klep gaat niet open. Inmiddels zijn er daardoor ook zakken naast de container gezet.,20140528090433,20140530,20140530,20140604,124,Afval inzameling,WC Huisvuil met pas,WC HV MP Beschadigd,afvalinzameling,ONWAAR,WAAR,ONWAAR,ONWAAR,Donker Curtiusstraat,63,3119TB,63,Staatsliedenbuurt,60,Nieuwland,Schiedam,,,4.387682194,51.92368436,Donker Curtiusstraat,melding,3119TB
105249,AB.04.0111,TELEFOON,Grofvuil; GV Onjuist aangeboden,grofvuil bij de container,20140703115024,20140704,20140704,20140707,422,Afval inzameling,Grofvuil,GV Onjuist aangeboden,grofvuil en dumping,WAAR,ONWAAR,WAAR,ONWAAR,Buys Ballotsingel,94,3112JG,16,Newtonbuurt,10,Oost,Schiedam,,,4.413500736,51.91738645,Buys Ballotsingel,melding,3112JG
98972,AB.04.0111,TELEFOON,Grofvuil; GV Onjuist aangeboden,Er staat paal voor de woning een bankstel.,20140527094955,20140528,20140530,20140530,422,Afval inzameling,Grofvuil,GV Onjuist aangeboden,grofvuil en dumping,WAAR,ONWAAR,WAAR,ONWAAR,Morsestraat,23,3112ZS,15,Wetenschappersbuurt,10,Oost,Schiedam,,,4.413781279,51.91941751,Morsestraat,melding,3112ZS
99895,AB.06.0211,TELEFOON,Mini-container GFT; MC GFT Omruilen groter/kleiner,graag omruilen naar een 240ltr container,20140602150949,20140603,20140605,20140606,179,Afval inzameling,Mini-container GFT,MC GFT Omruilen groter/kleiner,afvalinzameling,ONWAAR,ONWAAR,ONWAAR,WAAR,Fjelddal,11,3124NC,98,Sveaborg en -Dal,90,Woudhoek en Spaland/Sveaparken,Schiedam,,,4.382331983,51.94802467,Fjelddal,melding,3124NC
102215,UC.01.01,TELEFOON,Bomen; Bomen snoeien,De takken hangen tegen het slaapkamerraam aan. En er komt ongedierte uit. Graag snoeien.,20140616154054,20140617,20140620,20140620,67,Groen,Bomen,Bomen snoeien,bomen en beplanting,ONWAAR,ONWAAR,WAAR,ONWAAR,Warmoezenierstraat,22,3123EN,92,Ambachtenbuurt,90,Woudhoek en Spaland/Sveaparken,Schiedam,,,4.365726555,51.94155143,Warmoezenierstraat,melding,3123EN
107169,UC.02.01,TELEFOON,Beplanting; Beplanting snoeien,"Heg is voor de helft gesnoeid, bij mevrouw tot aan het eind is het niet gedaan. Graag alsnog snoeien.",20140715113749,20140716,20140725,20140721,75,Groen,Beplanting,Beplanting snoeien,bomen en beplanting,ONWAAR,ONWAAR,WAAR,ONWAAR,Nieuwe Damlaan,413,3119AJ,63,Staatsliedenbuurt,60,Nieuwland,Schiedam,,,4.384864622,51.92229344,Nieuwe Damlaan,melding,3119AJ
99222,MLD0102,TELEFOON,(Brom)fietsen; onbeheerde (brom)fietsen,al een paar maanden staan hier 3 of 4 fietsen aan elkaar vast maar worden niet gebruikt. Dit zorgt voor overlast voor de fiets van de melder.,20140528113638,20140530,20140528,20140604,404,Overlast,(Brom)fietsen,onbeheerde (brom)fietsen,,ONWAAR,ONWAAR,WAAR,ONWAAR,Lorentzlaan,35,3112KG,16,Newtonbuurt,10,Oost,Schiedam,,,4.413804418,51.91824316,Lorentzlaan,melding,3112KG
103886,UA.03.01,TELEFOON,Afvalbakken; Afvalbak vol,Meerdere prullebakken zijn vol. Ze zijn altijd vol graag wat meer leggen.,20140626100308,20140627,20140708,20140630,433,Reiniging,Afvalbakken,Afvalbak vol,straatmeubilair,ONWAAR,ONWAAR,WAAR,ONWAAR,IJsselmondestraat,37,3114XM,43,Piet Sandersbuurt,40,Zuid,Schiedam,,,4.405266031,51.9036149,IJsselmondestraat,melding,3114XM
100732,UF.01.02,TELEFOON,Plaagdierbestrijding Ratten,"Het stinkt heel erg in de woning, bij de buren hebben ze al rattengif gelegd, ook een dode rat gevonden. Mevrouw denkt dat zij er ook last van heeft,",20140606112449,20140610,20140617,20140612,96,Plaagdieren,Plaagdierbestrijding Ratten,,,ONWAAR,ONWAAR,WAAR,ONWAAR,Van Smaleveltstraat,2,3117CH,35,Liduinabuurt,30,West,Schiedam,,,4.394736553,51.91223216,Van Smaleveltstraat,melding,3117CH
102730,MLD0813,TELEFOON,Straatverlichting; OV lichtmast: scheef,lichtmast nummer 20 staat scheef omdat er blijkbaar iemand tegen aan gereden is.,20140619091527,20140620,20140924,20140625,405,Straatmeubilair,Straatverlichting,OV lichtmast: scheef,verlichting,ONWAAR,WAAR,WAAR,ONWAAR,Delflandseweg,58,3119XA,65,Hollandiabuurt,60,Nieuwland,Schiedam,,,4.405725699,51.92121809,Delflandseweg,melding,3119XA
110321,MLD0821,TELEFOON,Straatverlichting; OV 1 lamp stuk,In de bocht bij de twee ondergrondse containers. Een lichtmast die het niet doet.,20140805094007,20140806,20140827,20140811,266,Straatmeubilair,Straatverlichting,OV 1 lamp stuk,verlichting,ONWAAR,WAAR,WAAR,ONWAAR,Lavendelveld,20,3124CH,97,De Akkers en De Velden,90,Woudhoek en Spaland/Sveaparken,Schiedam,,,4.379361358,51.94461417,Lavendelveld,melding,3124CH
118888,UC.06.05,WEBFORM,Vijvers en sloten; Vijvers en sloten beschoeiing,Wij grenzen met onze tuin direct aan de polder en een kleine (droge) sloot. Door deze sloot schuift de grond uit onze tuin die hoger ligt naar beneden en is het hoogteverschil tussen onze tuin en de polder/gemeentegrond significant. Wij vermoeden dat op een gegeven moment de tuinafscheiding op de gemeentegrond zal schuiven. Wij denken dat er extra grond zal moeten worden aangebracht om dit tegen te gaan.,20140930111945,20141001,20150804,20141008,146,Groen,Vijvers en sloten,Vijvers en sloten beschoeiing,riolering en water,ONWAAR,WAAR,ONWAAR,WAAR,Tundradal,4, ,66,Schiehart,60,Nieuwland,Schiedam,,,4.400360427,51.92331949,Jan van Zutphenstraat,adres,
118892,UD.01.07,WEBFORM,Verzakking over gehele straat (&gt;30m2),"Op de Vlaardingerstraat - Breedstraat ter hoogte van de Dam zitten zeer veel verzakkingen/kuilen in het wegdek, mede doordat zware brandweerwagens hier jarenlang overheen hebben gereden. Onze  woning is niet onderheid, zoals meerdere woningen in de buurt. Er komt hier veel zeer zwaar verkeer langs (bouwverkeer/vrachtwagens) en het huis staat dan zeer hevig te trillen. Zojuist kwam er zwaar bouwverkeer voorbij en het voelt hier binnen dan letterlijk aan als een aardbeving (dit is niet overdreven)",20140930115515,20141001,20141022,20141119,89,Bestrating,Bestrating verzakking over gehele straat,,bestrating,ONWAAR,WAAR,WAAR,ONWAAR,Dam,50, ,71,Parkenbuurt/Bijdorp,70,Groenoord en Kethel,Schiedam,,,4.37619109,51.92034691,Sportlaan,adres,
117340,MLD0821,TELEFOON,Straatverlichting; OV 1 lamp stuk,nr 4,20140919131320,20140922,20140922,20140925,266,Straatmeubilair,Straatverlichting,OV 1 lamp stuk,verlichting,ONWAAR,WAAR,WAAR,ONWAAR,Prof Kamerlingh Onnesln,96,3112VJ,14,Stationsbuurt,10,Oost,Schiedam,,,4.411155733,51.91923157,Professor Kamerlingh Onneslaan,melding,3112VJ
111282,UC.02.01,TELEFOON,Beplanting; Beplanting snoeien,bosjes worden overwoekerd door bramenbenplanting. Dit wordt veel te groot en wild om zelf te onderhouden.,20140812095334,20140813,20140826,20140818,75,Groen,Beplanting,Beplanting snoeien,bomen en beplanting,ONWAAR,ONWAAR,WAAR,ONWAAR,Havendijk,117,3114EA,44,Maasboulevard,40,Zuid,Schiedam,,,4.406408741,51.90244257,Havendijk,melding,3114EA
117390,UC.01.04,TELEFOON,Bomen; Bomen beschadigd,veel overlast van een boom die boven de invalideparkeerplaats hangt. Boom lijkt dood te gaan en daardoor veel blad enz te verliezen  kijken of hij mogelijk verwijderd kan worden.,20140919153436,20140922,20140925,20140924,278,Groen,Bomen,Bomen beschadigd,bomen en beplanting,ONWAAR,WAAR,ONWAAR,ONWAAR,Jozef Oreliosingel,329,3122CV,73,Groenoord-Midden,70,Groenoord en Kethel,Schiedam,,,4.368897511,51.93143043,Jozef Oreliosingel,melding,3122CV
114644,UD.01.06,EMAIL,Verzakking - plaatselijk,langs de zijgevel achter de laagspannings kast is het straatwerk weggezakt,20140904093717,20140905,20140911,20140912,368,Bestrating,Bestrating plaatselijke verzakking,,bestrating,ONWAAR,WAAR,WAAR,ONWAAR,Gimbergpad,1,3123AH,91,Toneelspelersbuurt,90,Woudhoek en Spaland/Sveaparken,Schiedam,,,4.36467169,51.93775829,Gimbergpad,melding,3123AH
114674,AB.04.0111,TELEFOON,Grofvuil; GV Onjuist aangeboden,"kastje, stoeltje en 2 klapstoelen",20140904102241,20140905,20140905,20140908,422,Afval inzameling,Grofvuil,GV Onjuist aangeboden,grofvuil en dumping,WAAR,ONWAAR,WAAR,ONWAAR,Burg Stulemeijerln,263,3118BG,68,Wibautbuurt,60,Nieuwland,Schiedam,,,4.39030242,51.91779331,Burgemeester Stulemeijerlaan,melding,3118BG
111818,UD.01.06,TELEFOON,Verzakking - plaatselijk,1 Stoeptegel is verzakt. Graag een verzoek om dit herstellen.,20140815122853,20140818,20140826,20140825,368,Bestrating,Bestrating plaatselijke verzakking,,bestrating,ONWAAR,WAAR,WAAR,ONWAAR,Schubertplein,4,3122NA,74,Groenoord-Noord,70,Groenoord en Kethel,Schiedam,,,4.366522339,51.93645183,Schubertplein,melding,3122NA
110854,MLD0402,TELEFOON,Gedrag personen; hinderlijk gedrag,Man loopt regelmatig met 3 vecht honden buiten op straat honden lopen los. Inmiddels al 2 honden aangevallen door meneer zijn honden. Er wordt hier geen actie op ondernemen door de politie graag toezicht houden. Ook staat meneer te wilsplassen.,20140808113723,20140811,20140808,20140814,265,Overlast,Hinderlijk gedrag personen/groepen,hinderlijk gedrag,,,,,,Van Maanenstraat,77,3119MV,63,Staatsliedenbuurt,60,Nieuwland,Schiedam,,,4.392105157,51.92574663,Van Maanenstraat,melding,3119MV
109505,UC.02.01,TELEFOON,Beplanting; Beplanting snoeien,andere stukken in de straat zijn al wel gesnoeid maar bij deze woning en de buren niet. Ze ondervinden hier overlast van door onder andere ratten en bijen en wespen.,20140730101049,20140731,20170904,20140805,75,Groen,Beplanting,Beplanting snoeien,bomen en beplanting,ONWAAR,ONWAAR,WAAR,ONWAAR,Heinsiusstraat,94,3119TJ,63,Staatsliedenbuurt,60,Nieuwland,Schiedam,,,4.388633411,51.92350784,Heinsiusstraat,melding,3119TJ
117118,UC.02.03,TELEFOON,Beplanting; Beplanting onkruid,Mevrouw heeft een hoekwoning op de hoek is er een afwatering tussen de stennen groeit gras deze graag verwijderen staat heel hoog.,20140918092657,20140919,20171207,20140924,454,Groen,Beplanting,Beplanting onkruid,onkruid,ONWAAR,ONWAAR,WAAR,WAAR,Peter van Anrooylaan,4,3122TA,73,Groenoord-Midden,70,Groenoord en Kethel,Schiedam,,,4.370790574,51.92910051,Peter van Anrooylaan,melding,3122TA
113681,UA.01.08,TELEFOON,Op bestrating en in het groen; Overlast van hondenpoep,Ligt helemaal vol met hondenpoep. Graag reinigen.,20140828155538,20140829,20140903,20140903,24,Reiniging,Op bestrating en in het groen,Overlast van hondenpoep,hondenpoep,WAAR,ONWAAR,WAAR,ONWAAR,Pastorietuin,33,3111KL,00,Binnenstad,00,Centrum (binnenstad),Schiedam,,,4.399480805,51.91717049,Pastorietuin,melding,3111KL
109167,AB.08.0401,TELEFOON,Wijkcontainers / AAP Papier; AAP/WC PAP Volle container,op de hoek met de Celsiusstraat,20140728140731,20140729,20140728,20140730,425,Afval inzameling,Wijkcontainers / AAP Papier,AAP/WC PAP Volle container,afvalinzameling,ONWAAR,ONWAAR,WAAR,ONWAAR,Stationstraat,69,3112VT,14,Stationsbuurt,10,Oost,Schiedam,,,4.410731735,51.91996576,Stationstraat,melding,3112VT
112757,UD.01.05,WEBFORM,Bestrating los/scheef/omhoogstaand (wortelopdruk),omhoogstekende stoeptegels,20140822142342,20140825,20140902,20140828,88,Bestrating,Bestrating los/scheef/omhoogstaand (wortelopdruk),,bestrating,ONWAAR,WAAR,WAAR,ONWAAR,Hollandiahof,198,3119ZD,65,Hollandiabuurt,60,Nieuwland,Schiedam,,,4.403532903,51.91986303,Hollandiahof,melding,3119ZD
111983,UC.01.03,TELEFOON,Bomen; Bomen takken gebroken,Afgebroken takken - 1 hangt nog aan de boom en 1 ligt eral naast,20140818101218,20140819,20140902,20140822,68,Groen,Bomen,Bomen takken gebroken,bomen en beplanting,ONWAAR,WAAR,WAAR,ONWAAR,Kievitslaan,71,3121XG,76,Vogelbuurt,70,Groenoord en Kethel,Schiedam,,,4.381290992,51.93614028,Kievitslaan,melding,3121XG
118615,AB.10.0116,EMAIL,WC Huisvuil met pas; WC HV MP Trommel geblokkeerd,2 containers geblokkeerd,20140929090912,20140930,20141001,20141001,125,Afval inzameling,WC Huisvuil met pas,WC HV MP Trommel geblokkeerd,afvalinzameling,ONWAAR,WAAR,WAAR,ONWAAR,Dieselstraat,60,3112KC,15,Wetenschappersbuurt,10,Oost,Schiedam,,,4.415214702,51.91895387,Dieselstraat,melding,3112KC
115234,UC.03.01,TELEFOON,Gazon en gras; Gazon en gras maaien,"achter het voetbalveldje staat een bankje bij struikgewas, dit is totaal overwoekerd, graag  opruimen",20140908104904,20140909,20140925,20140912,416,Groen,Gazon en gras,Gazon en gras maaien,onkruid,ONWAAR,ONWAAR,ONWAAR,ONWAAR,Alphons Ariënsstraat,90,3119VB,66,Schiehart,60,Nieuwland,Schiedam,,,4.401203321,51.92228915,Alphons Ariënsstraat,melding,3119VB
116174,UA.01.09,TELEFOON,Op bestrating en in het groen; Olie op straat,om de hoek bij mevrouw en dat is de Akkers is een jerrycan wellicht van een wagen gevallen en nu is er een lang spoor op het wegdek terecht komen. Meerdere auto's zijn er al door heen gereden.. Mevr weet niet wat voor stof het is.,20140911153921,20140912,20140922,20140915,362,Reiniging,Op bestrating en in het groen,Olie op straat,,WAAR,ONWAAR,WAAR,ONWAAR,De Akkers,71,3124AC,97,De Akkers en De Velden,90,Woudhoek en Spaland/Sveaparken,Schiedam,,,4.377420846,51.9414268,De Akkers,melding,3124AC
113127,UD.01.06,TELEFOON,Verzakking - plaatselijk,"achterkant gaten in de binnenplaats smetanenlaan 13-15 tegen de schuur gaten in bestrating, en links naast garages een gat in het brandpad",20140826100034,20140827,20140902,20140903,368,Bestrating,Bestrating plaatselijke verzakking,,bestrating,ONWAAR,WAAR,WAAR,ONWAAR,Smetanalaan,15,3122HM,74,Groenoord-Noord,70,Groenoord en Kethel,Schiedam,,,4.365900515,51.9354256,Smetanalaan,melding,3122HM
108720,UD.01.05,TELEFOON,Bestrating los/scheef/omhoogstaand (wortelopdruk),Bij de boom zijn er wat tegels los gegaan en verdwenen.,20140724141435,20140725,20140729,20140730,88,Bestrating,Bestrating los/scheef/omhoogstaand (wortelopdruk),,bestrating,ONWAAR,WAAR,WAAR,ONWAAR,Lorentzlaan,80,3112KP,15,Wetenschappersbuurt,10,Oost,Schiedam,,,4.412954281,51.91885296,Lorentzlaan,melding,3112KP
110135,UF.01.02,TELEFOON,Plaagdierbestrijding Ratten,Meneer heeft vee last van ratten en daarbij verzakken de tegels voor zijn deur.,20140804104351,20140805,20140821,20140807,96,Plaagdieren,Plaagdierbestrijding Ratten,,,ONWAAR,ONWAAR,WAAR,ONWAAR,Halleystraat,11,3112PK,17,Rotterdamsedijk,10,Oost,Schiedam,,,4.410376729,51.91596367,Halleystraat,melding,3112PK
110621,AB.08.0106,WEBFORM,Wijkcontainers Huisvuil; WC HV Huisvuil ernaast,"Het is alweer een enorme bende naast de afvalcontainers o de Rotterdamsedijk ter hoogte van de Koemarkt. Na vorige week al een melding te hebben gedaan, die werd opgelost is het nu alweer zo ver. De meeuwen maken er een feestje van, en geef ze eens ongelijk. De zooi ligt overal. Laat de mensen van handhaving daar beter op toezien dan. Dan hoef ik niet om de haverklap een melding te doen. Ik word hier erg moe van.",20140807090227,20140808,20140807,20140811,184,Afval inzameling,Wijkcontainers Huisvuil,WC HV Huisvuil ernaast,afvalinzameling,WAAR,ONWAAR,WAAR,ONWAAR,Rotterdamsedijk,429,3112AR,17,Rotterdamsedijk,10,Oost,Schiedam,,,4.403192453,51.91456539,Rotterdamsedijk,melding,3112AR
114797,AB.11.0105,TELEFOON,Dumping; Dumping vuilniszakken,"1 vuilnis zak, staat er al 2 weken is ,nu kapotgemaakt door wrs ongedierte. Stank is verschrikkelijk",20140904164450,20140905,20140915,20140912,21,Afval inzameling,Dumping,Dumping vuilniszakken,grofvuil en dumping,WAAR,ONWAAR,WAAR,ONWAAR,Mgr Nolenslaan,79,3119EA,67,Nolensbuurt,60,Nieuwland,Schiedam,,,4.392564708,51.92258312,Mgr Nolenslaan,melding,3119EA
114369,UC.02.01,TELEFOON,Beplanting; Beplanting snoeien,"Er is wel een pad gedaan maar dat was een pad tussen Laagland en de Weide in. Het gaat om een ander pad en dat ligt vooral bij huisnummers 21,23 en 25 waar de beplanting over het pad heen groeit. Dit pad loopt in de Koekoekslaan.
Op verzoek van (M) opnieuw melding gemaakt.",20140902154616,20140903,20140908,20140908,75,Groen,Beplanting,Beplanting snoeien,bomen en beplanting,ONWAAR,ONWAAR,WAAR,ONWAAR,Koekoekslaan,23,3121XJ,76,Vogelbuurt,70,Groenoord en Kethel,Schiedam,,,4.383142583,51.93436937,Koekoekslaan,melding,3121XJ
113917,AB.04.0111,EMAIL,Grofvuil; GV Onjuist aangeboden,bank,20140901082501,20140902,20140902,20140903,422,Afval inzameling,Grofvuil,GV Onjuist aangeboden,grofvuil en dumping,WAAR,ONWAAR,WAAR,ONWAAR,Gordonstraat,2, ,62,Spieringshoek,60,Nieuwland,Schiedam,,,4.382697521,51.92254161,Bijdorpplein,adres,
116588,UD.01.01,TELEFOON,Gat in de bestrating,onder poort is een gat gevallen ter hoogte van de hemelwaterafvoer. Of het daardoor komt is niet bekend.,20140915125042,20140916,20171207,20140919,87,Bestrating,Gat in de bestrating,,,ONWAAR,WAAR,WAAR,ONWAAR,Dilleveld,7,3124VC,97,De Akkers en De Velden,90,Woudhoek en Spaland/Sveaparken,Schiedam,,,4.377797944,51.94762196,Dilleveld,melding,3124VC
116998,AB.10.0108,TELEFOON,WC Huisvuil met pas; WC HV MP Niet geleegd,Container S-Wes-086,20140917103826,20140918,20140922,20140919,15,Afval inzameling,WC Huisvuil met pas,WC HV MP Niet geleegd,afvalinzameling,ONWAAR,ONWAAR,WAAR,ONWAAR,Jacob van Lennepstraat,19,3117SH,32,Schrijversbuurt,30,West,Schiedam,,,4.386874795,51.91446447,Jacob van Lennepstraat,melding,3117SH
114703,UC.01.01,TELEFOON,Bomen; Bomen snoeien,Graag en verzoek om de boom te snoeien.,20140904113556,20140905,20140909,20140910,67,Groen,Bomen,Bomen snoeien,bomen en beplanting,ONWAAR,ONWAAR,WAAR,ONWAAR,Franklinstraat,3,3112SB,13,Singelkwartier,10,Oost,Schiedam,,,4.40948049,51.91846737,Franklinstraat,melding,3112SB
122043,MLD0811,TELEFOON,Straatverlichting; OV lichtmast: deksel weg / open (SPOED),deksel er af nu door bewoner met een tape er op geplakt. Graag met spoed oppakken.,20141022153029,20141023,20141022,20141028,656,Straatmeubilair,Straatverlichting,OV lichtmast: deksel weg / open,verlichting,ONWAAR,WAAR,WAAR,ONWAAR,Hogenbanweg,453,3112CM,17,Rotterdamsedijk,10,Oost,Schiedam,,,4.415113379,51.91467033,Hogenbanweg,melding,3112CM
119345,UD.01.04,WEBFORM,Bestrating los/scheef/omhoogst. geen wortelopdruk,"Mijne heer/mevrouw,

Het gaat hierbij om een Putdeksel in de weg,die gevaarlijk omhoog gaat staan.",20141002141510,20141003,20141007,20141008,355,Bestrating,Bestrating los/scheef/omhoogst. geen wortelopdruk,,bestrating,ONWAAR,WAAR,WAAR,ONWAAR,Kalixfors,53,3124RB,95,De Gaarden/Sveafors,90,Woudhoek en Spaland/Sveaparken,Schiedam,,,4.386640884,51.94174773,Kalixfors,melding,3124RB
121940,MLD0822,TELEFOON,Straatverlichting; OV meer lampen stuk,"meerdere lichtmasten defect, komt vaker voor geeft mw aan, is niet veilig",20141022084805,20141023,20141022,20141028,660,Straatmeubilair,Straatverlichting,OV meer lampen stuk,verlichting,ONWAAR,WAAR,WAAR,ONWAAR,Minister Donkerstraat,6,3119RE,67,Nolensbuurt,60,Nieuwland,Schiedam,,,4.391994452,51.9232367,Minister Donkerstraat,melding,3119RE
129170,MLD0822,EMAIL,Straatverlichting; OV meer lampen stuk,"Gisteren is er bij ons in de straat (Roggeakker) nieuwe verlichting aangebracht aan de lantaarnpalen. Waarschijnlijk is dit licht zuiniger in het verbruik.
Er moet ons wel één ding van ons hart. Jullie slogan is: samen werken aan schoon, heel en veilig. Ik kwam gisteravond thuis en het is nog nooit zo donker geweest in onze straat. Dit geeft bepaald geen veilig gevoel. Dit wilde ik even kwijt.",20141211094554,20141212,20141211,20141217,660,Straatmeubilair,Straatverlichting,OV meer lampen stuk,verlichting,ONWAAR,WAAR,WAAR,ONWAAR,Roggeakker,1,3124XH,97,De Akkers en De Velden,90,Woudhoek en Spaland/Sveaparken,Schiedam,,,4.377200665,51.94380283,Roggeakker,melding,3124XH
124014,UB.06.03,TELEFOON,Rood-witte paal (ERDI); Erdipaal Slot werkt niet,het gaat om een grijs kleurig paaltje waarvan het mechanisme niet meer werkt zodat iedereen het paaltje zo kan verwijderen en door kan rijden met de auto.,20141105152457,20141106,20141112,20141113,710,Straatmeubilair,Rood-witte paal (ERDI),Erdipaal Slot werkt niet,straatmeubilair,ONWAAR,WAAR,WAAR,WAAR,Bart Verhallenplein,95,3122TG,73,Groenoord-Midden,70,Groenoord en Kethel,Schiedam,,,4.369997223,51.9300017,Bart Verhallenplein,melding,3122TG
128576,UA.01.09,TELEFOON,Op bestrating en in het groen; Olie op straat,Er is kalk over de stoep enz gesmeerd. Graag weghalen.,20141208094029,20141209,20141216,20141210,679,Reiniging,Op bestrating en in het groen,Olie op straat,,WAAR,ONWAAR,WAAR,ONWAAR,Hoofdstraat,275,3114GE,41,Noletbuurt,40,Zuid,Schiedam,,,4.406891699,51.90811848,Hoofdstraat,melding,3114GE
127083,UA.01.06,TELEFOON,Op bestrating en in het groen; Overlast bladeren/bloesem op straat,bladeren bij elkaar geveegd en geblazen door irado alleen niet opgehaald dus er liggen nu bergen bladeren die weer door de straat langzaamaan waaien.,20141126133447,20141127,20141128,,676,Reiniging,Op bestrating en in het groen,Overlast bladeren/bloesem op straat,bomen en beplanting,ONWAAR,ONWAAR,WAAR,ONWAAR,Newtonplein,5,3112WB,16,Newtonbuurt,10,Oost,Schiedam,,,4.415297307,51.91680721,Newtonplein,melding,3112WB
120075,UD.01.06,TELEFOON,Verzakking - plaatselijk,de opstap om naar binnen te komen is erg hoog geworden. Mevr maakt gebruik van rollator en het wordt steeds lastiger. Dit geldt ook voor nummer 23 B,20141008105627,20141009,20141023,20141016,776,Bestrating,Bestrating plaatselijke verzakking,,bestrating,ONWAAR,WAAR,WAAR,ONWAAR,Rembrandtlaan,23,3117VB,31,Schildersbuurt,30,West,Schiedam,,,4.383526609,51.91246939,Rembrandtlaan,melding,3117VB
124129,UC.01.01,TELEFOON,Bomen; Bomen snoeien,meneer kijkt uit op een boom en geeft aan dat er takken op de stam beginnen te groeien. Kan hier iets aan gedaan worden?,20141106104241,20141107,20141111,20141112,746,Groen,Bomen,Bomen snoeien,bomen en beplanting,ONWAAR,ONWAAR,WAAR,ONWAAR,Spuistraat,4,3114CR,41,Noletbuurt,40,Zuid,Schiedam,,,4.402346046,51.90814756,Spuistraat,melding,3114CR
123582,UC.02.01,TELEFOON,Beplanting; Beplanting snoeien,"struiken en takken van de bomen groeit zo hoog dat het het zicht ontneemt van mw, ze kunnen er makkelijk achter schuilen graag z.s.m. kortsnoeien",20141103123834,20141104,20141111,20141107,752,Groen,Beplanting,Beplanting snoeien,bomen en beplanting,ONWAAR,ONWAAR,WAAR,ONWAAR,Joppelaan,10,3124KC,95,De Gaarden/Sveafors,90,Woudhoek en Spaland/Sveaparken,Schiedam,,,4.390599146,51.94036407,Joppelaan,melding,3124KC
124233,MLD0821,TELEFOON,Straatverlichting; OV 1 lamp stuk,aan de achterzijde van de woning loopt een pad en daar doet de lichtmast het niet. De mast staat ter hoogte van de tuin van dit adres.,20141106163535,20141107,20141107,20141112,659,Straatmeubilair,Straatverlichting,OV 1 lamp stuk,verlichting,ONWAAR,WAAR,WAAR,ONWAAR,Beierlandsestraat,22,3114BE,42,Eilandenbuurt,40,Zuid,Schiedam,,,4.402022552,51.90649432,Beierlandsestraat,melding,3114BE
128484,MLD0822,WEBFORM,Straatverlichting; OV meer lampen stuk,straatverlichting rond westmolenstraat 2 en 4 brand niet.,20141206080110,20141208,20141210,20141211,660,Straatmeubilair,Straatverlichting,OV meer lampen stuk,verlichting,ONWAAR,WAAR,WAAR,ONWAAR,Westmolenstraat,4, ,66,Schiehart,60,Nieuwland,Schiedam,,,4.400360427,51.92331949,Jan van Zutphenstraat,adres,
126799,UA.01.13,TELEFOON,Op bestrating en in het groen; Overlast van zwerfvuil in beplanting,overmatig veel last van zwerfvuil,20141125091211,20141126,20141202,20141128,682,Reiniging,Op bestrating en in het groen,Overlast van zwerfvuil in beplanting,zwerfvuil,WAAR,ONWAAR,WAAR,ONWAAR,Louis Raemaekersstraat,91,3119NR,64,Vakbondsliedenbuurt,60,Nieuwland,Schiedam,,,4.402707268,51.92366177,Louis Raemaekersstraat,melding,3119NR
126801,UF.01.05,TELEFOON,Plaagdierbestrijding Overig,heel veel muizen in de tuin.,20141125091349,20141126,20141202,20141128,797,Plaagdieren,Plaagdierbestrijding Overig,,ongedierte,ONWAAR,ONWAAR,ONWAAR,WAAR,Johann Straussplein,70,3122ZB,74,Groenoord-Noord,70,Groenoord en Kethel,Schiedam,,,4.369548894,51.93518091,Johann Straussplein,melding,3122ZB
126006,UD.01.05,TELEFOON,Bestrating los/scheef/omhoogstaand (wortelopdruk),ongeveer 12 stoeptegels liggen scheef door de wortelopdruk,20141119130250,20141120,20141203,20141125,775,Bestrating,Bestrating los/scheef/omhoogstaand (wortelopdruk),,bestrating,ONWAAR,WAAR,WAAR,ONWAAR,Galileistraat,29,3112PA,17,Rotterdamsedijk,10,Oost,Schiedam,,,4.411001204,51.91547468,Galileistraat,melding,3112PA
119885,UD.01.06,WEBFORM,Verzakking - plaatselijk,"de stoep onder de toegangstrap(trappenhuis 43a t/m 45c) vertoont een flinke kier; ook bij sommige andere trappenhuizen. Dit is verergert na de werkzaamheden voor het glasvezel.
De woning heeft een souterrain, dus bij een flinke bui loopt het water zo de slaapkamer in.
Al heel lang wachten wij op het renoveren van de lanen en er gebeurt maar niets!
zou dit euvel spoedig verholpen kunnen worden.",20141007091259,20141008,20141014,20141015,776,Bestrating,Bestrating plaatselijke verzakking,,bestrating,ONWAAR,WAAR,WAAR,ONWAAR,Lorentzlaan,43,3112KH,16,Newtonbuurt,10,Oost,Schiedam,,,4.413545392,51.91834124,Lorentzlaan,melding,3112KH
122812,MLD0102,TELEFOON,(Brom)fietsen; onbeheerde (brom)fietsen,al maanden staat er naast het portiek een kinderfiets. Staat wel op slot maar wordt al maanden niets mee gedaan.,20141028105514,20141029,20141029,20141103,640,Overlast,(Brom)fietsen,onbeheerde (brom)fietsen,,ONWAAR,ONWAAR,WAAR,ONWAAR,M C M de Grootstraat,76,3119VP,66,Schiehart,60,Nieuwland,Schiedam,,,4.395876555,51.92325528,M C M de Grootstraat,melding,3119VP
120708,UC.02.01,TELEFOON,Beplanting; Beplanting snoeien,Mevr vraagt of de beplanting bij de laagbouw gesnoeid kan worden. Mevr noemt het zelf een rimboe.,20141013155434,20141014,20141020,20141017,752,Groen,Beplanting,Beplanting snoeien,bomen en beplanting,ONWAAR,ONWAAR,WAAR,ONWAAR,Bart Verhallenplein,50,3122TD,73,Groenoord-Midden,70,Groenoord en Kethel,Schiedam,,,4.36984456,51.93061256,Bart Verhallenplein,melding,3122TD
123274,MLD0822,TELEFOON,Straatverlichting; OV meer lampen stuk,in de van J. van Stolbergstraat hoek Burg. Knappertlaan doen 3 lichtmasten het niet.,20141031083316,20141103,20141031,20141106,660,Straatmeubilair,Straatverlichting,OV meer lampen stuk,verlichting,ONWAAR,WAAR,WAAR,ONWAAR,Prinsenhoek,11,3116DA,37,Oranjekwartier,30,West,Schiedam,,,4.393264812,51.91121374,Prinsenhoek,melding,3116DA
126696,UA.01.06,TELEFOON,Op bestrating en in het groen; Overlast bladeren/bloesem op straat,heel veel overlast van bladeren die door de wind op het parkeerterrein komen. Ieder jaar belt meneer er over en dan wordt het alsnog gedaan. Dit doet hij nu al meerdere jaren.,20141124152720,20141125,20141128,,676,Reiniging,Op bestrating en in het groen,Overlast bladeren/bloesem op straat,bomen en beplanting,ONWAAR,ONWAAR,WAAR,ONWAAR,Laan van Spieringshoek,99,3118LM,62,Spieringshoek,60,Nieuwland,Schiedam,,,4.378979022,51.91900984,Laan van Spieringshoek,melding,3118LM
119242,UH.01.01,WEBFORM,Brugdek beschadigd,"Op het bruggetje over de singel nabij Stadhouderslaan 103 is een plank afgebroken waardoor er een gat is. Een aantal planken zijn verrot. Brug is wat aan het verzakken.

Gevaarlijke situatie , vooral s'avonds !",20141002093401,20141003,20141006,20141006,98,Bruggen,Brugdek beschadigd,,,ONWAAR,WAAR,ONWAAR,ONWAAR,Stadhouderslaan,103, ,62,Spieringshoek,60,Nieuwland,Schiedam,,,4.378006714,51.91339384,Simon Rijnbendestraat,adres,
120195,MLD0702,TELEFOON,Parkeeroverlast; geen vergunning,Meneer meldt dat hij vermoed dat poolse mensen met verschillende auto's parkeren zonder parkeervergunning op de parkeerplaatsen bij de flats. Graag controle.,20141009085729,20141010,20141013,20141015,654,Overlast,Parkeeroverlast,geen vergunning,parkeren,ONWAAR,ONWAAR,WAAR,ONWAAR,Delflandseweg,218,3119XD,65,Hollandiabuurt,60,Nieuwland,Schiedam,,,4.404920477,51.92136694,Delflandseweg,melding,3119XD
126237,UE.01.04,TELEFOON,Riolering stankoverlast,"de heren van de glasvezel hebben geconstateerd na het openbreken van de straat dat het vreselijk stinkt, vermoeden is een breuk of lek in de riolering",20141120144451,20141121,20141204,20141126,787,Riolering,Riolering stankoverlast,,riolering en water,ONWAAR,ONWAAR,WAAR,ONWAAR,Oosterstraat,25,3112SE,13,Singelkwartier,10,Oost,Schiedam,,,4.407976874,51.92016364,Oosterstraat,melding,3112SE
122673,MLD0821,TELEFOON,Straatverlichting; OV 1 lamp stuk,Lamp defect,20141027135012,20141028,20141027,20141031,659,Straatmeubilair,Straatverlichting,OV 1 lamp stuk,verlichting,ONWAAR,WAAR,WAAR,ONWAAR,Noordvest,143,3111PG,21,Brandersbuurt,20,Centrum (tussen havens en grachten),Schiedam,,,4.392776309,51.9184994,Noordvest,melding,3111PG
139826,UA.01.03,TELEFOON,Op bestrating en in het groen; Overlast van vuurwerkvuil,Vanaf 31 december ligt er vuurwerkafval vanaf Oreliosingel nummer 1 tot einde van de straat. Dit geeft een verpaupering en meneer vindt dat het nu toch opgeruimd moet worden.,20150227123005,20150302,20150306,20150304,673,Reiniging,Op bestrating en in het groen,Overlast van vuurwerkvuil,zwerfvuil,WAAR,ONWAAR,WAAR,ONWAAR,Jozef Oreliosingel,207,3122CS,73,Groenoord-Midden,70,Groenoord en Kethel,Schiedam,,,4.370438713,51.93156339,Jozef Oreliosingel,melding,3122CS
130956,UE.01.07,TELEFOON,Huisaansluiting afgebroken,"Meneer geeft aan dat de verbinding naar het gemeenteriool niet goed is. De tegels zijn daar ook verzakt. Loodgieterbedrijf Arial is vorige week langsgeweest en heeft alles schoongespoten, zij hebben geconstateerd dat het aan de verbinding met het gemeenteriool ligt.",20141229091237,20141230,20141231,20150105,790,Riolering,Huisaansluiting afgebroken,,riolering en water,ONWAAR,WAAR,ONWAAR,ONWAAR,Bosrand,9,3121XA,76,Vogelbuurt,70,Groenoord en Kethel,Schiedam,,,4.384618307,51.93394354,Bosrand,melding,3121XA
134538,AB.04.0111,EMAIL,Grofvuil; GV Onjuist aangeboden,Matras.,20150122103616,20150123,20150123,20150126,520,Afval inzameling,Grofvuil,GV Onjuist aangeboden,grofvuil en dumping,WAAR,ONWAAR,WAAR,ONWAAR,Boerhaavelaan,1, ,64,Vakbondsliedenbuurt,60,Nieuwland,Schiedam,,,4.395795133,51.92483433,Klaas Katerstraat,adres,
130097,UA.01.07,TELEFOON,Op bestrating en in het groen; Overlast bladeren/bloesem in beplanting/gazon,Meneer geeft aan dat het schoonmaken niet goed gebeurt. Er komt wel een veegwagen in de straat na een melding maar die ruimt bij lange na niet alles op. Er blijft nog veel achter omdat er geen blazers aanwezig zijn om het naar de straat te blazen.,20141218134202,20141219,20141219,20141230,677,Reiniging,Op bestrating en in het groen,Overlast bladeren/bloesem in beplanting/gazon,bomen en beplanting,ONWAAR,ONWAAR,WAAR,ONWAAR,Voltastraat,12,3112MP,16,Newtonbuurt,10,Oost,Schiedam,,,4.410416897,51.91735855,Voltastraat,melding,3112MP
132124,UF.01.05,TELEFOON,Plaagdierbestrijding Overig,houtworm in een kast,20150107112540,20150108,20171207,20150112,797,Plaagdieren,Plaagdierbestrijding Overig,,ongedierte,ONWAAR,ONWAAR,ONWAAR,WAAR,Juliana van Stolbergstr,11,3116HA,37,Oranjekwartier,30,West,Schiedam,,,4.393545215,51.91011194,Juliana van Stolbergstraat,melding,3116HA
136671,UA.01.01,TELEFOON,Op bestrating en in het groen; Overlast van zwerfvuil op verharding,"Graag ook vegen bij de parkeervakken, ligt nu veel modder, zwerfvuil en blad.",20150205151949,20150206,20150213,20150210,671,Reiniging,Op bestrating en in het groen,Overlast van zwerfvuil op verharding,zwerfvuil,WAAR,ONWAAR,WAAR,ONWAAR,Merwedestraat,33,3114SW,44,Maasboulevard,40,Zuid,Schiedam,,,4.407898912,51.90370472,Merwedestraat,melding,3114SW
140160,UE.01.06,TELEFOON,Riolering water op straat,stinkend water op straat doordat de leiding kapot is. Met spoed nakijken!,20150302151331,20150303,20150310,20150306,789,Riolering,Riolering water op straat,,riolering en water,ONWAAR,ONWAAR,WAAR,ONWAAR,Lorentzlaan,80,3112KP,15,Wetenschappersbuurt,10,Oost,Schiedam,,,4.412954281,51.91885296,Lorentzlaan,melding,3112KP
138724,UB.01.07,TELEFOON,Afvalbak; Verzoek plaatsing afvalbak,"Graag plaatsing mini afvalbak naast de openbare groen container. Aangezien mensen groen/tuinafval deponeren, dan houden ze het zakje over.",20150219152117,20150220,20150304,20150313,697,Straatmeubilair,Afvalbak,Verzoek plaatsing afvalbak,straatmeubilair,ONWAAR,ONWAAR,ONWAAR,WAAR,Muiderslotstraat,97,3123TA,93,Kastelenbuurt,90,Woudhoek en Spaland/Sveaparken,Schiedam,,,4.368562881,51.94520661,Muiderslotstraat,melding,3123TA
132553,UE.01.06,TELEFOON,Riolering water op straat,Er blijft heeft veel water op de straat staan. Hierdoor is een grote plas ontstaan.,20150109132221,20150112,20150115,20150115,789,Riolering,Riolering water op straat,,riolering en water,ONWAAR,ONWAAR,WAAR,ONWAAR,Ringvaart,55,3124PB,95,De Gaarden/Sveafors,90,Woudhoek en Spaland/Sveaparken,Schiedam,,,4.385368029,51.93793302,Ringvaart,melding,3124PB
137969,UA.01.08,TELEFOON,Op bestrating en in het groen; Overlast van hondenpoep,Mevrouw geeft aan dat er veel hondenpoep op straat ligt. Graag een verzoek hier actie op te ondernemen.,20150216104235,20150217,20150219,20150220,678,Reiniging,Op bestrating en in het groen,Overlast van hondenpoep,hondenpoep,WAAR,ONWAAR,WAAR,ONWAAR,Lange Achterweg,117,3111JJ,00,Binnenstad,00,Centrum (binnenstad),Schiedam,,,4.398209805,51.91659494,Lange Achterweg,melding,3111JJ
139241,MLD0821,TELEFOON,Straatverlichting; OV 1 lamp stuk,Lantaarn met straatnaambordje Ringvaart is al tijden stuk.,20150224084919,20150225,20150225,20150302,659,Straatmeubilair,Straatverlichting,OV 1 lamp stuk,verlichting,ONWAAR,WAAR,WAAR,ONWAAR,Ringvaart,42,3124PB,95,De Gaarden/Sveafors,90,Woudhoek en Spaland/Sveaparken,Schiedam,,,4.387110157,51.93853321,Ringvaart,melding,3124PB
132051,MLD0822,TELEFOON,Straatverlichting; OV meer lampen stuk,"Hallo,achter zwembad zuid is een hondenuitlaatgebied. Het grenst
aan de ene kant aan het water aan de andere kant grenst het aan
de achterkant van het zwembad. Het valt me iedere avond op dat in
de bocht 3 lantaarns (achter elkaar aansluitend ) het niet doen.
Volgens mij is het de 6de en 7de en 8 ste paal gerekend vanaf de
parkeerplaats kant van het zwembad.De 8ste paal brandt de ene
avond wel en dan ineens de volgende dag weer niet , dit wisselt per
dag. vgr. Cora verberk",20150107083804,20150108,20150121,20150113,660,Straatmeubilair,Straatverlichting,OV meer lampen stuk,verlichting,ONWAAR,WAAR,WAAR,ONWAAR,Pr Frederik Hendrikstr,23,3116GB,36,Nassaukwartier,30,West,Schiedam,,,4.399769045,51.90864443,Prins Frederik Hendrikstraat,melding,3116GB
138681,UB.01.07,TELEFOON,Afvalbak; Verzoek plaatsing afvalbak,"Er staat al een hondenpoepbak in de straat, wordt netjes gebruik van gemaakt. Dit helpt helaas niet aan de mate waarin er zwerfvuil op straat wordt gegooid, graag ook een afvalbak plaatsen. Zijn twee scholen in de buurt en hierdoor ligt er veel.",20150219124558,20150220,20150304,20150313,697,Straatmeubilair,Afvalbak,Verzoek plaatsing afvalbak,straatmeubilair,ONWAAR,ONWAAR,ONWAAR,WAAR,Warmoezenierstraat,41,3123EN,92,Ambachtenbuurt,90,Woudhoek en Spaland/Sveaparken,Schiedam,,,4.364827115,51.94257913,Warmoezenierstraat,melding,3123EN
140114,UD.01.04,TELEFOON,Bestrating los/scheef/omhoogst. geen wortelopdruk,Op de Botter ter hoogte van 39-41 is een tegel weg. Mevr is er al over gestruikeld,20150302133414,20150303,20150310,20150306,774,Bestrating,Bestrating los/scheef/omhoogst. geen wortelopdruk,,bestrating,ONWAAR,WAAR,WAAR,ONWAAR,Botter,39, ,15,Wetenschappersbuurt,10,Oost,Schiedam,,,4.416267989,51.91801278,Hogenbanweg,adres,
140400,UB.05.01,TELEFOON,"Beton, hout of kunststofpaal; Beton, hout of kunststofpaal omvergereden",paaltje in de Schermerhornlaan omver gereden. Het is tegenover huisnummer 2 bij de garagedeur van het flat.,20150303160825,20150304,20150304,20150309,705,Straatmeubilair,"Beton, hout of kunststofpaal","Beton, hout of kunststofpaal omvergereden",vandalisme / onzorgvuldigheid,ONWAAR,WAAR,ONWAAR,WAAR,Schermerhornlaan,2, ,62,Spieringshoek,60,Nieuwland,Schiedam,,,4.382697521,51.92254161,Bijdorpplein,adres,
139792,UA.03.01,TELEFOON,Afvalbakken; Afvalbak vol,De afvalbak zit vol. Graag een verzoek deze te legen.,20150227094144,20150302,20150306,20150303,685,Reiniging,Afvalbakken,Afvalbak vol,straatmeubilair,ONWAAR,ONWAAR,WAAR,ONWAAR,Joseph Eijlstraat,6,3123ET,94,Botenbuurt,90,Woudhoek en Spaland/Sveaparken,Schiedam,,,4.367838879,51.94186625,Joseph Eijlstraat,melding,3123ET
137413,UE.01.07,TELEFOON,Huisaansluiting afgebroken,Mevrouw geeft aan dat mogelijk de huisafsluiting is afgebroken.Buiten ligt een grote plas met water. Mevrouw haar toilet is overgelopen en er ligt aarde tussen het water. Graag met speod nazien,20150211124353,20150212,20150219,20150217,790,Riolering,Huisaansluiting afgebroken,,riolering en water,ONWAAR,WAAR,ONWAAR,ONWAAR,Officierenpad,19,3119DN,67,Nolensbuurt,60,Nieuwland,Schiedam,,,4.393497191,51.91996245,Officierenpad,melding,3119DN
134094,MLD0701,TELEFOON,Parkeeroverlast; aanhangers / caravans,Er staat een aanhanger in de straat met afval. Graag nazien.,20150120100509,20150121,20150120,20150126,653,Overlast,Parkeeroverlast,aanhangers / caravans,parkeren,ONWAAR,ONWAAR,WAAR,ONWAAR,Mariastraat,11,3117NE,33,Fabribuurt,30,West,Schiedam,,,4.393093364,51.91600216,Mariastraat,melding,3117NE
136171,UE.01.05,EMAIL,Riolering water op straat bij kolk/put,Voor de lorentzlaan 35 staat er al een tijd water op de parkeervakken,20150203082807,20150204,20150206,20150209,788,Riolering,Riolering water op straat bij kolk/put,,riolering en water,ONWAAR,ONWAAR,WAAR,ONWAAR,Lorentzlaan,35,3112KG,16,Newtonbuurt,10,Oost,Schiedam,,,4.413804418,51.91824316,Lorentzlaan,melding,3112KG
131894,UA.01.03,TELEFOON,Op bestrating en in het groen; Overlast van vuurwerkvuil,Er ligt veel papier en vuurwerk resten voor de deur.,20150106102600,20150107,20150116,20150109,673,Reiniging,Op bestrating en in het groen,Overlast van vuurwerkvuil,zwerfvuil,WAAR,ONWAAR,WAAR,ONWAAR,Rubenslaan,4, ,66,Schiehart,60,Nieuwland,Schiedam,,,4.400360427,51.92331949,Jan van Zutphenstraat,adres,
135152,UD.01.04,TELEFOON,Bestrating los/scheef/omhoogst. geen wortelopdruk,"meerdere klinkers liggen los thv de Ooievaarsbrug waar mensen nu over struikelen.
Het is recht tegenover deze woning.",20150127110507,20150128,20150130,20150202,774,Bestrating,Bestrating los/scheef/omhoogst. geen wortelopdruk,,bestrating,ONWAAR,WAAR,WAAR,ONWAAR,Schie,84,3111PN,21,Brandersbuurt,20,Centrum (tussen havens en grachten),Schiedam,,,4.398080823,51.9189914,Schie,melding,3111PN
130953,MLD0822,TELEFOON,Straatverlichting; OV meer lampen stuk,3 lichtmasten,20141229090926,20141230,20150109,20150105,660,Straatmeubilair,Straatverlichting,OV meer lampen stuk,verlichting,ONWAAR,WAAR,WAAR,ONWAAR,Oostsingel,9,3112GC,13,Singelkwartier,10,Oost,Schiedam,,,4.406495237,51.91875452,Oostsingel,melding,3112GC
129767,AB.10.0110,TELEFOON,WC Huisvuil met pas; WC HV MP Beschadigd,Beide bakken thv de Dirk van den Broek zijn niet te gebruiken. 1 container werkt niet en de andere is geblokkeerd,20141216115038,20141217,20141219,20141222,623,Afval inzameling,WC Huisvuil met pas,WC HV MP Beschadigd,afvalinzameling,ONWAAR,WAAR,ONWAAR,ONWAAR,Leliëndaal,20,3111KN,00,Binnenstad,00,Centrum (binnenstad),Schiedam,,,4.399542253,51.91568003,Leliëndaal,melding,3111KN
133793,UD.01.06,WEBFORM,Verzakking - plaatselijk,"De glasvezelkabelleggers hebben op het Stadserf boven mijn garage de grond open gehad en niet goed afgewerkt.
Nu gaat de grond verzakken en tijdens regenbuien komt het water bij mij binnen.
Nu heeft de loodgieter geen toestemming gekregen om de straat open te maken om de aansluiting naar de garage (onder de grond ) te repareren. Wilt u nu dit zo spoedig mogelijk komen maken svp?",20150117193850,20150119,20150130,20150126,776,Bestrating,Bestrating plaatselijke verzakking,,bestrating,ONWAAR,WAAR,WAAR,ONWAAR,Stadserf,116,3112DX,11,Stadserf,10,Oost,Schiedam,,,4.403536664,51.91767949,Stadserf,melding,3112DX
133853,MLD0822,EMAIL,Straatverlichting; OV meer lampen stuk,"Het ziet er keurig uit, maar wat mij nou zo blijft storen is dat de lantarenpalen aan de kant van het Copernicusplein het al die tijd al niet doen. et zijn er in totaal drie. Drie lantarenpalen die het niet doen, op dat gedeelte is het echt heel donker.",20150119091034,20150120,20150210,20150123,660,Straatmeubilair,Straatverlichting,OV meer lampen stuk,verlichting,ONWAAR,WAAR,WAAR,ONWAAR,Land van Ris,11,3112DT,12,Natuurkundigenbuurt,10,Oost,Schiedam,,,4.406179932,51.91775526,Land van Ris,melding,3112DT
131912,UA.01.01,TELEFOON,Op bestrating en in het groen; Overlast van zwerfvuil op verharding,erg veel zwerfvuil het waait door de hele straat,20150106105613,20150107,20150119,20150109,671,Reiniging,Op bestrating en in het groen,Overlast van zwerfvuil op verharding,zwerfvuil,WAAR,ONWAAR,WAAR,ONWAAR,Nieuwe Maasstraat,52,3114TM,43,Piet Sandersbuurt,40,Zuid,Schiedam,,,4.401797586,51.90503702,Nieuwe Maasstraat,melding,3114TM
130400,UD.01.02,WEBFORM,Bestrating ligt open zonder zichtbare actie,"Bij de stoep voor mijn deur heb je een verhoging, dat is een opstap voordat je naar binnen gaat, daar liggen 6 stoeptegel  in de verhoging, afgelopen zaterdag  20 december wil ik naar buiten en ik stapt zo in het zand en valt voorover, zonder gevolgen.
in de nacht van vrijdag en zaterdag zijn er stoeptegels uit gehaald, wat hier de bedoeling van is weet ik niet, maar het zal wel weer aangeschoten jeugd geweest zijn.
Is het mogelijk dit snel te repareren.
gr G.Rodenburg 
0104266663",20141222060806,20141223,20141222,20141230,773,Bestrating,Bestrating ligt open zonder zichtbare actie,,bestrating,ONWAAR,ONWAAR,WAAR,ONWAAR,Villastraat,119,3112TC,13,Singelkwartier,10,Oost,Schiedam,,,4.409686178,51.91756991,Villastraat,melding,3112TC
131443,UA.01.06,TELEFOON,Op bestrating en in het groen; Overlast bladeren/bloesem op straat,"er is op 30-12 een boom geplant, er ligt sindsdien een behoorlijke berg aarde naast kan dit opgeruimd worden",20150102111541,20150105,20171207,,676,Reiniging,Op bestrating en in het groen,Overlast bladeren/bloesem op straat,bomen en beplanting,ONWAAR,ONWAAR,WAAR,ONWAAR,Griendwerkerstraat,14,3123EV,92,Ambachtenbuurt,90,Woudhoek en Spaland/Sveaparken,Schiedam,,,4.366228303,51.94173913,Griendwerkerstraat,melding,3123EV
144912,AB.04.0111,EMAIL,Grofvuil; GV Onjuist aangeboden,grote vuilnisbelt,20150331085056,20150401,20150401,20150402,520,Afval inzameling,Grofvuil,GV Onjuist aangeboden,grofvuil en dumping,WAAR,ONWAAR,WAAR,ONWAAR,Gordonstraat,6, ,37,Oranjekwartier,30,West,Schiedam,,,4.393412231,51.91093749,Juliana van Stolbergstraat,adres,
141654,UA.01.01,TELEFOON,Op bestrating en in het groen; Overlast van zwerfvuil op verharding,Elke zondag is er een soort markt met kraampjes. Hierdoor waait er regelmatig zwerfvuil weg en dat komt dan op één plek terecht. Graag zou meneer zien dat het regelmatig schoongemaakt wordt.,20150311114706,20150312,20150320,20150316,671,Reiniging,Op bestrating en in het groen,Overlast van zwerfvuil op verharding,zwerfvuil,WAAR,ONWAAR,WAAR,ONWAAR,Maasboulevard,66,3114HC,44,Maasboulevard,40,Zuid,Schiedam,,,4.408426538,51.90232919,Maasboulevard,melding,3114HC
142809,AB.04.0111,TELEFOON,Grofvuil; GV Onjuist aangeboden,halve bank gedumpt.,20150318102601,20150319,20150319,20150320,520,Afval inzameling,Grofvuil,GV Onjuist aangeboden,grofvuil en dumping,WAAR,ONWAAR,WAAR,ONWAAR,Kor Kuilerstraat,16,3122JN,73,Groenoord-Midden,70,Groenoord en Kethel,Schiedam,,,4.373696167,51.93045343,Kor Kuilerstraat,melding,3122JN
145505,UC.01.04,TELEFOON,Bomen; Bomen beschadigd,De boom hangt heel erg over richting de woning.,20150402123914,20150403,20150430,20150407,748,Groen,Bomen,Bomen beschadigd,bomen en beplanting,ONWAAR,WAAR,ONWAAR,ONWAAR,Schouw,23,3123BS,94,Botenbuurt,90,Woudhoek en Spaland/Sveaparken,Schiedam,,,4.369969325,51.94259462,Schouw,melding,3123BS
144972,MLD0601,TELEFOON,Parkeerautomaten; Buiten werking,"De parkeerautomaat staat buitenwerking.

kenteken 01-RK-NH
kleur grijs/ goud kleurig merk Peugot.",20150331103325,20150401,20150401,20150406,650,Straatmeubilair,Parkeerautomaten,PA buiten werking,parkeren,ONWAAR,WAAR,WAAR,ONWAAR,Von Leibnizstraat,19, ,15,Wetenschappersbuurt,10,Oost,Schiedam,,,4.416400497,51.91845179,Hogenbanweg,adres,
141514,AB.06.0201,TELEFOON,Mini-container GFT; MC GFT Niet geleegd,Meneer geeft aan dat de groene bak niet geleegd is gisteren. Graag alsnog legen.,20150310150024,20150311,20150313,20150312,534,Afval inzameling,Mini-container GFT,MC GFT Niet geleegd,afvalinzameling,ONWAAR,ONWAAR,WAAR,ONWAAR,Ko Suurhofflaan,28,3119VE,66,Schiehart,60,Nieuwland,Schiedam,,,4.39909817,51.92375171,Ko Suurhofflaan,melding,3119VE
141288,UD.01.06,TELEFOON,Verzakking - plaatselijk,"Tegen de heg, paadje achter het huis: verzakking van de tegels: 6 tegels. Mevrouw is slecht ter been, is bang om te vallen.",20150309154312,20150310,20150317,20150317,776,Bestrating,Bestrating plaatselijke verzakking,,bestrating,ONWAAR,WAAR,WAAR,ONWAAR,Johann Straussplein,3,3122ZA,74,Groenoord-Noord,70,Groenoord en Kethel,Schiedam,,,4.370177086,51.93414646,Johann Straussplein,melding,3122ZA
144145,UE.01.04,WEBFORM,Riolering stankoverlast,Regelmatig een zware terpetine lucht die enkele uren aanhoudt. Het ruikt alsof iemand een fles puur door de afvoer gooit.,20150325215327,20150326,20150327,20150331,787,Riolering,Riolering stankoverlast,,riolering en water,ONWAAR,ONWAAR,WAAR,ONWAAR,Pr Frederik Hendrikstr,19,3116GA,36,Nassaukwartier,30,West,Schiedam,,,4.399871839,51.90870796,Prins Frederik Hendrikstraat,melding,3116GA
150309,MLD0821,WEBFORM,Straatverlichting; OV 1 lamp stuk,"De lantaarnpaal bij huisnummer 6 werkt sinds vrijdagavond niet meer. De straat is hierdoor erg donker en daardoor nog meer inbraakgevoelig. Graag op korte termijn actie.
Mvg. J. Vd Brugge",20150504162444,20150506,20150527,20150511,659,Straatmeubilair,Straatverlichting,OV 1 lamp stuk,verlichting,ONWAAR,WAAR,WAAR,ONWAAR,Ch Th Storkstraat,6, ,37,Oranjekwartier,30,West,Schiedam,,,4.393412231,51.91093749,Juliana van Stolbergstraat,adres,
144025,UA.01.08,TELEFOON,Hondenoverlast; Overlast van hondenpoep,op de stoep veel overlast van hondenpoep,20150325123858,20150326,20150331,20150331,678,Reiniging,Op bestrating en in het groen,Overlast van hondenpoep,hondenpoep,WAAR,ONWAAR,WAAR,ONWAAR,Edisonstraat,26,3112LV,16,Newtonbuurt,10,Oost,Schiedam,,,4.413172361,51.91794205,Edisonstraat,melding,3112LV
150600,UC.01.08,WEBFORM,Bomen; Bomen gevaarlijke situatie,op de hoek van de Hoeker en Praam is vorige week een boom geplaatst.Na de storm op bevrijdingsdag staat deze boom behoorlijk scheef en het gevaar bestaat misschien dat deze boom omvalt.,20150506160252,20150507,20150521,20150507,751,Groen,Bomen,Bomen gevaarlijke situatie,bomen en beplanting,ONWAAR,ONWAAR,WAAR,ONWAAR,Hoeker,1, ,64,Vakbondsliedenbuurt,60,Nieuwland,Schiedam,,,4.395795133,51.92483433,Klaas Katerstraat,adres,
144110,UA.01.10,EMAIL,Op bestrating en in het groen; Dode dieren in openbaar gebied/in water,dode vogel,20150325162639,20150326,20150407,20150330,680,Reiniging,Op bestrating en in het groen,Dode dieren in openbaar gebied/in water,,ONWAAR,ONWAAR,WAAR,ONWAAR,Lange Achterweg,103, ,62,Spieringshoek,60,Nieuwland,Schiedam,,,4.378006714,51.91339384,Simon Rijnbendestraat,adres,
147060,MLD0601,TELEFOON,Parkeerautomaten; Buiten werking,thv nr 92,20150413140912,20150414,20150417,20150417,650,Straatmeubilair,Parkeerautomaten,PA buiten werking,parkeren,ONWAAR,WAAR,WAAR,ONWAAR,Singel,92, ,62,Spieringshoek,60,Nieuwland,Schiedam,,,4.382256812,51.92208913,Van Limburg Stirumstraat,adres,
144767,AB.10.0116,TELEFOON,WC Huisvuil met pas; WC HV MP Trommel geblokkeerd,container 022 is de trommel geblokkeerd. Graag nakijken.,20150330115806,20150331,20150403,20150401,629,Afval inzameling,WC Huisvuil met pas,WC HV MP Trommel geblokkeerd,afvalinzameling,ONWAAR,WAAR,WAAR,ONWAAR,Nieuwe Maasstraat,55,3114TE,42,Eilandenbuurt,40,Zuid,Schiedam,,,4.404072771,51.90466325,Nieuwe Maasstraat,melding,3114TE
145102,AB.10.0111,TELEFOON,WC Huisvuil met pas; WC HV MP Huisvuil ernaast,Er ligt een huisvuilzak naast de container. Graag een verzoek om deze te verwijderen.,20150331151351,20150401,20150409,20150409,624,Afval inzameling,WC Huisvuil met pas,WC HV MP Huisvuil ernaast,afvalinzameling,WAAR,ONWAAR,WAAR,ONWAAR,Smetanalaan,16,3122HP,74,Groenoord-Noord,70,Groenoord en Kethel,Schiedam,,,4.365231293,51.93548877,Smetanalaan,melding,3122HP
161244,UC.02.01,WEBFORM,Beplanting; Beplanting snoeien,"Dat dit jaar de struiken bij ons voor de deur nog niet gesnoeid zijn ze worden erg hoog en met de vakantie periode voor de deur ook inbraak gevoelig we zitten n.l in een hoek en als het groen erg hoog is ziet niemand iets
en als het op knie hoogte snoeien een keer wil ik het desnoods ook zelf bijhouden",20150707094359,20150708,20150710,20150713,752,Groen,Beplanting,Beplanting snoeien,bomen en beplanting,ONWAAR,ONWAAR,WAAR,ONWAAR,Royaardsplein,33, ,15,Wetenschappersbuurt,10,Oost,Schiedam,,,4.416302623,51.91813489,Hogenbanweg,adres,
153157,UB.15.01,WEBFORM,Gehandicaptenparkeerplaats; Vragen over plaatsing,"Bijna twee maanden geleden is een straatgenoot overleden. Hij had een gehandicapten parkeerplaats maar reed al jaren geen auto meer. Zijn auto en daarbij horende gehandicaptenparkeerplaats wordt al jaren gebruikt (misbruikt) door zijn familie, die verderop in de straat woont. Ook nu nog. Het gaat om de parkeerplaats behorende bij Oosterstraat 91. Ik verzoek u deze gehandicaptenvergunning plus bijbehorend bord en kruis op te heffen, aangezien de rechthebbende niet meer leeft.",20150522140646,20150526,20150526,20150602,736,Straatmeubilair,Gehandicapten parkeerplaats,Vragen over plaatsing,parkeren,ONWAAR,ONWAAR,ONWAAR,WAAR,Oosterstraat,91, ,15,Wetenschappersbuurt,10,Oost,Schiedam,,,4.415036773,51.92047179,Horvathweg,adres,
164322,MLD0822,WEBFORM,Straatverlichting; OV meer lampen stuk,"in de hele straat branden nu al voor de derde dag geen straatlantaarns. 
(Ik weet niet of iemand anders  ook al melding heeft gemaakt)",20150717223851,20150720,20150721,20150723,660,Straatmeubilair,Straatverlichting,OV meer lampen stuk,verlichting,ONWAAR,WAAR,WAAR,ONWAAR,Prins Frederik Hendrikst,23, ,15,Wetenschappersbuurt,10,Oost,Schiedam,,,4.416379252,51.91836711,Hogenbanweg,adres,
161706,AB.11.0105,TELEFOON,Dumping; Dumping vuilniszakken,Vuiliniszakken op straat gezet. Schijnt vaker te gebeuren en staan voor de deur van de woning waar het om zou gaan. Mevr wil anoniem blijven.,20150708102340,20150709,20150709,20150714,634,Afval inzameling,Dumping,Dumping vuilniszakken,grofvuil en dumping,WAAR,ONWAAR,WAAR,ONWAAR,Villastraat,94, ,22,Walvisbuurt,20,Centrum (tussen havens en grachten),Schiedam,,,4.39571381,51.91610573,Westvest,adres,
156821,MLD0821,WEBFORM,Straatverlichting; OV 1 lamp stuk,"Straatlantaarn nr. 5 op de Westlander te Schiedam Woudhoek-botenbuurt recht tegenover huis nr. 27, brand niet.",20150612124509,20150615,20150702,20150618,659,Straatmeubilair,Straatverlichting,OV 1 lamp stuk,verlichting,ONWAAR,WAAR,WAAR,ONWAAR,Westlander,27, ,15,Wetenschappersbuurt,10,Oost,Schiedam,,,4.416347455,51.91827794,Hogenbanweg,adres,
177764,MLD0601,TELEFOON,Parkeerautomaten; Buiten werking,"kenteken 45-PG-FK
merk grijs merk mercedes",20150916113512,20150917,20150916,20150922,650,Straatmeubilair,Parkeerautomaten,PA buiten werking,parkeren,ONWAAR,WAAR,WAAR,ONWAAR,Copernicusplein,4, ,66,Schiehart,60,Nieuwland,Schiedam,,,4.400360427,51.92331949,Jan van Zutphenstraat,adres,
187584,AB.06.0201,TELEFOON,Mini-container GFT; MC GFT Niet geleegd,Er staan er vijf buiten die niet geleegd zijn. Het is vandaag wel op haal dag.,20151029145424,20151030,20151103,20151102,534,Afval inzameling,Mini-container GFT,MC GFT Niet geleegd,afvalinzameling,ONWAAR,ONWAAR,WAAR,ONWAAR,Willem Andriessenlaan,2, ,62,Spieringshoek,60,Nieuwland,Schiedam,,,4.382697521,51.92254161,Bijdorpplein,adres,
268232,UB.05.03,EMAIL,"Beton, hout of kunststofpaal; Beton, hout of kunststofpaal ontbreekt/gebroken",kunststofpaal afgebroken.,20160905135443,20160906,20160909,20160909,2047,Straatmeubilair,"Beton, hout of kunststofpaal","Beton, hout of kunststofpaal ontbreekt/gebroken",vandalisme / onzorgvuldigheid,ONWAAR,WAAR,ONWAAR,WAAR,Buitenhavenweg,180,3113BG,17,Rotterdamsedijk,10,Oost,SCHIEDAM,,,4.402381505,51.91427213,Buitenhavenweg,melding,3113BG
291519,MLD0821,TELEFOON,Straatverlichting; OV 1 lamp stuk,1 lichtmast defect Callandstraat-Koolhovenstraat 15,20161130103438,20161201,20161206,20161206,1999,Straatmeubilair,Straatverlichting,OV 1 lamp stuk,verlichting,ONWAAR,WAAR,WAAR,ONWAAR,Koolhovenstraat,15,3125BT,82,s-Gravelandsepolder,80,Industriegebied,SCHIEDAM,,,4.399002311,51.93351123,Koolhovenstraat,melding,3125BT
302687,AB.04.0111,EMAIL,GV Onjuist aangeboden,Matras bij de container,20170116103246,20170117,20170117,20170118,1860,Afval inzameling,Grofvuil,GV Onjuist aangeboden,grofvuil en dumping,WAAR,ONWAAR,WAAR,ONWAAR,Rotterdamsedijk,92, ,62,Spieringshoek,60,Nieuwland,Schiedam,,,4.382256812,51.92208913,Van Limburg Stirumstraat,adres,
