version,title2,latitude,longitude,ns1:field3217,description4,ns1:field3216,description5,ns1:field3210,description6,ns1:field3211,description7,ns1:field3212,description8,ns1:field3213,description9,ns1:field3214,description10
2,Van Lidth de Jeudestraat 2,52.0935040364,5.1293062692,30041,Zonenummer,133,Objectid,24104,Automaatnummer,Van Lidth de Jeudestraat 2,Adres,Buiten Wittevrouwen,Rayon,Utrecht,Woonplaats,3581GH,Postcode
2,Maliesingel 11,52.0916101321,5.1278299711,30041,Zonenummer,134,Objectid,24105,Automaatnummer,Maliesingel 11,Adres,Buiten Wittevrouwen,Rayon,Utrecht,Woonplaats,3531BC,Postcode
2,Schoolstraat 18,52.0914657722,5.1291763055,30041,Zonenummer,135,Objectid,24106,Automaatnummer,Schoolstraat 18,Adres,Buiten Wittevrouwen,Rayon,Utrecht,Woonplaats,3581PT,Postcode
2,Pieter Nieuwlandstraat 5,52.1024629257,5.1240438622,30072,Zonenummer,558,Objectid,37209,Automaatnummer,Pieter Nieuwlandstraat 5,Adres,Tuinwijk nrd,Rayon,Utrecht,Woonplaats,3514HA,Postcode
2,Pieter Nieuwlandstraat 26,52.1028253386,5.1247925673,30072,Zonenummer,559,Objectid,37210,Automaatnummer,Pieter Nieuwlandstraat 26,Adres,Tuinwijk nrd,Rayon,Utrecht,Woonplaats,3514HS,Postcode
2,Nolenslaan 2,52.1012956135,5.1160045474,30072,Zonenummer,560,Objectid,37211,Automaatnummer,Nolenslaan 2,Adres,Tuinwijk nrd,Rayon,Utrecht,Woonplaats,3515VE,Postcode
2,Nolenslaan 26,52.1026096225,5.1163412350,30072,Zonenummer,561,Objectid,37212,Automaatnummer,Nolenslaan 26,Adres,Tuinwijk nrd,Rayon,Utrecht,Woonplaats,3515VH,Postcode
2,Samuel van Houtenstraat 14,52.1040752357,5.1169893491,30072,Zonenummer,562,Objectid,37213,Automaatnummer,Samuel van Houtenstraat 14,Adres,Tuinwijk nrd,Rayon,Utrecht,Woonplaats,3514EA,Postcode
2,Nolenslaan 59,52.1052019681,5.1171579726,30072,Zonenummer,563,Objectid,37214,Automaatnummer,Nolenslaan 59,Adres,Tuinwijk nrd,Rayon,Utrecht,Woonplaats,3515VD,Postcode
2,Samuel Mullerstraat 14,52.1051549119,5.1176276883,30072,Zonenummer,564,Objectid,37215,Automaatnummer,Samuel Mullerstraat 14,Adres,Tuinwijk nrd,Rayon,Utrecht,Woonplaats,3515EC,Postcode
2,Adriaen Beyerkade 36,52.1054030671,5.1198957245,30072,Zonenummer,565,Objectid,37216,Automaatnummer,Adriaen Beyerkade 36,Adres,Tuinwijk nrd,Rayon,Utrecht,Woonplaats,3515XV,Postcode
2,Van der Mondestraat 96,52.1044377009,5.1190305051,30072,Zonenummer,566,Objectid,37217,Automaatnummer,Van der Mondestraat 96,Adres,Tuinwijk nrd,Rayon,Utrecht,Woonplaats,3515BL,Postcode
2,Everard Foeckstraat 15,52.1048530823,5.1187693253,30072,Zonenummer,567,Objectid,37218,Automaatnummer,Everard Foeckstraat 15,Adres,Tuinwijk nrd,Rayon,Utrecht,Woonplaats,3515ED,Postcode
2,Van der Mondestraat 77,52.1030051074,5.1189327684,30072,Zonenummer,568,Objectid,37219,Automaatnummer,Van der Mondestraat 77,Adres,Tuinwijk nrd,Rayon,Utrecht,Woonplaats,3515BC,Postcode
2,Van der Mondestraat 51,52.1019844904,5.1184880441,30072,Zonenummer,569,Objectid,37220,Automaatnummer,Van der Mondestraat 51,Adres,Tuinwijk nrd,Rayon,Utrecht,Woonplaats,3515BB,Postcode
2,G v Walenborchstr 47,52.1034361538,5.1182570560,30072,Zonenummer,570,Objectid,37221,Automaatnummer,G v Walenborchstr 47,Adres,Tuinwijk nrd,Rayon,Utrecht,Woonplaats,3515BS,Postcode
2,Bucheliusstraat 12,52.1024958643,5.1191904555,30072,Zonenummer,571,Objectid,37222,Automaatnummer,Bucheliusstraat 12,Adres,Tuinwijk nrd,Rayon,Utrecht,Woonplaats,3515VR,Postcode
2,Gerard Noodtstraat 13,52.1028389822,5.1211586215,30072,Zonenummer,572,Objectid,37223,Automaatnummer,Gerard Noodtstraat 13,Adres,Tuinwijk nrd,Rayon,Utrecht,Woonplaats,3515VV,Postcode
2,Burmanstraat 14,52.1024292442,5.1199266384,30072,Zonenummer,573,Objectid,37224,Automaatnummer,Burmanstraat 14,Adres,Tuinwijk nrd,Rayon,Utrecht,Woonplaats,3515VT,Postcode
2,Jacob van der Borchstr 17,52.1036106550,5.1200909456,30072,Zonenummer,574,Objectid,37225,Automaatnummer,Jacob van der Borchstr 17,Adres,Tuinwijk nrd,Rayon,Utrecht,Woonplaats,3515XA,Postcode
2,Antonius Matthaeuslaan 85,52.1049775452,5.1209202733,30072,Zonenummer,575,Objectid,37226,Automaatnummer,Antonius Matthaeuslaan 85,Adres,Tuinwijk nrd,Rayon,Utrecht,Woonplaats,3515AV,Postcode
2,Adriaen Beyerkade 14,52.1050557799,5.1222901137,30072,Zonenummer,576,Objectid,37227,Automaatnummer,Adriaen Beyerkade 14,Adres,Tuinwijk nrd,Rayon,Utrecht,Woonplaats,3515XT,Postcode
2,Adriaen Beyerkade 1,52.1048140999,5.1234968400,30072,Zonenummer,577,Objectid,37228,Automaatnummer,Adriaen Beyerkade 1,Adres,Tuinwijk nrd,Rayon,Utrecht,Woonplaats,3515XT,Postcode
2,Willem Arntszkade 67,52.1037199792,5.1233374990,30072,Zonenummer,578,Objectid,37229,Automaatnummer,Willem Arntszkade 67,Adres,Tuinwijk nrd,Rayon,Utrecht,Woonplaats,3515AL,Postcode
2,Antonius Matthaeuslaan 17,52.1034544886,5.1223225163,30072,Zonenummer,579,Objectid,37230,Automaatnummer,Antonius Matthaeuslaan 17,Adres,Tuinwijk nrd,Rayon,Utrecht,Woonplaats,3515AN,Postcode
2,Jan van den Doemstraat 54,52.1044599377,5.1225432659,30072,Zonenummer,580,Objectid,37231,Automaatnummer,Jan van den Doemstraat 54,Adres,Tuinwijk nrd,Rayon,Utrecht,Woonplaats,3515XS,Postcode
2,Antonius Matthaeuslaan 88,52.1043863683,5.1209732109,30072,Zonenummer,581,Objectid,37232,Automaatnummer,Antonius Matthaeuslaan 88,Adres,Tuinwijk nrd,Rayon,Utrecht,Woonplaats,3515AV,Postcode
2,Van der Mondestraat 26,52.1013659041,5.1179318366,30072,Zonenummer,582,Objectid,37233,Automaatnummer,Van der Mondestraat 26,Adres,Tuinwijk nrd,Rayon,Utrecht,Woonplaats,3515BH,Postcode
2,Grave van Solmsstraat 2,52.1013717487,5.1172292827,30072,Zonenummer,583,Objectid,37234,Automaatnummer,Grave van Solmsstraat 2,Adres,Tuinwijk nrd,Rayon,Utrecht,Woonplaats,3515EN,Postcode
2,Troelstralaan 13,52.1018286453,5.1156549847,30072,Zonenummer,584,Objectid,37235,Automaatnummer,Troelstralaan 13,Adres,Tuinwijk nrd,Rayon,Utrecht,Woonplaats,3515CB,Postcode
2,Troelstralaan 41,52.1032782037,5.1159446631,30072,Zonenummer,585,Objectid,37236,Automaatnummer,Troelstralaan 41,Adres,Tuinwijk nrd,Rayon,Utrecht,Woonplaats,3515CD,Postcode
2,Troelstralaan 67,52.1049535973,5.1162354729,30072,Zonenummer,586,Objectid,37237,Automaatnummer,Troelstralaan 67,Adres,Tuinwijk nrd,Rayon,Utrecht,Woonplaats,3515CG,Postcode
2,Troelstralaan 89,52.1057879402,5.1163491880,30072,Zonenummer,587,Objectid,37238,Automaatnummer,Troelstralaan 89,Adres,Tuinwijk nrd,Rayon,Utrecht,Woonplaats,3515CH,Postcode
2,Samuel Mullerstraat 101,52.1057275948,5.1180804193,30072,Zonenummer,588,Objectid,37239,Automaatnummer,Samuel Mullerstraat 101,Adres,Tuinwijk nrd,Rayon,Utrecht,Woonplaats,3515EC,Postcode
2,Goeman Borgesiuslaan 7,52.1016293609,5.1138845046,30072,Zonenummer,589,Objectid,37240,Automaatnummer,Goeman Borgesiuslaan 7,Adres,Tuinwijk nrd,Rayon,Utrecht,Woonplaats,3515ER,Postcode
2,Goeman Borgesiuslaan 17,52.1024010460,5.1136472099,30072,Zonenummer,590,Objectid,37241,Automaatnummer,Goeman Borgesiuslaan 17,Adres,Tuinwijk nrd,Rayon,Utrecht,Woonplaats,3515ES,Postcode
2,Schermerhornstraat 15,52.1032320583,5.1134166372,30072,Zonenummer,591,Objectid,37242,Automaatnummer,Schermerhornstraat 15,Adres,Tuinwijk nrd,Rayon,Utrecht,Woonplaats,3515GD,Postcode
2,Tuinwijk nrd,52.1037008012,5.1117371737,30072,Zonenummer,592,Objectid,37243,Automaatnummer,Tuinwijk nrd,Adres,Tuinwijk nrd,Rayon,Utrecht,Woonplaats,3515 GB,Postcode
2,Schermerhornstraat 5,52.1032000602,5.1129252367,30072,Zonenummer,593,Objectid,37244,Automaatnummer,Schermerhornstraat 5,Adres,Tuinwijk nrd,Rayon,Utrecht,Woonplaats,3515GD,Postcode
2,Verenigingstraat 30,52.1015995287,5.1130981550,30072,Zonenummer,594,Objectid,37245,Automaatnummer,Verenigingstraat 30,Adres,Tuinwijk nrd,Rayon,Utrecht,Woonplaats,3515GJ,Postcode
2,Lauwerecht 55,52.1012657019,5.1124526053,30072,Zonenummer,595,Objectid,37246,Automaatnummer,Lauwerecht 55,Adres,Tuinwijk nrd,Rayon,Utrecht,Woonplaats,3515GN,Postcode
2,Lauwerecht 88,52.1022685329,5.1120393788,30072,Zonenummer,596,Objectid,37247,Automaatnummer,Lauwerecht 88,Adres,Tuinwijk nrd,Rayon,Utrecht,Woonplaats,3515GV,Postcode
2,Willem Dreeslaan 2,52.1042704217,5.1113770253,30072,Zonenummer,597,Objectid,37248,Automaatnummer,Willem Dreeslaan 2,Adres,Tuinwijk nrd,Rayon,Utrecht,Woonplaats,3515GB,Postcode
2,Willem Dreeslaan 113,52.1041623021,5.1139818041,30072,Zonenummer,598,Objectid,37249,Automaatnummer,Willem Dreeslaan 113,Adres,Tuinwijk nrd,Rayon,Utrecht,Woonplaats,3515GB,Postcode
2,Oudlaan 2,52.1053135975,5.1136671213,30072,Zonenummer,599,Objectid,37250,Automaatnummer,Oudlaan 2,Adres,Tuinwijk nrd,Rayon,Utrecht,Woonplaats,3515GA,Postcode
2,Gerbrandystraat 20,52.1059187446,5.1140975057,30072,Zonenummer,600,Objectid,37251,Automaatnummer,Gerbrandystraat 20,Adres,Tuinwijk nrd,Rayon,Utrecht,Woonplaats,3515GC,Postcode
2,Talmalaan 55,52.1027077957,5.1150127710,30072,Zonenummer,601,Objectid,37252,Automaatnummer,Talmalaan 55,Adres,Tuinwijk nrd,Rayon,Utrecht,Woonplaats,3515CW,Postcode
2,F.C. Dondersstraat 1,52.0960469024,5.1387494893,30073,Zonenummer,602,Objectid,37301,Automaatnummer,F.C. Dondersstraat 1,Adres,Zeeheldenbuurt,Rayon,Utrecht,Woonplaats,3572JA,Postcode
2,F.C. Dondersstraat 17,52.0967227288,5.1387735648,30073,Zonenummer,603,Objectid,37302,Automaatnummer,F.C. Dondersstraat 17,Adres,Zeeheldenbuurt,Rayon,Utrecht,Woonplaats,3572JA,Postcode
2,Alexander Numankade 6,52.0981548850,5.1383432004,30073,Zonenummer,604,Objectid,37303,Automaatnummer,Alexander Numankade 6,Adres,Zeeheldenbuurt,Rayon,Utrecht,Woonplaats,3572KZ,Postcode
2,Cornelis Evertsenstraat 27,52.0991582188,5.1379507507,30073,Zonenummer,605,Objectid,37304,Automaatnummer,Cornelis Evertsenstraat 27,Adres,Zeeheldenbuurt,Rayon,Utrecht,Woonplaats,3572JR,Postcode
2,Bleyenburgstraat 1,52.0991109731,5.1394754191,30073,Zonenummer,606,Objectid,37305,Automaatnummer,Bleyenburgstraat 1,Adres,Zeeheldenbuurt,Rayon,Utrecht,Woonplaats,3572JN,Postcode
2,Van Brakelstraat 9,52.1002354397,5.1369678808,30073,Zonenummer,607,Objectid,37306,Automaatnummer,Van Brakelstraat 9,Adres,Zeeheldenbuurt,Rayon,Utrecht,Woonplaats,3572XR,Postcode
2,M.H. Trompstraat 15,52.1001040275,5.1372315531,30073,Zonenummer,608,Objectid,37307,Automaatnummer,M.H. Trompstraat 15,Adres,Zeeheldenbuurt,Rayon,Utrecht,Woonplaats,3572XT,Postcode
2,Admiraal van Gentstraat 11,52.0999430492,5.1392053927,30073,Zonenummer,609,Objectid,37308,Automaatnummer,Admiraal van Gentstraat 11,Adres,Zeeheldenbuurt,Rayon,Utrecht,Woonplaats,3572XE,Postcode
2,Admiraal van Gentstraat 51,52.1007124114,5.1375374898,30073,Zonenummer,610,Objectid,37309,Automaatnummer,Admiraal van Gentstraat 51,Adres,Zeeheldenbuurt,Rayon,Utrecht,Woonplaats,3572XH,Postcode
2,M.A. de Ruyterstraat 62,52.1002406284,5.1355838088,30073,Zonenummer,611,Objectid,37310,Automaatnummer,M.A. de Ruyterstraat 62,Adres,Zeeheldenbuurt,Rayon,Utrecht,Woonplaats,3572XN,Postcode
2,Jan van Galenstraat 41,52.1008655431,5.1356146051,30073,Zonenummer,612,Objectid,37311,Automaatnummer,Jan van Galenstraat 41,Adres,Zeeheldenbuurt,Rayon,Utrecht,Woonplaats,3572LB,Postcode
2,Zeeheldenbuurt,52.1012981208,5.1345348247,30073,Zonenummer,613,Objectid,37312,Automaatnummer,Zeeheldenbuurt,Adres,Zeeheldenbuurt,Rayon,Utrecht,Woonplaats,3572 WH,Postcode
2,Blauwkapelseweg 111,52.1023948888,5.1302722765,30073,Zonenummer,614,Objectid,37313,Automaatnummer,Blauwkapelseweg 111,Adres,Zeeheldenbuurt,Rayon,Utrecht,Woonplaats,3572KE,Postcode
2,Blauwkapelseweg 49,52.1009992484,5.1296650606,30073,Zonenummer,615,Objectid,37314,Automaatnummer,Blauwkapelseweg 49,Adres,Zeeheldenbuurt,Rayon,Utrecht,Woonplaats,3572KC,Postcode
2,Alexander Numankade 205,52.1006229901,5.1304478310,30073,Zonenummer,616,Objectid,37315,Automaatnummer,Alexander Numankade 205,Adres,Zeeheldenbuurt,Rayon,Utrecht,Woonplaats,3572KX,Postcode
2,Hekmeijerstraat 14,52.1010629780,5.1331347314,30073,Zonenummer,617,Objectid,37316,Automaatnummer,Hekmeijerstraat 14,Adres,Zeeheldenbuurt,Rayon,Utrecht,Woonplaats,3572WG,Postcode
2,Vermeulenstraat 4,52.1014332570,5.1333384911,30073,Zonenummer,618,Objectid,37317,Automaatnummer,Vermeulenstraat 4,Adres,Zeeheldenbuurt,Rayon,Utrecht,Woonplaats,3572WP,Postcode
2,De Blieckstraat 101,52.1014203476,5.1323622855,30073,Zonenummer,619,Objectid,37318,Automaatnummer,De Blieckstraat 101,Adres,Zeeheldenbuurt,Rayon,Utrecht,Woonplaats,3572WB,Postcode
2,Van Esveldstraat 21,52.1030112106,5.1313689069,30073,Zonenummer,620,Objectid,37319,Automaatnummer,Van Esveldstraat 21,Adres,Zeeheldenbuurt,Rayon,Utrecht,Woonplaats,3572KK,Postcode
2,Huizingalaan 3,52.1015876905,5.1365063178,30073,Zonenummer,621,Objectid,37320,Automaatnummer,Huizingalaan 3,Adres,Zeeheldenbuurt,Rayon,Utrecht,Woonplaats,3572LG,Postcode
2,Zeemanlaan 19,52.1019698916,5.1379064718,30073,Zonenummer,622,Objectid,37321,Automaatnummer,Zeemanlaan 19,Adres,Zeeheldenbuurt,Rayon,Utrecht,Woonplaats,3572ZC,Postcode
2,Oortlaan 24,52.1016882430,5.1392666465,30073,Zonenummer,623,Objectid,37322,Automaatnummer,Oortlaan 24,Adres,Zeeheldenbuurt,Rayon,Utrecht,Woonplaats,3572ZM,Postcode
2,Huizingalaan 38,52.1012481330,5.1384381343,30073,Zonenummer,624,Objectid,37323,Automaatnummer,Huizingalaan 38,Adres,Zeeheldenbuurt,Rayon,Utrecht,Woonplaats,3572LN,Postcode
2,De Munnikplein 1,52.1012276748,5.1421329732,30073,Zonenummer,625,Objectid,37324,Automaatnummer,De Munnikplein 1,Adres,Zeeheldenbuurt,Rayon,Utrecht,Woonplaats,3572LS,Postcode
2,Smijerslaan 2,52.1006196726,5.1411116478,30073,Zonenummer,626,Objectid,37325,Automaatnummer,Smijerslaan 2,Adres,Zeeheldenbuurt,Rayon,Utrecht,Woonplaats,3572LP,Postcode
2,Huizingalaan 97,52.1006054140,5.1392095130,30073,Zonenummer,627,Objectid,37326,Automaatnummer,Huizingalaan 97,Adres,Zeeheldenbuurt,Rayon,Utrecht,Woonplaats,3572LK,Postcode
2,Cornelis Houtmanstraat 21,52.0990037384,5.1420218388,30073,Zonenummer,628,Objectid,37327,Automaatnummer,Cornelis Houtmanstraat 21,Adres,Zeeheldenbuurt,Rayon,Utrecht,Woonplaats,3572LT,Postcode
2,Willem Barentszstraat 72,52.0981977471,5.1406869649,30073,Zonenummer,629,Objectid,37328,Automaatnummer,Willem Barentszstraat 72,Adres,Zeeheldenbuurt,Rayon,Utrecht,Woonplaats,3572PN,Postcode
2,Willem Barentszstraat 32,52.0969702110,5.1405655700,30073,Zonenummer,630,Objectid,37329,Automaatnummer,Willem Barentszstraat 32,Adres,Zeeheldenbuurt,Rayon,Utrecht,Woonplaats,3572PK,Postcode
2,Karel Doormanlaan 79,52.0970420815,5.1419669508,30073,Zonenummer,631,Objectid,37330,Automaatnummer,Karel Doormanlaan 79,Adres,Zeeheldenbuurt,Rayon,Utrecht,Woonplaats,3572NJ,Postcode
2,Karel Doormanlaan 141,52.0978784576,5.1419722884,30073,Zonenummer,632,Objectid,37331,Automaatnummer,Karel Doormanlaan 141,Adres,Zeeheldenbuurt,Rayon,Utrecht,Woonplaats,3572NP,Postcode
2,Buys Ballotstraat 7,52.0966295097,5.1398832326,30073,Zonenummer,633,Objectid,37332,Automaatnummer,Buys Ballotstraat 7,Adres,Zeeheldenbuurt,Rayon,Utrecht,Woonplaats,3572ZP,Postcode
2,Buys Ballotstraat 32,52.0980105133,5.1401698095,30073,Zonenummer,634,Objectid,37333,Automaatnummer,Buys Ballotstraat 32,Adres,Zeeheldenbuurt,Rayon,Utrecht,Woonplaats,3572ZS,Postcode
2,Cornelis Houtmanstraat 4,52.0997081770,5.1403721396,30073,Zonenummer,635,Objectid,37334,Automaatnummer,Cornelis Houtmanstraat 4,Adres,Zeeheldenbuurt,Rayon,Utrecht,Woonplaats,3572LV,Postcode
2,Biltstraat 206,52.0957639985,5.1409750238,30073,Zonenummer,636,Objectid,37335,Automaatnummer,Biltstraat 206,Adres,Zeeheldenbuurt,Rayon,Utrecht,Woonplaats,3572BS,Postcode
2,Van Lieflandlaan 71,52.1075252433,5.1184131256,30077,Zonenummer,637,Objectid,37701,Automaatnummer,Van Lieflandlaan 71,Adres,Tuindorp,Rayon,Utrecht,Woonplaats,3571AA,Postcode
2,Reinder Blijstralaan 50,52.1066421255,5.1191050822,30077,Zonenummer,638,Objectid,37702,Automaatnummer,Reinder Blijstralaan 50,Adres,Tuindorp,Rayon,Utrecht,Woonplaats,3571AT,Postcode
2,Reinder Blijstralaan 84,52.1068314252,5.1201717500,30077,Zonenummer,639,Objectid,37703,Automaatnummer,Reinder Blijstralaan 84,Adres,Tuindorp,Rayon,Utrecht,Woonplaats,3571AT,Postcode
2,Van Lieflandlaan 85,52.1074934256,5.1189183168,30077,Zonenummer,640,Objectid,37704,Automaatnummer,Van Lieflandlaan 85,Adres,Tuindorp,Rayon,Utrecht,Woonplaats,3571AE,Postcode
2,Christiaan Krammlaan 2,52.1086423367,5.1210109712,30077,Zonenummer,641,Objectid,37705,Automaatnummer,Christiaan Krammlaan 2,Adres,Tuindorp,Rayon,Utrecht,Woonplaats,3571AX,Postcode
2,Mr. Tripkade 44,52.1079561884,5.1223555623,30077,Zonenummer,642,Objectid,37706,Automaatnummer,Mr. Tripkade 44,Adres,Tuindorp,Rayon,Utrecht,Woonplaats,3571SZ,Postcode
2,Mr. Tripkade 19,52.1070863591,5.1211685111,30077,Zonenummer,643,Objectid,37707,Automaatnummer,Mr. Tripkade 19,Adres,Tuindorp,Rayon,Utrecht,Woonplaats,3571SV,Postcode
2,Drakenburgstraat 1,52.0926646122,5.1174292663,30012,Zonenummer,21,Objectid,11217,Automaatnummer,Drakenburgstraat 1,Adres,Janskerkhof,Rayon,Utrecht,Woonplaats,3512AC,Postcode
2,Oudkerkhof 25,52.0917398418,5.1212237663,30012,Zonenummer,22,Objectid,11219,Automaatnummer,Oudkerkhof 25,Adres,Janskerkhof,Rayon,Utrecht,Woonplaats,3512GJ,Postcode
2,Jansdam 14,52.0926732943,5.1227407091,30012,Zonenummer,24,Objectid,11221,Automaatnummer,Jansdam 14,Adres,Janskerkhof,Rayon,Utrecht,Woonplaats,3512HB,Postcode
2,Kromme Nieuwegracht 24,52.0922509750,5.1248458082,30012,Zonenummer,25,Objectid,11222,Automaatnummer,Kromme Nieuwegracht 24,Adres,Janskerkhof,Rayon,Utrecht,Woonplaats,3512HJ,Postcode
2,Voetiusstraat 3,52.0912908296,5.1232853931,30012,Zonenummer,27,Objectid,11224,Automaatnummer,Voetiusstraat 3,Adres,Janskerkhof,Rayon,Utrecht,Woonplaats,3512JL,Postcode
2,Minrebroederstraat 13,52.0924509896,5.1210340566,30012,Zonenummer,28,Objectid,11228,Automaatnummer,Minrebroederstraat 13,Adres,Janskerkhof,Rayon,Utrecht,Woonplaats,3512GS,Postcode
2,Lepelenburg (park),52.0886743446,5.1282445497,30021,Zonenummer,29,Objectid,12101,Automaatnummer,Lepelenburg (park),Adres,Nieuwegracht,Rayon,Utrecht,Woonplaats,3512NJ,Postcode
2,Kromme Nieuwegracht 82,52.0902933215,5.1246894570,30021,Zonenummer,30,Objectid,12102,Automaatnummer,Kromme Nieuwegracht 82,Adres,Nieuwegracht,Rayon,Utrecht,Woonplaats,3512HM ,Postcode
2,Nieuwegracht 1,52.0897712312,5.1236893155,30021,Zonenummer,31,Objectid,12103,Automaatnummer,Nieuwegracht 1,Adres,Nieuwegracht,Rayon,Utrecht,Woonplaats,3512LB,Postcode
2,Nieuwegracht 29 bis,52.0888098457,5.1240658081,30021,Zonenummer,32,Objectid,12104,Automaatnummer,Nieuwegracht 29 bis,Adres,Nieuwegracht,Rayon,Utrecht,Woonplaats,3512LD,Postcode
2,Nieuwegracht 59,52.0880263363,5.1248676529,30021,Zonenummer,33,Objectid,12105,Automaatnummer,Nieuwegracht 59,Adres,Nieuwegracht,Rayon,Utrecht,Woonplaats,3512LE,Postcode
2,Nieuwegracht 60,52.0876413540,5.1259215116,30021,Zonenummer,34,Objectid,12106,Automaatnummer,Nieuwegracht 60,Adres,Nieuwegracht,Rayon,Utrecht,Woonplaats,3512LT,Postcode
2,Nieuwegracht 125 bis,52.0865542031,5.1261897265,30021,Zonenummer,35,Objectid,12107,Automaatnummer,Nieuwegracht 125 bis,Adres,Nieuwegracht,Rayon,Utrecht,Woonplaats,3512LK,Postcode
2,Nieuwegracht 161,52.0856482135,5.1268558047,30021,Zonenummer,36,Objectid,12108,Automaatnummer,Nieuwegracht 161,Adres,Nieuwegracht,Rayon,Utrecht,Woonplaats,3512LL,Postcode
2,Nieuwegracht (parkje),52.0851050680,5.1277837486,30021,Zonenummer,37,Objectid,12109,Automaatnummer,Nieuwegracht (parkje),Adres,Nieuwegracht,Rayon,Utrecht,Woonplaats,3512LN,Postcode
2,Korte Nieuwstraat 19,52.0896645250,5.1219700312,30021,Zonenummer,38,Objectid,12110,Automaatnummer,Korte Nieuwstraat 19,Adres,Nieuwegracht,Rayon,Utrecht,Woonplaats,3512NM,Postcode
2,Lange Nieuwstraat 58,52.0861455601,5.1244780965,30021,Zonenummer,39,Objectid,12112,Automaatnummer,Lange Nieuwstraat 58,Adres,Nieuwegracht,Rayon,Utrecht,Woonplaats,3512PK,Postcode
2,Groenestraat 26,52.0859510665,5.1260350021,30021,Zonenummer,40,Objectid,12113,Automaatnummer,Groenestraat 26,Adres,Nieuwegracht,Rayon,Utrecht,Woonplaats,3512PV,Postcode
2,Lange Nieuwstraat 98,52.0850292310,5.1255239512,30021,Zonenummer,41,Objectid,12114,Automaatnummer,Lange Nieuwstraat 98,Adres,Nieuwegracht,Rayon,Utrecht,Woonplaats,3512PN,Postcode
2,Nicolaaskerkhof 8,52.0833255615,5.1253912192,30021,Zonenummer,42,Objectid,12115,Automaatnummer,Nicolaaskerkhof 8,Adres,Nieuwegracht,Rayon,Utrecht,Woonplaats,3512XC,Postcode
2,Twijnstraat 22,52.0832117110,5.1235329385,30021,Zonenummer,43,Objectid,12116,Automaatnummer,Twijnstraat 22,Adres,Nieuwegracht,Rayon,Utrecht,Woonplaats,3511ZK,Postcode
2,Moreelsepark 3,52.0874347848,5.1155374995,30022,Zonenummer,44,Objectid,12201,Automaatnummer,Moreelsepark 3,Adres,Springweg,Rayon,Utrecht,Woonplaats,3511EP,Postcode
2,Moreelsepark 2,52.0881580673,5.1143054121,30022,Zonenummer,45,Objectid,12202,Automaatnummer,Moreelsepark 2,Adres,Springweg,Rayon,Utrecht,Woonplaats,3511EP,Postcode
2,Moreelsepark 1,52.0886837734,5.1138217551,30022,Zonenummer,46,Objectid,12203,Automaatnummer,Moreelsepark 1,Adres,Springweg,Rayon,Utrecht,Woonplaats,3511EP,Postcode
2,Mariaplaats 24,52.0896214354,5.1162898938,30022,Zonenummer,47,Objectid,12204,Automaatnummer,Mariaplaats 24,Adres,Springweg,Rayon,Utrecht,Woonplaats,3511LL,Postcode
2,Lange Smeestraat 40,52.0854630428,5.1196038079,30022,Zonenummer,50,Objectid,12207,Automaatnummer,Lange Smeestraat 40,Adres,Springweg,Rayon,Utrecht,Woonplaats,3511PZ,Postcode
2,Oudegracht 223,52.0877573851,5.1213446338,30022,Zonenummer,51,Objectid,12208,Automaatnummer,Oudegracht 223,Adres,Springweg,Rayon,Utrecht,Woonplaats,3511NJ,Postcode
2,Oudegracht 277,52.0863691722,5.1217969354,30022,Zonenummer,52,Objectid,12209,Automaatnummer,Oudegracht 277,Adres,Springweg,Rayon,Utrecht,Woonplaats,3511NN,Postcode
2,Oudegracht 327,52.0849320770,5.1223198353,30022,Zonenummer,53,Objectid,12210,Automaatnummer,Oudegracht 327,Adres,Springweg,Rayon,Utrecht,Woonplaats,3511PC,Postcode
2,Bijlhouwerstraat 6,52.0815552868,5.1229217513,30022,Zonenummer,54,Objectid,12211,Automaatnummer,Bijlhouwerstraat 6,Adres,Springweg,Rayon,Utrecht,Woonplaats,3511ZC,Postcode
2,Jaarbeurs,52.0938884282,5.1090104208,30091,Zonenummer,59,Objectid,19201,Automaatnummer,Jaarbeurs,Adres,Jaarbeurs,Rayon,Utrecht,Woonplaats,3511,Postcode
2,Abstederdijk 133,52.0834564259,5.1296374012,30031,Zonenummer,60,Objectid,23101,Automaatnummer,Abstederdijk 133,Adres,Oudwijk,Rayon,Utrecht,Woonplaats,3582BE,Postcode
2,Maliesingel 77,52.0840424042,5.1299011887,30031,Zonenummer,62,Objectid,23103,Automaatnummer,Maliesingel 77,Adres,Oudwijk,Rayon,Utrecht,Woonplaats,3582BB,Postcode
2,Tolsteegsingel 7,52.0833943081,5.1276413160,30031,Zonenummer,63,Objectid,23104,Automaatnummer,Tolsteegsingel 7,Adres,Oudwijk,Rayon,Utrecht,Woonplaats,3582AH,Postcode
2,Tolsteegsingel 24,52.0825226249,5.1268865245,30031,Zonenummer,64,Objectid,23105,Automaatnummer,Tolsteegsingel 24,Adres,Oudwijk,Rayon,Utrecht,Woonplaats,3582AG,Postcode
2,Tolsteegsingel 34,52.0819300541,5.1265507555,30031,Zonenummer,65,Objectid,23106,Automaatnummer,Tolsteegsingel 34,Adres,Oudwijk,Rayon,Utrecht,Woonplaats,3582AD,Postcode
2,Oosterstraat 1,52.0856010513,5.1309362489,30031,Zonenummer,67,Objectid,23108,Automaatnummer,Oosterstraat 1,Adres,Oudwijk,Rayon,Utrecht,Woonplaats,3581MK,Postcode
2,Zonstraat 30,52.0853948528,5.1322903167,30031,Zonenummer,68,Objectid,23109,Automaatnummer,Zonstraat 30,Adres,Oudwijk,Rayon,Utrecht,Woonplaats,3581ML,Postcode
2,Oosterstraat 37,52.0859435115,5.1320825654,30031,Zonenummer,69,Objectid,23110,Automaatnummer,Oosterstraat 37,Adres,Oudwijk,Rayon,Utrecht,Woonplaats,3581MT,Postcode
2,Zonstraat 76,52.0851977305,5.1344082993,30031,Zonenummer,70,Objectid,23111,Automaatnummer,Zonstraat 76,Adres,Oudwijk,Rayon,Utrecht,Woonplaats,3581MV,Postcode
2,Zonstraat 51,52.0848555096,5.1359384563,30031,Zonenummer,71,Objectid,23112,Automaatnummer,Zonstraat 51,Adres,Oudwijk,Rayon,Utrecht,Woonplaats,3581MR,Postcode
2,Zonstraat 91,52.0849456082,5.1371144774,30031,Zonenummer,72,Objectid,23113,Automaatnummer,Zonstraat 91,Adres,Oudwijk,Rayon,Utrecht,Woonplaats,3581MR,Postcode
2,Homeruslaan 40,52.0859301868,5.1352490510,30031,Zonenummer,73,Objectid,23114,Automaatnummer,Homeruslaan 40,Adres,Oudwijk,Rayon,Utrecht,Woonplaats,3581MJ,Postcode
2,Homeruslaan 11,52.0856825265,5.1334115916,30031,Zonenummer,74,Objectid,23115,Automaatnummer,Homeruslaan 11,Adres,Oudwijk,Rayon,Utrecht,Woonplaats,3581MB,Postcode
2,Oudwijkerdwarsstraat 59,52.0862255112,5.1331892511,30031,Zonenummer,75,Objectid,23116,Automaatnummer,Oudwijkerdwarsstraat 59,Adres,Oudwijk,Rayon,Utrecht,Woonplaats,3581LA,Postcode
2,Eikstraat 37,52.0869565174,5.1340949399,30031,Zonenummer,76,Objectid,23117,Automaatnummer,Eikstraat 37,Adres,Oudwijk,Rayon,Utrecht,Woonplaats,3581XK,Postcode
2,Oudwijkerdwarsstraat 123,52.0878086038,5.1350342636,30031,Zonenummer,77,Objectid,23118,Automaatnummer,Oudwijkerdwarsstraat 123,Adres,Oudwijk,Rayon,Utrecht,Woonplaats,3581LC,Postcode
2,Oudwijkerdwarsstraat 148,52.0884618609,5.1352928515,30031,Zonenummer,78,Objectid,23119,Automaatnummer,Oudwijkerdwarsstraat 148,Adres,Oudwijk,Rayon,Utrecht,Woonplaats,3581LJ,Postcode
2,Noorderstraat 1a,52.0965444639,5.1214989990,30012,Zonenummer,13,Objectid,11207,Automaatnummer,Noorderstraat 1a,Adres,Janskerkhof,Rayon,Utrecht,Woonplaats,3512VW,Postcode
2,Veilingstraat 2,52.0823739287,5.1106277699,30034,Zonenummer,123,Objectid,23405,Automaatnummer,Veilingstraat 2,Adres,Dichterswijk,Rayon,Utrecht,Woonplaats,3521BH,Postcode
2,Stieltjesstraat 64,52.0998218883,5.1245406161,30081,Zonenummer,310,Objectid,28146,Automaatnummer,Stieltjesstraat 64,Adres,Vogelenbuurt,Rayon,Utrecht,Woonplaats,3514JD,Postcode
2,Amsterdamsestraatweg 404,52.1039319608,5.0941317154,30999,Zonenummer,381,Objectid,33003,Automaatnummer,Amsterdamsestraatweg 404,Adres,Winkelstraat,Rayon,Utrecht,Woonplaats,3551CX,Postcode
2,Amsterdamsestraatweg 385,52.1045913348,5.0936047935,30999,Zonenummer,382,Objectid,33004,Automaatnummer,Amsterdamsestraatweg 385,Adres,Winkelstraat,Rayon,Utrecht,Woonplaats,3551CK,Postcode
2,Amsterdamsestraatweg 329,52.1035120754,5.0954293755,30999,Zonenummer,383,Objectid,33005,Automaatnummer,Amsterdamsestraatweg 329,Adres,Winkelstraat,Rayon,Utrecht,Woonplaats,3551CJ,Postcode
2,Amsterdamsestraatweg 299,52.1026101062,5.0969881035,30999,Zonenummer,384,Objectid,33006,Automaatnummer,Amsterdamsestraatweg 299,Adres,Winkelstraat,Rayon,Utrecht,Woonplaats,3551CG,Postcode
2,Adriaen van Ostadelaan 89,52.0817878742,5.1407030957,30062,Zonenummer,468,Objectid,36258,Automaatnummer,Adriaen van Ostadelaan 89,Adres,Schildersbuurt,Rayon,Utrecht,Woonplaats,3583AC,Postcode
2,Adriaen van Ostadelaan 129,52.0807680218,5.1409124984,30062,Zonenummer,469,Objectid,36259,Automaatnummer,Adriaen van Ostadelaan 129,Adres,Schildersbuurt,Rayon,Utrecht,Woonplaats,3583AM,Postcode
2,Burg Fockema Andreaeln 90,52.0809009310,5.1375724745,30065,Zonenummer,518,Objectid,36508,Automaatnummer,Burg Fockema Andreaeln 90,Adres,Rubenslaan,Rayon,Utrecht,Woonplaats,3582KT,Postcode
2,Ravellaan 1,52.0853421404,5.0957975694,30111,Zonenummer,704,Objectid,311101,Automaatnummer,Ravellaan 1,Adres,Welgelegen,Rayon,Utrecht,Woonplaats,3533JE,Postcode
2,Concordiastraat 61,52.0997167124,5.0982566997,30121,Zonenummer,726,Objectid,312121,Automaatnummer,Concordiastraat 61,Adres,2de Daalsebuurt,Rayon,Utrecht,Woonplaats,3551EL,Postcode
2,2e Daalsedijk 127,52.1003123696,5.0973524728,30121,Zonenummer,727,Objectid,312122,Automaatnummer,2e Daalsedijk 127,Adres,2de Daalsebuurt,Rayon,Utrecht,Woonplaats,3551EE,Postcode
2,Papaverstraat 47,52.1011024230,5.0966598693,30121,Zonenummer,729,Objectid,312124,Automaatnummer,Papaverstraat 47,Adres,2de Daalsebuurt,Rayon,Utrecht,Woonplaats,3551EV,Postcode
2,Ahornstraat 14,52.1027545676,5.1031166139,30122,Zonenummer,735,Objectid,312206,Automaatnummer,Ahornstraat 14,Adres,Ondiep,Rayon,Utrecht,Woonplaats,3552AS,Postcode
2,Admiraal Helfrichlaan 40,52.0800088882,5.0950710405,30102,Zonenummer,777,Objectid,610201,Automaatnummer,Admiraal Helfrichlaan 40,Adres,Nw Welgelegen west,Rayon,Utrecht,Woonplaats,3527KV,Postcode
2,Bergstraat 60,52.0939711682,5.1113495456,30011,Zonenummer,1,Objectid,11101,Automaatnummer,Bergstraat 60,Adres,Wijk C,Rayon,Utrecht,Woonplaats,3511RS,Postcode
2,Wijk C,52.0948458497,5.1110036974,30011,Zonenummer,2,Objectid,11102,Automaatnummer,Wijk C,Adres,Wijk C,Rayon,Utrecht,Woonplaats,3581 VM,Postcode
2,Paardenveld 2,52.0947329262,5.1126825780,30011,Zonenummer,3,Objectid,11103,Automaatnummer,Paardenveld 2,Adres,Wijk C,Rayon,Utrecht,Woonplaats,3511RD,Postcode
2,Kroonstraat 50,52.0949575882,5.1126578648,30011,Zonenummer,4,Objectid,11104,Automaatnummer,Kroonstraat 50,Adres,Wijk C,Rayon,Utrecht,Woonplaats,3511RC,Postcode
2,St.-Jacobsstraat 275,52.0957512036,5.1141192037,30011,Zonenummer,5,Objectid,11105,Automaatnummer,St.-Jacobsstraat 275,Adres,Wijk C,Rayon,Utrecht,Woonplaats,3511BP,Postcode
2,Oudegracht 82,52.0941779162,5.1168925242,30012,Zonenummer,7,Objectid,11201,Automaatnummer,Oudegracht 82,Adres,Janskerkhof,Rayon,Utrecht,Woonplaats,3511AT,Postcode
2,Oudegracht 48,52.0950743583,5.1168845815,30012,Zonenummer,8,Objectid,11202,Automaatnummer,Oudegracht 48,Adres,Janskerkhof,Rayon,Utrecht,Woonplaats,3511AR,Postcode
2,Predikherenkerkhof 24,52.0958215610,5.1178184549,30012,Zonenummer,9,Objectid,11203,Automaatnummer,Predikherenkerkhof 24,Adres,Janskerkhof,Rayon,Utrecht,Woonplaats,3512TK,Postcode
2,Breedstraat 15,52.0950046209,5.1192236160,30012,Zonenummer,10,Objectid,11204,Automaatnummer,Breedstraat 15,Adres,Janskerkhof,Rayon,Utrecht,Woonplaats,3512TS,Postcode
2,Breedstraat 76,52.0955110603,5.1197888823,30012,Zonenummer,11,Objectid,11205,Automaatnummer,Breedstraat 76,Adres,Janskerkhof,Rayon,Utrecht,Woonplaats,3512TX,Postcode
2,Wijde Begijnestraat 46,52.0957205148,5.1213772104,30012,Zonenummer,12,Objectid,11206,Automaatnummer,Wijde Begijnestraat 46,Adres,Janskerkhof,Rayon,Utrecht,Woonplaats,3512AX,Postcode
2,Plompetorengracht 14,52.0958631475,5.1233624032,30012,Zonenummer,14,Objectid,11208,Automaatnummer,Plompetorengracht 14,Adres,Janskerkhof,Rayon,Utrecht,Woonplaats,3512CD,Postcode
2,Plompetorengracht 1,52.0954059575,5.1236742846,30012,Zonenummer,15,Objectid,11209,Automaatnummer,Plompetorengracht 1,Adres,Janskerkhof,Rayon,Utrecht,Woonplaats,3512CA,Postcode
2,Wittevrouwenstraat 40,52.0950721443,5.1255117446,30012,Zonenummer,16,Objectid,11210,Automaatnummer,Wittevrouwenstraat 40,Adres,Janskerkhof,Rayon,Utrecht,Woonplaats,3512CV,Postcode
2,Lange Jufferstraat 22,52.0937711345,5.1253672584,30012,Zonenummer,17,Objectid,11212,Automaatnummer,Lange Jufferstraat 22,Adres,Janskerkhof,Rayon,Utrecht,Woonplaats,3512ED,Postcode
2,Janskerkhof 13a,52.0938259881,5.1229299448,30012,Zonenummer,18,Objectid,11213,Automaatnummer,Janskerkhof 13a,Adres,Janskerkhof,Rayon,Utrecht,Woonplaats,3512BL,Postcode
2,Janskerkhof 15,52.0938886268,5.1222335799,30012,Zonenummer,19,Objectid,11214,Automaatnummer,Janskerkhof 15,Adres,Janskerkhof,Rayon,Utrecht,Woonplaats,3512BL,Postcode
2,Voorstraat 32,52.0946509638,5.1196532622,30012,Zonenummer,20,Objectid,11216,Automaatnummer,Voorstraat 32,Adres,Janskerkhof,Rayon,Utrecht,Woonplaats,3512AP,Postcode
2,Krommerijn 71,52.0805367932,5.1263755851,30032,Zonenummer,104,Objectid,23210,Automaatnummer,Krommerijn 71,Adres,Watervogelbuurt,Rayon,Utrecht,Woonplaats,3582CT,Postcode
2,Gansstraat 26,52.0804868121,5.1254073486,30032,Zonenummer,105,Objectid,23211,Automaatnummer,Gansstraat 26,Adres,Watervogelbuurt,Rayon,Utrecht,Woonplaats,3582EH,Postcode
2,Oosterkade 10,52.0802338418,5.1238133656,30032,Zonenummer,106,Objectid,23212,Automaatnummer,Oosterkade 10,Adres,Watervogelbuurt,Rayon,Utrecht,Woonplaats,3582AT,Postcode
2,Oosterkade 24,52.0792262190,5.1232726617,30032,Zonenummer,107,Objectid,23213,Automaatnummer,Oosterkade 24,Adres,Watervogelbuurt,Rayon,Utrecht,Woonplaats,3582AV,Postcode
2,Pelikaanstraat 9,52.0786836449,5.1236022025,30032,Zonenummer,108,Objectid,23214,Automaatnummer,Pelikaanstraat 9,Adres,Watervogelbuurt,Rayon,Utrecht,Woonplaats,3582SB,Postcode
2,Gansstraat 163,52.0788971792,5.1277645138,30032,Zonenummer,109,Objectid,23215,Automaatnummer,Gansstraat 163,Adres,Watervogelbuurt,Rayon,Utrecht,Woonplaats,3582EG,Postcode
2,Gansstraat 132,52.0788022352,5.1288229927,30032,Zonenummer,110,Objectid,23216,Automaatnummer,Gansstraat 132,Adres,Watervogelbuurt,Rayon,Utrecht,Woonplaats,3582EM,Postcode
2,Ooievaarhof 30,52.0795021128,5.1275073370,30032,Zonenummer,111,Objectid,23217,Automaatnummer,Ooievaarhof 30,Adres,Watervogelbuurt,Rayon,Utrecht,Woonplaats,3582DC,Postcode
2,Gansstraat 64,52.0797435374,5.1267314736,30032,Zonenummer,112,Objectid,23218,Automaatnummer,Gansstraat 64,Adres,Watervogelbuurt,Rayon,Utrecht,Woonplaats,3582EK,Postcode
2,Raadwijk 5,52.0794885531,5.1181322870,30033,Zonenummer,113,Objectid,23301,Automaatnummer,Raadwijk 5,Adres,Hendrik Tollensstr,Rayon,Utrecht,Woonplaats,3521XZ,Postcode
2,Da Costakade 13,52.0793880501,5.1167820094,30033,Zonenummer,114,Objectid,23302,Automaatnummer,Da Costakade 13,Adres,Hendrik Tollensstr,Rayon,Utrecht,Woonplaats,3521VR,Postcode
2,Spieghelstraat 35,52.0798709952,5.1154132119,30033,Zonenummer,115,Objectid,23303,Automaatnummer,Spieghelstraat 35,Adres,Hendrik Tollensstr,Rayon,Utrecht,Woonplaats,3521XM,Postcode
2,Tesselschadestraat 15,52.0788764836,5.1152269867,30033,Zonenummer,116,Objectid,23304,Automaatnummer,Tesselschadestraat 15,Adres,Hendrik Tollensstr,Rayon,Utrecht,Woonplaats,3521XT,Postcode
2,Coornhertstraat 73,52.0805016649,5.1140303535,30033,Zonenummer,117,Objectid,23305,Automaatnummer,Coornhertstraat 73,Adres,Hendrik Tollensstr,Rayon,Utrecht,Woonplaats,3521XG,Postcode
2,Da Costakade 6,52.0789932413,5.1167553658,30033,Zonenummer,118,Objectid,23306,Automaatnummer,Da Costakade 6,Adres,Hendrik Tollensstr,Rayon,Utrecht,Woonplaats,3521VT,Postcode
2,Croeselaan 91,52.0861854376,5.1071927024,30034,Zonenummer,119,Objectid,23401,Automaatnummer,Croeselaan 91,Adres,Dichterswijk,Rayon,Utrecht,Woonplaats,3521BL,Postcode
2,Croeselaan 131,52.0853837689,5.1079563485,30034,Zonenummer,120,Objectid,23402,Automaatnummer,Croeselaan 131,Adres,Dichterswijk,Rayon,Utrecht,Woonplaats,3521BL,Postcode
2,Croeselaan 181,52.0844936146,5.1087914088,30034,Zonenummer,121,Objectid,23403,Automaatnummer,Croeselaan 181,Adres,Dichterswijk,Rayon,Utrecht,Woonplaats,3521BM,Postcode
2,Croeselaan 221,52.0833407122,5.1098621055,30034,Zonenummer,122,Objectid,23404,Automaatnummer,Croeselaan 221,Adres,Dichterswijk,Rayon,Utrecht,Woonplaats,3521BN,Postcode
2,Van der Goesstraat 88,52.0831346519,5.1107154600,30034,Zonenummer,124,Objectid,23406,Automaatnummer,Van der Goesstraat 88,Adres,Dichterswijk,Rayon,Utrecht,Woonplaats,3521XG,Postcode
2,Van der Goesstraat 25,52.0838637669,5.1113723621,30034,Zonenummer,125,Objectid,23407,Automaatnummer,Van der Goesstraat 25,Adres,Dichterswijk,Rayon,Utrecht,Woonplaats,3521TJ,Postcode
2,Asselijnstraat 29,52.0844448473,5.1116225936,30034,Zonenummer,126,Objectid,23408,Automaatnummer,Asselijnstraat 29,Adres,Dichterswijk,Rayon,Utrecht,Woonplaats,3521TB,Postcode
2,Jeremias de Deckerstraat 52,52.0834973956,5.1125775030,30034,Zonenummer,127,Objectid,23409,Automaatnummer,Jeremias de Deckerstraat 52,Adres,Dichterswijk,Rayon,Utrecht,Woonplaats,3521TP,Postcode
2,Hubert Pootstraat 1,52.0825289727,5.1112851284,30034,Zonenummer,128,Objectid,23410,Automaatnummer,Hubert Pootstraat 1,Adres,Dichterswijk,Rayon,Utrecht,Woonplaats,3521VA,Postcode
2,Jan Luykenstraat 2,52.0822629745,5.1117808565,30034,Zonenummer,129,Objectid,23411,Automaatnummer,Jan Luykenstraat 2,Adres,Dichterswijk,Rayon,Utrecht,Woonplaats,3521VC,Postcode
2,Wittevrouwensingel 31,52.0943399678,5.1274013404,30041,Zonenummer,130,Objectid,24101,Automaatnummer,Wittevrouwensingel 31,Adres,Buiten Wittevrouwen,Rayon,Utrecht,Woonplaats,3531GV,Postcode
2,Biltstraat 67,52.0950903905,5.1295437144,30041,Zonenummer,131,Objectid,24102,Automaatnummer,Biltstraat 67,Adres,Buiten Wittevrouwen,Rayon,Utrecht,Woonplaats,3572AH,Postcode
2,Kruisstraat 2,52.0938124739,5.1292708256,30041,Zonenummer,132,Objectid,24103,Automaatnummer,Kruisstraat 2,Adres,Buiten Wittevrouwen,Rayon,Utrecht,Woonplaats,3581GK,Postcode
2,Graadt van Roggenweg 5,52.0892933514,5.1027067141,30054,Zonenummer,254,Objectid,25402,Automaatnummer,Graadt van Roggenweg 5,Adres,Leidseweg,Rayon,Utrecht,Woonplaats,3531AA,Postcode
2,Graadt van Roggenweg 41,52.0879604011,5.1001371187,30054,Zonenummer,255,Objectid,25403,Automaatnummer,Graadt van Roggenweg 41,Adres,Leidseweg,Rayon,Utrecht,Woonplaats,3531AB,Postcode
2,Koningsbergerstraat 11,52.0873101089,5.0994053043,30054,Zonenummer,256,Objectid,25404,Automaatnummer,Koningsbergerstraat 11,Adres,Leidseweg,Rayon,Utrecht,Woonplaats,3531AJ,Postcode
2,Graadt van Roggenweg 7,52.0892068600,5.1023460470,30054,Zonenummer,257,Objectid,25405,Automaatnummer,Graadt van Roggenweg 7,Adres,Leidseweg,Rayon,Utrecht,Woonplaats,3531AE,Postcode
2,Muntkade 8,52.0862683869,5.0977932944,30054,Zonenummer,258,Objectid,25406,Automaatnummer,Muntkade 8,Adres,Leidseweg,Rayon,Utrecht,Woonplaats,3531AK,Postcode
2,Krugerstraat 39,52.0863815894,5.0983849173,30054,Zonenummer,259,Objectid,25407,Automaatnummer,Krugerstraat 39,Adres,Leidseweg,Rayon,Utrecht,Woonplaats,3531AN,Postcode
2,Muntkade 2,52.0865666459,5.0972101713,30054,Zonenummer,260,Objectid,25408,Automaatnummer,Muntkade 2,Adres,Leidseweg,Rayon,Utrecht,Woonplaats,3531AK,Postcode
2,Krugerstraat 17,52.0872778913,5.0978175868,30054,Zonenummer,261,Objectid,25409,Automaatnummer,Krugerstraat 17,Adres,Leidseweg,Rayon,Utrecht,Woonplaats,3531AL,Postcode
2,Leidseweg 83,52.0879104750,5.0969990989,30054,Zonenummer,262,Objectid,25410,Automaatnummer,Leidseweg 83,Adres,Leidseweg,Rayon,Utrecht,Woonplaats,3531BG,Postcode
2,Leidseweg 66,52.0884077592,5.0985448968,30054,Zonenummer,263,Objectid,25411,Automaatnummer,Leidseweg 66,Adres,Leidseweg,Rayon,Utrecht,Woonplaats,3531BE,Postcode
2,Leidseweg 29,52.0896670582,5.1026213422,30054,Zonenummer,264,Objectid,25412,Automaatnummer,Leidseweg 29,Adres,Leidseweg,Rayon,Utrecht,Woonplaats,3531BA,Postcode
2,Weerdsingel O.Z. 15,52.0967964421,5.1173666032,30081,Zonenummer,265,Objectid,28101,Automaatnummer,Weerdsingel O.Z. 15,Adres,Vogelenbuurt,Rayon,Utrecht,Woonplaats,3514AA,Postcode
2,Bemuurde Weerd O.Z. 39,52.0983878031,5.1143976556,30081,Zonenummer,266,Objectid,28102,Automaatnummer,Bemuurde Weerd O.Z. 39,Adres,Vogelenbuurt,Rayon,Utrecht,Woonplaats,3514AR,Postcode
2,Bemuurde Weerd O.Z. 13,52.0973295858,5.1154292047,30081,Zonenummer,267,Objectid,28103,Automaatnummer,Bemuurde Weerd O.Z. 13,Adres,Vogelenbuurt,Rayon,Utrecht,Woonplaats,3514AN,Postcode
2,Bemuurde Weerd O.Z. 56,52.0991973770,5.1137814322,30081,Zonenummer,268,Objectid,28104,Automaatnummer,Bemuurde Weerd O.Z. 56,Adres,Vogelenbuurt,Rayon,Utrecht,Woonplaats,3514AS,Postcode
2,Lauwerecht 22,52.1005074214,5.1123663535,30081,Zonenummer,269,Objectid,28105,Automaatnummer,Lauwerecht 22,Adres,Vogelenbuurt,Rayon,Utrecht,Woonplaats,3514BB,Postcode
2,Draaiweg 15,52.1007657852,5.1130158279,30081,Zonenummer,270,Objectid,28106,Automaatnummer,Draaiweg 15,Adres,Vogelenbuurt,Rayon,Utrecht,Woonplaats,3514AJ,Postcode
2,Merelstraat 18,52.1000306553,5.1153187117,30081,Zonenummer,272,Objectid,28108,Automaatnummer,Merelstraat 18,Adres,Vogelenbuurt,Rayon,Utrecht,Woonplaats,3514CN,Postcode
2,Adelaarstraat 42,52.0994268013,5.1161812214,30081,Zonenummer,273,Objectid,28109,Automaatnummer,Adelaarstraat 42,Adres,Vogelenbuurt,Rayon,Utrecht,Woonplaats,3514CG,Postcode
2,Gruttersdijk 24,52.0980675232,5.1162531621,30081,Zonenummer,274,Objectid,28110,Automaatnummer,Gruttersdijk 24,Adres,Vogelenbuurt,Rayon,Utrecht,Woonplaats,3514BG,Postcode
2,Hopakker 59,52.0983829725,5.1167836285,30081,Zonenummer,275,Objectid,28111,Automaatnummer,Hopakker 59,Adres,Vogelenbuurt,Rayon,Utrecht,Woonplaats,3514BV,Postcode
2,Weerdsingel O.Z. 31,52.0967766454,5.1192481245,30081,Zonenummer,276,Objectid,28112,Automaatnummer,Weerdsingel O.Z. 31,Adres,Vogelenbuurt,Rayon,Utrecht,Woonplaats,3514AB,Postcode
2,Weerdsingel O.Z. 61,52.0975166166,5.1215887541,30081,Zonenummer,277,Objectid,28113,Automaatnummer,Weerdsingel O.Z. 61,Adres,Vogelenbuurt,Rayon,Utrecht,Woonplaats,3514AG,Postcode
2,Bellamystraat 8,52.0971770161,5.1190296806,30081,Zonenummer,278,Objectid,28114,Automaatnummer,Bellamystraat 8,Adres,Vogelenbuurt,Rayon,Utrecht,Woonplaats,3514EL,Postcode
2,Nieuwe Koekoekstraat 2,52.0977387735,5.1173886310,30081,Zonenummer,279,Objectid,28115,Automaatnummer,Nieuwe Koekoekstraat 2,Adres,Vogelenbuurt,Rayon,Utrecht,Woonplaats,3514EE,Postcode
2,Adelaarstraat 68,52.0995219951,5.1169513278,30081,Zonenummer,280,Objectid,28116,Automaatnummer,Adelaarstraat 68,Adres,Vogelenbuurt,Rayon,Utrecht,Woonplaats,3514CG,Postcode
2,Nieuwe Keizersgracht 34,52.0999634320,5.1183084014,30081,Zonenummer,281,Objectid,28117,Automaatnummer,Nieuwe Keizersgracht 34,Adres,Vogelenbuurt,Rayon,Utrecht,Woonplaats,3514TX,Postcode
2,Adelaarstraat 53,52.0999311783,5.1191155449,30081,Zonenummer,282,Objectid,28118,Automaatnummer,Adelaarstraat 53,Adres,Vogelenbuurt,Rayon,Utrecht,Woonplaats,3514CC,Postcode
2,Koekoekstraat 73,52.0995538220,5.1186052495,30081,Zonenummer,283,Objectid,28119,Automaatnummer,Koekoekstraat 73,Adres,Vogelenbuurt,Rayon,Utrecht,Woonplaats,3514CV,Postcode
2,Nieuwe Koekoekstraat 29,52.0980766836,5.1191162130,30081,Zonenummer,284,Objectid,28120,Automaatnummer,Nieuwe Koekoekstraat 29,Adres,Vogelenbuurt,Rayon,Utrecht,Woonplaats,3514EA,Postcode
2,Kwartelstraat 14,52.0986889300,5.1211509124,30081,Zonenummer,285,Objectid,28121,Automaatnummer,Kwartelstraat 14,Adres,Vogelenbuurt,Rayon,Utrecht,Woonplaats,3514EV,Postcode
2,Weerdsingel O.Z. 35,52.0969201385,5.1198652310,30081,Zonenummer,286,Objectid,28122,Automaatnummer,Weerdsingel O.Z. 35,Adres,Vogelenbuurt,Rayon,Utrecht,Woonplaats,3514AC,Postcode
2,Weerdsingel O.Z. 87,52.0976049746,5.1236779780,30081,Zonenummer,287,Objectid,28123,Automaatnummer,Weerdsingel O.Z. 87,Adres,Vogelenbuurt,Rayon,Utrecht,Woonplaats,3514AK,Postcode
2,Kwartelstraat 60,52.0985430450,5.1235476265,30081,Zonenummer,288,Objectid,28124,Automaatnummer,Kwartelstraat 60,Adres,Vogelenbuurt,Rayon,Utrecht,Woonplaats,3514EX,Postcode
2,Menno van Coehoornstraat 34,52.0995665012,5.1236059393,30081,Zonenummer,289,Objectid,28125,Automaatnummer,Menno van Coehoornstraat 34,Adres,Vogelenbuurt,Rayon,Utrecht,Woonplaats,3514XG,Postcode
2,Simon Stevinstraat 12,52.0990334186,5.1232277765,30081,Zonenummer,290,Objectid,28126,Automaatnummer,Simon Stevinstraat 12,Adres,Vogelenbuurt,Rayon,Utrecht,Woonplaats,3514XC,Postcode
2,Van Humboldtstraat 21,52.0992122268,5.1221660325,30081,Zonenummer,291,Objectid,28127,Automaatnummer,Van Humboldtstraat 21,Adres,Vogelenbuurt,Rayon,Utrecht,Woonplaats,3514GL,Postcode
2,Nieuwe Koekoekstraat 135,52.0997839530,5.1212702024,30081,Zonenummer,292,Objectid,28128,Automaatnummer,Nieuwe Koekoekstraat 135,Adres,Vogelenbuurt,Rayon,Utrecht,Woonplaats,3514ED,Postcode
2,Havikstraat 12,52.0992025341,5.1191231239,30081,Zonenummer,293,Objectid,28129,Automaatnummer,Havikstraat 12,Adres,Vogelenbuurt,Rayon,Utrecht,Woonplaats,3514TP,Postcode
2,Willem van Noortplein 1,52.1023295250,5.1220059366,30081,Zonenummer,298,Objectid,28134,Automaatnummer,Willem van Noortplein 1,Adres,Vogelenbuurt,Rayon,Utrecht,Woonplaats,3514GK,Postcode
2,Zaagmolenkade 27,52.1014436720,5.1203130525,30081,Zonenummer,299,Objectid,28135,Automaatnummer,Zaagmolenkade 27,Adres,Vogelenbuurt,Rayon,Utrecht,Woonplaats,3515AK,Postcode
2,Willem van Noortstraat 62,52.1010117604,5.1203250441,30081,Zonenummer,300,Objectid,28136,Automaatnummer,Willem van Noortstraat 62,Adres,Vogelenbuurt,Rayon,Utrecht,Woonplaats,3514GG,Postcode
2,Willem van Noortstraat 122,52.1015818416,5.1213378275,30081,Zonenummer,301,Objectid,28137,Automaatnummer,Willem van Noortstraat 122,Adres,Vogelenbuurt,Rayon,Utrecht,Woonplaats,3514GH,Postcode
2,Willem van Noortstraat 93,52.1014987975,5.1217072270,30081,Zonenummer,302,Objectid,28138,Automaatnummer,Willem van Noortstraat 93,Adres,Vogelenbuurt,Rayon,Utrecht,Woonplaats,3514GC,Postcode
2,Willem van Noortstraat 49,52.1009475117,5.1207254452,30081,Zonenummer,303,Objectid,28139,Automaatnummer,Willem van Noortstraat 49,Adres,Vogelenbuurt,Rayon,Utrecht,Woonplaats,3514GB,Postcode
2,Floris Heermalestraat 6,52.1003199687,5.1212043158,30081,Zonenummer,304,Objectid,28140,Automaatnummer,Floris Heermalestraat 6,Adres,Vogelenbuurt,Rayon,Utrecht,Woonplaats,3514VW,Postcode
2,Van 't Hoffstraat 1,52.1003608221,5.1223273999,30081,Zonenummer,305,Objectid,28141,Automaatnummer,Van 't Hoffstraat 1,Adres,Vogelenbuurt,Rayon,Utrecht,Woonplaats,3514VT,Postcode
2,Van Humboldtstraat 83,52.1007975151,5.1226995511,30081,Zonenummer,306,Objectid,28142,Automaatnummer,Van Humboldtstraat 83,Adres,Vogelenbuurt,Rayon,Utrecht,Woonplaats,3514GN,Postcode
2,Van Humboldtstraat 127,52.1018413200,5.1229020883,30081,Zonenummer,307,Objectid,28143,Automaatnummer,Van Humboldtstraat 127,Adres,Vogelenbuurt,Rayon,Utrecht,Woonplaats,3514GN,Postcode
2,Van Musschenbroekstraat 56,52.1013046031,5.1233133525,30081,Zonenummer,308,Objectid,28144,Automaatnummer,Van Musschenbroekstraat 56,Adres,Vogelenbuurt,Rayon,Utrecht,Woonplaats,3514XL,Postcode
2,Van Musschenbroekstraat 18,52.1001311528,5.1230937391,30081,Zonenummer,309,Objectid,28145,Automaatnummer,Van Musschenbroekstraat 18,Adres,Vogelenbuurt,Rayon,Utrecht,Woonplaats,3514XK,Postcode
2,Vogelenbuurt,52.1005375047,5.1237535775,30081,Zonenummer,311,Objectid,28147,Automaatnummer,Vogelenbuurt,Adres,Vogelenbuurt,Rayon,Utrecht,Woonplaats,3514 JA,Postcode
2,Van Swindenstraat 29,52.1018609717,5.1246134512,30081,Zonenummer,312,Objectid,28148,Automaatnummer,Van Swindenstraat 29,Adres,Vogelenbuurt,Rayon,Utrecht,Woonplaats,3514XM,Postcode
2,Wittevrouwensingel 46,52.0954433034,5.1266064356,30082,Zonenummer,313,Objectid,28201,Automaatnummer,Wittevrouwensingel 46,Adres,Wittevrouwen,Rayon,Utrecht,Woonplaats,3572CA,Postcode
2,Wittevrouwensingel 74,52.0971138568,5.1271870881,30082,Zonenummer,314,Objectid,28202,Automaatnummer,Wittevrouwensingel 74,Adres,Wittevrouwen,Rayon,Utrecht,Woonplaats,3572CC,Postcode
2,Kapelstraat 2,52.0955118977,5.1285518711,30082,Zonenummer,315,Objectid,28203,Automaatnummer,Kapelstraat 2,Adres,Wittevrouwen,Rayon,Utrecht,Woonplaats,3572CL,Postcode
2,Kapelstraat 9,52.0955277819,5.1287742663,30082,Zonenummer,316,Objectid,28204,Automaatnummer,Kapelstraat 9,Adres,Wittevrouwen,Rayon,Utrecht,Woonplaats,3572RH,Postcode
2,Leistraat 10,52.0957481493,5.1280486731,30082,Zonenummer,317,Objectid,28205,Automaatnummer,Leistraat 10,Adres,Wittevrouwen,Rayon,Utrecht,Woonplaats,3572RE,Postcode
2,Biltstraat 48,52.0952741317,5.1284472421,30082,Zonenummer,318,Objectid,28206,Automaatnummer,Biltstraat 48,Adres,Wittevrouwen,Rayon,Utrecht,Woonplaats,3572BC,Postcode
2,Biltstraat 60,52.0953198367,5.1291364715,30082,Zonenummer,319,Objectid,28207,Automaatnummer,Biltstraat 60,Adres,Wittevrouwen,Rayon,Utrecht,Woonplaats,3572BD,Postcode
2,Obrechtstraat 28,52.0962028063,5.1295396406,30082,Zonenummer,320,Objectid,28208,Automaatnummer,Obrechtstraat 28,Adres,Wittevrouwen,Rayon,Utrecht,Woonplaats,3572EE,Postcode
2,Goedestraat 64,52.0974137449,5.1311137374,30082,Zonenummer,321,Objectid,28209,Automaatnummer,Goedestraat 64,Adres,Wittevrouwen,Rayon,Utrecht,Woonplaats,3572RW,Postcode
2,Bouwstraat 29,52.0970943167,5.1305920775,30082,Zonenummer,322,Objectid,28210,Automaatnummer,Bouwstraat 29,Adres,Wittevrouwen,Rayon,Utrecht,Woonplaats,3572SN,Postcode
2,Goedestraat 42,52.0967107249,5.1307863731,30082,Zonenummer,323,Objectid,28211,Automaatnummer,Goedestraat 42,Adres,Wittevrouwen,Rayon,Utrecht,Woonplaats,3572RV,Postcode
2,Goedestraat 12,52.0957936361,5.1302035821,30082,Zonenummer,324,Objectid,28212,Automaatnummer,Goedestraat 12,Adres,Wittevrouwen,Rayon,Utrecht,Woonplaats,3572RT,Postcode
2,Biltstraat 98,52.0954356249,5.1310383080,30082,Zonenummer,325,Objectid,28213,Automaatnummer,Biltstraat 98,Adres,Wittevrouwen,Rayon,Utrecht,Woonplaats,3572BH,Postcode
2,Bekkerstraat 62 BS,52.0968466164,5.1319508619,30082,Zonenummer,326,Objectid,28214,Automaatnummer,Bekkerstraat 62 BS,Adres,Wittevrouwen,Rayon,Utrecht,Woonplaats,3572SJ,Postcode
2,Bekkerstraat 92,52.0974858967,5.1323104671,30082,Zonenummer,327,Objectid,28215,Automaatnummer,Bekkerstraat 92,Adres,Wittevrouwen,Rayon,Utrecht,Woonplaats,3572SK,Postcode
2,Palmstraat 38,52.0970521380,5.1332873569,30082,Zonenummer,328,Objectid,28216,Automaatnummer,Palmstraat 38,Adres,Wittevrouwen,Rayon,Utrecht,Woonplaats,3572TD,Postcode
2,Poortstraat 5,52.0960313148,5.1334395088,30082,Zonenummer,329,Objectid,28217,Automaatnummer,Poortstraat 5,Adres,Wittevrouwen,Rayon,Utrecht,Woonplaats,3572HA,Postcode
2,Poortstraat 35,52.0969383524,5.1341919454,30082,Zonenummer,330,Objectid,28218,Automaatnummer,Poortstraat 35,Adres,Wittevrouwen,Rayon,Utrecht,Woonplaats,3572HC,Postcode
2,Gildstraat 140,52.0975620450,5.1347970371,30082,Zonenummer,331,Objectid,28219,Automaatnummer,Gildstraat 140,Adres,Wittevrouwen,Rayon,Utrecht,Woonplaats,3572ET,Postcode
2,Oude Kerkstraat 32,52.0966343610,5.1356422603,30082,Zonenummer,332,Objectid,28220,Automaatnummer,Oude Kerkstraat 32,Adres,Wittevrouwen,Rayon,Utrecht,Woonplaats,3572TK,Postcode
2,Biltstraat 150,52.0956155175,5.1344097457,30082,Zonenummer,333,Objectid,28221,Automaatnummer,Biltstraat 150,Adres,Wittevrouwen,Rayon,Utrecht,Woonplaats,3572BM,Postcode
2,Wittevrouwensingel 100,52.0980635598,5.1256786348,30082,Zonenummer,356,Objectid,28244,Automaatnummer,Wittevrouwensingel 100,Adres,Wittevrouwen,Rayon,Utrecht,Woonplaats,3514AM,Postcode
2,1e Daalsedijk 211,52.0973433558,5.1054213840,30083,Zonenummer,357,Objectid,28301,Automaatnummer,1e Daalsedijk 211,Adres,Pijlsweerd,Rayon,Utrecht,Woonplaats,3513TE,Postcode
2,Spijkerstraat 18,52.0954965732,5.1060478150,30083,Zonenummer,358,Objectid,28302,Automaatnummer,Spijkerstraat 18,Adres,Pijlsweerd,Rayon,Utrecht,Woonplaats,3513SL,Postcode
2,Spijkerstraat 1,52.0955452278,5.1065391236,30083,Zonenummer,359,Objectid,28303,Automaatnummer,Spijkerstraat 1,Adres,Pijlsweerd,Rayon,Utrecht,Woonplaats,3513SL,Postcode
2,Wolfstraat 48,52.0945637262,5.1073196378,30083,Zonenummer,360,Objectid,28304,Automaatnummer,Wolfstraat 48,Adres,Pijlsweerd,Rayon,Utrecht,Woonplaats,3513SX,Postcode
2,1e Daalsedijk 176,52.0950893178,5.1076098433,30083,Zonenummer,361,Objectid,28305,Automaatnummer,1e Daalsedijk 176,Adres,Pijlsweerd,Rayon,Utrecht,Woonplaats,3513TH,Postcode
2,1e Daalsedijk 131,52.0960138764,5.1069782870,30083,Zonenummer,362,Objectid,28306,Automaatnummer,1e Daalsedijk 131,Adres,Pijlsweerd,Rayon,Utrecht,Woonplaats,3513TC,Postcode
2,Amsterdamsestraatweg 118,52.0971149909,5.1059047354,30083,Zonenummer,363,Objectid,28307,Automaatnummer,Amsterdamsestraatweg 118,Adres,Pijlsweerd,Rayon,Utrecht,Woonplaats,3513AL,Postcode
2,Amsterdamsestraatweg 44,52.0958046753,5.1081627018,30083,Zonenummer,364,Objectid,28308,Automaatnummer,Amsterdamsestraatweg 44,Adres,Pijlsweerd,Rayon,Utrecht,Woonplaats,3513AG,Postcode
2,Amsterdamsestraatweg 83,52.0968469175,5.1069482580,30083,Zonenummer,365,Objectid,28309,Automaatnummer,Amsterdamsestraatweg 83,Adres,Pijlsweerd,Rayon,Utrecht,Woonplaats,3513AB,Postcode
2,Beverstraat 24,52.0972810695,5.1075773290,30083,Zonenummer,366,Objectid,28310,Automaatnummer,Beverstraat 24,Adres,Pijlsweerd,Rayon,Utrecht,Woonplaats,3513AR,Postcode
2,Otterstraat 42,52.0965644259,5.1078888718,30083,Zonenummer,367,Objectid,28311,Automaatnummer,Otterstraat 42,Adres,Pijlsweerd,Rayon,Utrecht,Woonplaats,3513CM,Postcode
2,Herenweg 10,52.0963732099,5.1086697786,30083,Zonenummer,368,Objectid,28312,Automaatnummer,Herenweg 10,Adres,Pijlsweerd,Rayon,Utrecht,Woonplaats,3513CE,Postcode
2,Weerdsingel W.Z. 18,52.0960266186,5.1105582553,30083,Zonenummer,369,Objectid,28313,Automaatnummer,Weerdsingel W.Z. 18,Adres,Pijlsweerd,Rayon,Utrecht,Woonplaats,3513BB,Postcode
2,Weerdsingel W.Z. 25,52.0963295407,5.1115356582,30083,Zonenummer,370,Objectid,28314,Automaatnummer,Weerdsingel W.Z. 25,Adres,Pijlsweerd,Rayon,Utrecht,Woonplaats,3513BB,Postcode
2,Singelstraat 22,52.0970567567,5.1108879425,30083,Zonenummer,371,Objectid,28315,Automaatnummer,Singelstraat 22,Adres,Pijlsweerd,Rayon,Utrecht,Woonplaats,3513BP,Postcode
2,Kruisweg 1,52.0973618333,5.1098018466,30083,Zonenummer,372,Objectid,28316,Automaatnummer,Kruisweg 1,Adres,Pijlsweerd,Rayon,Utrecht,Woonplaats,3513CS,Postcode
2,Kruisweg 29,52.0976272814,5.1088850608,30083,Zonenummer,373,Objectid,28317,Automaatnummer,Kruisweg 29,Adres,Pijlsweerd,Rayon,Utrecht,Woonplaats,3513CS,Postcode
2,Herenweg 301,52.0976999461,5.1116838611,30083,Zonenummer,375,Objectid,28319,Automaatnummer,Herenweg 301,Adres,Pijlsweerd,Rayon,Utrecht,Woonplaats,3513CD,Postcode
2,Ramstraat 47,52.0925750947,5.1397277576,30061,Zonenummer,403,Objectid,36118,Automaatnummer,Ramstraat 47,Adres,Oudwijk Nrd,Rayon,Utrecht,Woonplaats,3581HG,Postcode
2,Oudwijk 8,52.0919253267,5.1393197424,30061,Zonenummer,404,Objectid,36119,Automaatnummer,Oudwijk 8,Adres,Oudwijk Nrd,Rayon,Utrecht,Woonplaats,3581TJ,Postcode
2,Haagstraat 35,52.0920922875,5.1388877250,30061,Zonenummer,405,Objectid,36120,Automaatnummer,Haagstraat 35,Adres,Oudwijk Nrd,Rayon,Utrecht,Woonplaats,3581SW,Postcode
2,Vlietstraat 17,52.0916380981,5.1375788018,30061,Zonenummer,406,Objectid,36121,Automaatnummer,Vlietstraat 17,Adres,Oudwijk Nrd,Rayon,Utrecht,Woonplaats,3581SZ,Postcode
2,Hofstraat 4,52.0906108970,5.1362998221,30061,Zonenummer,407,Objectid,36122,Automaatnummer,Hofstraat 4,Adres,Oudwijk Nrd,Rayon,Utrecht,Woonplaats,3581TW,Postcode
2,Oudwijkerveldstraat 71,52.0904382322,5.1374789069,30061,Zonenummer,408,Objectid,36123,Automaatnummer,Oudwijkerveldstraat 71,Adres,Oudwijk Nrd,Rayon,Utrecht,Woonplaats,3581JH,Postcode
2,Oudwijkerveldstraat 112,52.0906737380,5.1385422652,30061,Zonenummer,409,Objectid,36124,Automaatnummer,Oudwijkerveldstraat 112,Adres,Oudwijk Nrd,Rayon,Utrecht,Woonplaats,3581JP,Postcode
2,Oudwijk Nrd,52.0915591736,5.1407184155,30061,Zonenummer,410,Objectid,36125,Automaatnummer,Oudwijk Nrd,Adres,Oudwijk Nrd,Rayon,Utrecht,Woonplaats,3581 TG,Postcode
2,Nassaustraat 2,52.0914948873,5.1422302493,30062,Zonenummer,411,Objectid,36201,Automaatnummer,Nassaustraat 2,Adres,Schildersbuurt,Rayon,Utrecht,Woonplaats,3583XE,Postcode
2,Stolberglaan 17,52.0919742627,5.1429177079,30062,Zonenummer,412,Objectid,36202,Automaatnummer,Stolberglaan 17,Adres,Schildersbuurt,Rayon,Utrecht,Woonplaats,3583XK,Postcode
2,Stolberglaan 43,52.0921839563,5.1440056403,30062,Zonenummer,413,Objectid,36203,Automaatnummer,Stolberglaan 43,Adres,Schildersbuurt,Rayon,Utrecht,Woonplaats,3583XL,Postcode
2,Nassaustraat 22,52.0917157068,5.1434231240,30062,Zonenummer,414,Objectid,36204,Automaatnummer,Nassaustraat 22,Adres,Schildersbuurt,Rayon,Utrecht,Woonplaats,3583XG,Postcode
2,Graaf Adolfstraat 54,52.0912321785,5.1445394882,30062,Zonenummer,415,Objectid,36205,Automaatnummer,Graaf Adolfstraat 54,Adres,Schildersbuurt,Rayon,Utrecht,Woonplaats,3583VV,Postcode
2,Frederik Hendrikstraat 25,52.0904609989,5.1443759426,30062,Zonenummer,416,Objectid,36206,Automaatnummer,Frederik Hendrikstraat 25,Adres,Schildersbuurt,Rayon,Utrecht,Woonplaats,3583VG,Postcode
2,Frederik Hendrikstraat 70,52.0893840569,5.1451093608,30062,Zonenummer,417,Objectid,36207,Automaatnummer,Frederik Hendrikstraat 70,Adres,Schildersbuurt,Rayon,Utrecht,Woonplaats,3583VN,Postcode
2,Frederik Hendrikstraat 124,52.0879414830,5.1456092523,30062,Zonenummer,418,Objectid,36208,Automaatnummer,Frederik Hendrikstraat 124,Adres,Schildersbuurt,Rayon,Utrecht,Woonplaats,3583VR,Postcode
2,Stadhouderslaan 53,52.0889208978,5.1439937019,30062,Zonenummer,419,Objectid,36209,Automaatnummer,Stadhouderslaan 53,Adres,Schildersbuurt,Rayon,Utrecht,Woonplaats,3583JD,Postcode
2,Stadhouderslaan 23,52.0902059017,5.1435100581,30062,Zonenummer,420,Objectid,36210,Automaatnummer,Stadhouderslaan 23,Adres,Schildersbuurt,Rayon,Utrecht,Woonplaats,3583JB,Postcode
2,Stadhouderslaan 5,52.0906852038,5.1433341868,30062,Zonenummer,421,Objectid,36211,Automaatnummer,Stadhouderslaan 5,Adres,Schildersbuurt,Rayon,Utrecht,Woonplaats,3583JA,Postcode
2,Stadhouderslaan 50,52.0897045449,5.1440920470,30062,Zonenummer,422,Objectid,36212,Automaatnummer,Stadhouderslaan 50,Adres,Schildersbuurt,Rayon,Utrecht,Woonplaats,3583JK,Postcode
2,Stadhouderslaan 112,52.0878275204,5.1448284084,30062,Zonenummer,423,Objectid,36213,Automaatnummer,Stadhouderslaan 112,Adres,Schildersbuurt,Rayon,Utrecht,Woonplaats,3583JP,Postcode
2,Stadhouderslaan 99,52.0877102151,5.1444778922,30062,Zonenummer,424,Objectid,36214,Automaatnummer,Stadhouderslaan 99,Adres,Schildersbuurt,Rayon,Utrecht,Woonplaats,3583JG,Postcode
2,Mauritsstraat 21,52.0904269536,5.1425594303,30062,Zonenummer,425,Objectid,36215,Automaatnummer,Mauritsstraat 21,Adres,Schildersbuurt,Rayon,Utrecht,Woonplaats,3583HG,Postcode
2,Dillenburgstraat 11,52.0892260483,5.1433134408,30062,Zonenummer,426,Objectid,36216,Automaatnummer,Dillenburgstraat 11,Adres,Schildersbuurt,Rayon,Utrecht,Woonplaats,3583VB,Postcode
2,Willem de Zwijgerstraat 9,52.0870926208,5.1435380037,30062,Zonenummer,427,Objectid,36217,Automaatnummer,Willem de Zwijgerstraat 9,Adres,Schildersbuurt,Rayon,Utrecht,Woonplaats,3583HA,Postcode
2,Koningslaan 1,52.0908884981,5.1414309286,30062,Zonenummer,428,Objectid,36218,Automaatnummer,Koningslaan 1,Adres,Schildersbuurt,Rayon,Utrecht,Woonplaats,3583GA,Postcode
2,Koningslaan 33,52.0888457347,5.1424106267,30062,Zonenummer,429,Objectid,36219,Automaatnummer,Koningslaan 33,Adres,Schildersbuurt,Rayon,Utrecht,Woonplaats,3583GD,Postcode
2,Koningslaan 61,52.0873239270,5.1426300925,30062,Zonenummer,430,Objectid,36220,Automaatnummer,Koningslaan 61,Adres,Schildersbuurt,Rayon,Utrecht,Woonplaats,3583GN,Postcode
2,Wilhelminapark 67,52.0868488521,5.1418679241,30062,Zonenummer,431,Objectid,36221,Automaatnummer,Wilhelminapark 67,Adres,Schildersbuurt,Rayon,Utrecht,Woonplaats,3581NP,Postcode
2,Louise de Colignystraat 1,52.0855840949,5.1407511897,30062,Zonenummer,432,Objectid,36222,Automaatnummer,Louise de Colignystraat 1,Adres,Schildersbuurt,Rayon,Utrecht,Woonplaats,3583TV,Postcode
2,Koningslaan 123,52.0853016779,5.1398528901,30062,Zonenummer,433,Objectid,36223,Automaatnummer,Koningslaan 123,Adres,Schildersbuurt,Rayon,Utrecht,Woonplaats,3583GW,Postcode
2,Rembrandtkade 35,52.0866314056,5.1435894076,30062,Zonenummer,434,Objectid,36224,Automaatnummer,Rembrandtkade 35,Adres,Schildersbuurt,Rayon,Utrecht,Woonplaats,3583TN,Postcode
2,Rembrandtkade 36,52.0861996362,5.1428638005,30062,Zonenummer,435,Objectid,36225,Automaatnummer,Rembrandtkade 36,Adres,Schildersbuurt,Rayon,Utrecht,Woonplaats,3583TN,Postcode
2,Rembrandtkade 50,52.0853298701,5.1417432822,30062,Zonenummer,436,Objectid,36226,Automaatnummer,Rembrandtkade 50,Adres,Schildersbuurt,Rayon,Utrecht,Woonplaats,3583TP,Postcode
2,Rembrandtkade 66,52.0843225290,5.1401239634,30062,Zonenummer,437,Objectid,36227,Automaatnummer,Rembrandtkade 66,Adres,Schildersbuurt,Rayon,Utrecht,Woonplaats,3583TT,Postcode
2,Waldeck Pyrmontkade 14,52.0847624363,5.1400145336,30062,Zonenummer,438,Objectid,36228,Automaatnummer,Waldeck Pyrmontkade 14,Adres,Schildersbuurt,Rayon,Utrecht,Woonplaats,3583TW,Postcode
2,Adriaen van Ostadelaan 4,52.0837793956,5.1396558741,30062,Zonenummer,440,Objectid,36230,Automaatnummer,Adriaen van Ostadelaan 4,Adres,Schildersbuurt,Rayon,Utrecht,Woonplaats,3583AJ,Postcode
2,Jan van Scorelstraat 143,52.0834599345,5.1411464406,30062,Zonenummer,441,Objectid,36231,Automaatnummer,Jan van Scorelstraat 143,Adres,Schildersbuurt,Rayon,Utrecht,Woonplaats,3583CN,Postcode
2,Jan van Scorelstraat 140,52.0833808255,5.1414283885,30062,Zonenummer,442,Objectid,36232,Automaatnummer,Jan van Scorelstraat 140,Adres,Schildersbuurt,Rayon,Utrecht,Woonplaats,3583CV,Postcode
2,Jan van Scorelstraat 76,52.0842645592,5.1424867411,30062,Zonenummer,443,Objectid,36233,Automaatnummer,Jan van Scorelstraat 76,Adres,Schildersbuurt,Rayon,Utrecht,Woonplaats,3583CS,Postcode
2,Albert Neuhuysstraat 7,52.0848134493,5.1417162359,30062,Zonenummer,444,Objectid,36234,Automaatnummer,Albert Neuhuysstraat 7,Adres,Schildersbuurt,Rayon,Utrecht,Woonplaats,3583SP,Postcode
2,Jan van Scorelstraat 40,52.0854111990,5.1439047875,30062,Zonenummer,445,Objectid,36235,Automaatnummer,Jan van Scorelstraat 40,Adres,Schildersbuurt,Rayon,Utrecht,Woonplaats,3583CR,Postcode
2,Jan van Scorelstraat 28,52.0857749938,5.1442765892,30062,Zonenummer,446,Objectid,36236,Automaatnummer,Jan van Scorelstraat 28,Adres,Schildersbuurt,Rayon,Utrecht,Woonplaats,3583CP,Postcode
2,Prins Hendriklaan 75,52.0855805334,5.1457843142,30062,Zonenummer,447,Objectid,36237,Automaatnummer,Prins Hendriklaan 75,Adres,Schildersbuurt,Rayon,Utrecht,Woonplaats,3583EG,Postcode
2,Gabriël Metsustraat 33,52.0862344097,5.1468593155,30062,Zonenummer,448,Objectid,36238,Automaatnummer,Gabriël Metsustraat 33,Adres,Schildersbuurt,Rayon,Utrecht,Woonplaats,3583ER,Postcode
2,Gabriël Metsustraat 69,52.0860045881,5.1476115574,30062,Zonenummer,449,Objectid,36239,Automaatnummer,Gabriël Metsustraat 69,Adres,Schildersbuurt,Rayon,Utrecht,Woonplaats,3583ES,Postcode
2,Prins Hendriklaan 61,52.0857841850,5.1451969032,30062,Zonenummer,450,Objectid,36240,Automaatnummer,Prins Hendriklaan 61,Adres,Schildersbuurt,Rayon,Utrecht,Woonplaats,3583EE,Postcode
2,Prins Hendriklaan 64,52.0850093421,5.1484411326,30062,Zonenummer,451,Objectid,36241,Automaatnummer,Prins Hendriklaan 64,Adres,Schildersbuurt,Rayon,Utrecht,Woonplaats,3584ER,Postcode
2,Prins Hendriklaan 104,52.0842643613,5.1505739003,30062,Zonenummer,452,Objectid,36242,Automaatnummer,Prins Hendriklaan 104,Adres,Schildersbuurt,Rayon,Utrecht,Woonplaats,3584ES,Postcode
2,Prins Hendriklaan 79,52.0855234251,5.1459520558,30062,Zonenummer,453,Objectid,36243,Automaatnummer,Prins Hendriklaan 79,Adres,Schildersbuurt,Rayon,Utrecht,Woonplaats,3583EG,Postcode
2,Jacob van Ruisdaelstraat 34,52.0844934377,5.1451716130,30062,Zonenummer,454,Objectid,36244,Automaatnummer,Jacob van Ruisdaelstraat 34,Adres,Schildersbuurt,Rayon,Utrecht,Woonplaats,3583CE,Postcode
2,Jacob van Ruisdaelstraat 51,52.0844290619,5.1447806995,30062,Zonenummer,455,Objectid,36245,Automaatnummer,Jacob van Ruisdaelstraat 51,Adres,Schildersbuurt,Rayon,Utrecht,Woonplaats,3583CB,Postcode
2,Jacob van Ruisdaelstraat 70,52.0833897297,5.1437181113,30062,Zonenummer,456,Objectid,36246,Automaatnummer,Jacob van Ruisdaelstraat 70,Adres,Schildersbuurt,Rayon,Utrecht,Woonplaats,3583CG,Postcode
2,Paulus Potterstraat 35,52.0835408756,5.1424476757,30062,Zonenummer,457,Objectid,36247,Automaatnummer,Paulus Potterstraat 35,Adres,Schildersbuurt,Rayon,Utrecht,Woonplaats,3583SM,Postcode
2,Vossegatselaan 39,52.0822223349,5.1423482444,30062,Zonenummer,458,Objectid,36248,Automaatnummer,Vossegatselaan 39,Adres,Schildersbuurt,Rayon,Utrecht,Woonplaats,3583RV,Postcode
2,Vossegatselaan 59,52.0821238747,5.1431477078,30062,Zonenummer,459,Objectid,36249,Automaatnummer,Vossegatselaan 59,Adres,Schildersbuurt,Rayon,Utrecht,Woonplaats,3583RR,Postcode
2,Laan van Minsweerd 42,52.0838896842,5.1460364963,30062,Zonenummer,460,Objectid,36250,Automaatnummer,Laan van Minsweerd 42,Adres,Schildersbuurt,Rayon,Utrecht,Woonplaats,3583BG,Postcode
2,Laan van Minsweerd 15,52.0845730093,5.1468057243,30062,Zonenummer,461,Objectid,36251,Automaatnummer,Laan van Minsweerd 15,Adres,Schildersbuurt,Rayon,Utrecht,Woonplaats,3583BB,Postcode
2,Laan van Minsweerd 80,52.0827883465,5.1447994222,30062,Zonenummer,462,Objectid,36252,Automaatnummer,Laan van Minsweerd 80,Adres,Schildersbuurt,Rayon,Utrecht,Woonplaats,3583BT,Postcode
2,Ferdinand Bolstraat 8,52.0818061623,5.1414422462,30062,Zonenummer,463,Objectid,36253,Automaatnummer,Ferdinand Bolstraat 8,Adres,Schildersbuurt,Rayon,Utrecht,Woonplaats,3583AR,Postcode
2,Van der Helststraat 11,52.0815075833,5.1422909275,30062,Zonenummer,464,Objectid,36254,Automaatnummer,Van der Helststraat 11,Adres,Schildersbuurt,Rayon,Utrecht,Woonplaats,3583AS,Postcode
2,Ferdinand Bolstraat 47,52.0816179292,5.1430792313,30062,Zonenummer,465,Objectid,36255,Automaatnummer,Ferdinand Bolstraat 47,Adres,Schildersbuurt,Rayon,Utrecht,Woonplaats,3583AP,Postcode
2,Laan van Minsweerd 138,52.0802472045,5.1427026183,30062,Zonenummer,466,Objectid,36256,Automaatnummer,Laan van Minsweerd 138,Adres,Schildersbuurt,Rayon,Utrecht,Woonplaats,3583BW,Postcode
2,Stadionlaan 6,52.0801468693,5.1418973333,30062,Zonenummer,467,Objectid,36257,Automaatnummer,Stadionlaan 6,Adres,Schildersbuurt,Rayon,Utrecht,Woonplaats,3583RD,Postcode
2,Bosboomstraat 26,52.0826738081,5.1400323898,30063,Zonenummer,470,Objectid,36301,Automaatnummer,Bosboomstraat 26,Adres,Abstede,Rayon,Utrecht,Woonplaats,3582KH,Postcode
2,Boomstraat 42,52.0827058890,5.1390197389,30063,Zonenummer,471,Objectid,36302,Automaatnummer,Boomstraat 42,Adres,Abstede,Rayon,Utrecht,Woonplaats,3582KS,Postcode
2,Bosboomstraat 2,52.0828952421,5.1372508057,30063,Zonenummer,472,Objectid,36303,Automaatnummer,Bosboomstraat 2,Adres,Abstede,Rayon,Utrecht,Woonplaats,3582KG,Postcode
2,Abstederdijk 333,52.0838533417,5.1379631024,30063,Zonenummer,473,Objectid,36304,Automaatnummer,Abstederdijk 333,Adres,Abstede,Rayon,Utrecht,Woonplaats,3582BL,Postcode
2,Burg Fockema Andreaeln 7,52.0831009889,5.1366880639,30063,Zonenummer,474,Objectid,36305,Automaatnummer,Burg Fockema Andreaeln 7,Adres,Abstede,Rayon,Utrecht,Woonplaats,3582KA,Postcode
2,Notebomenlaan 340,52.0832776611,5.1344074769,30063,Zonenummer,475,Objectid,36306,Automaatnummer,Notebomenlaan 340,Adres,Abstede,Rayon,Utrecht,Woonplaats,3582CM,Postcode
2,Notebomenlaan 65,52.0823562873,5.1299839172,30063,Zonenummer,476,Objectid,36307,Automaatnummer,Notebomenlaan 65,Adres,Abstede,Rayon,Utrecht,Woonplaats,3582CH,Postcode
2,Minstraat 26,52.0839847003,5.1332832657,30063,Zonenummer,477,Objectid,36308,Automaatnummer,Minstraat 26,Adres,Abstede,Rayon,Utrecht,Woonplaats,3582CC,Postcode
2,Abstederdijk 187,52.0841084140,5.1318901494,30063,Zonenummer,478,Objectid,36309,Automaatnummer,Abstederdijk 187,Adres,Abstede,Rayon,Utrecht,Woonplaats,3582BG,Postcode
2,Minstraat 1,52.0848873193,5.1329959493,30063,Zonenummer,479,Objectid,36310,Automaatnummer,Minstraat 1,Adres,Abstede,Rayon,Utrecht,Woonplaats,3582CA,Postcode
2,Abstederdijk 160,52.0843353320,5.1344827203,30063,Zonenummer,480,Objectid,36311,Automaatnummer,Abstederdijk 160,Adres,Abstede,Rayon,Utrecht,Woonplaats,3582BV,Postcode
2,Abstederdijk 90,52.0841518408,5.1313786003,30063,Zonenummer,481,Objectid,36312,Automaatnummer,Abstederdijk 90,Adres,Abstede,Rayon,Utrecht,Woonplaats,3582BC,Postcode
2,Notebomenlaan 94,52.0827420607,5.1305347382,30063,Zonenummer,482,Objectid,36313,Automaatnummer,Notebomenlaan 94,Adres,Abstede,Rayon,Utrecht,Woonplaats,3582CM,Postcode
2,Notebomenlaan 40,52.0821666770,5.1290228622,30063,Zonenummer,483,Objectid,36314,Automaatnummer,Notebomenlaan 40,Adres,Abstede,Rayon,Utrecht,Woonplaats,3582CL,Postcode
2,Marsstraat 22,52.0814145936,5.1280289226,30063,Zonenummer,484,Objectid,36315,Automaatnummer,Marsstraat 22,Adres,Abstede,Rayon,Utrecht,Woonplaats,3582PN,Postcode
2,Saturnusstraat 31,52.0815166413,5.1298901254,30063,Zonenummer,485,Objectid,36316,Automaatnummer,Saturnusstraat 31,Adres,Abstede,Rayon,Utrecht,Woonplaats,3582PP,Postcode
2,Neptunusstraat 23,52.0814515896,5.1304607661,30063,Zonenummer,486,Objectid,36317,Automaatnummer,Neptunusstraat 23,Adres,Abstede,Rayon,Utrecht,Woonplaats,3582RC,Postcode
2,Komeetstraat 31,52.0799853966,5.1309050124,30063,Zonenummer,487,Objectid,36318,Automaatnummer,Komeetstraat 31,Adres,Abstede,Rayon,Utrecht,Woonplaats,3582PB,Postcode
2,Zenithstraat 5,52.0803914341,5.1302944750,30063,Zonenummer,488,Objectid,36319,Automaatnummer,Zenithstraat 5,Adres,Abstede,Rayon,Utrecht,Woonplaats,3582PK,Postcode
2,Jupiterstraat 13,52.0810446623,5.1289872052,30063,Zonenummer,489,Objectid,36320,Automaatnummer,Jupiterstraat 13,Adres,Abstede,Rayon,Utrecht,Woonplaats,3582PT,Postcode
2,Vondellaan 174,52.0789849796,5.1191270637,30064,Zonenummer,491,Objectid,36402,Automaatnummer,Vondellaan 174,Adres,Rivierenwijk,Rayon,Utrecht,Woonplaats,3521GH,Postcode
2,Croesestraat 116,52.0774060297,5.1162285277,30064,Zonenummer,492,Objectid,36403,Automaatnummer,Croesestraat 116,Adres,Rivierenwijk,Rayon,Utrecht,Woonplaats,3522AJ,Postcode
2,Croesestraat 62,52.0767549727,5.1183575376,30064,Zonenummer,493,Objectid,36404,Automaatnummer,Croesestraat 62,Adres,Rivierenwijk,Rayon,Utrecht,Woonplaats,3522AG,Postcode
2,Jutfaseweg 26,52.0764032809,5.1205428007,30064,Zonenummer,494,Objectid,36405,Automaatnummer,Jutfaseweg 26,Adres,Rivierenwijk,Rayon,Utrecht,Woonplaats,3522HB,Postcode
2,Jutfaseweg 11,52.0767808568,5.1205248696,30064,Zonenummer,495,Objectid,36406,Automaatnummer,Jutfaseweg 11,Adres,Rivierenwijk,Rayon,Utrecht,Woonplaats,3522HB,Postcode
2,Amaliastraat 23,52.0761970385,5.1193370851,30064,Zonenummer,496,Objectid,36407,Automaatnummer,Amaliastraat 23,Adres,Rivierenwijk,Rayon,Utrecht,Woonplaats,3522AS,Postcode
2,Amaliadwarsstraat 25,52.0765908327,5.1169311738,30064,Zonenummer,497,Objectid,36408,Automaatnummer,Amaliadwarsstraat 25,Adres,Rivierenwijk,Rayon,Utrecht,Woonplaats,3522AP,Postcode
2,Dollardstraat 5,52.0769799210,5.1152912174,30064,Zonenummer,498,Objectid,36409,Automaatnummer,Dollardstraat 5,Adres,Rivierenwijk,Rayon,Utrecht,Woonplaats,3522AK,Postcode
2,Noordzeestraat 20,52.0762663089,5.1152626894,30064,Zonenummer,499,Objectid,36410,Automaatnummer,Noordzeestraat 20,Adres,Rivierenwijk,Rayon,Utrecht,Woonplaats,3522PK,Postcode
2,Mijdrechtstraat 66,52.0755526630,5.1163044862,30064,Zonenummer,500,Objectid,36411,Automaatnummer,Mijdrechtstraat 66,Adres,Rivierenwijk,Rayon,Utrecht,Woonplaats,3522HX,Postcode
2,Mijdrechtstraat 27,52.0751287533,5.1188642403,30064,Zonenummer,501,Objectid,36412,Automaatnummer,Mijdrechtstraat 27,Adres,Rivierenwijk,Rayon,Utrecht,Woonplaats,3522HT,Postcode
2,Jutfaseweg 67,52.0750170247,5.1197628674,30064,Zonenummer,502,Objectid,36413,Automaatnummer,Jutfaseweg 67,Adres,Rivierenwijk,Rayon,Utrecht,Woonplaats,3522HE,Postcode
2,Jutfaseweg 91,52.0739152259,5.1190896894,30064,Zonenummer,503,Objectid,36414,Automaatnummer,Jutfaseweg 91,Adres,Rivierenwijk,Rayon,Utrecht,Woonplaats,3522HG,Postcode
2,Volkerakstraat 5,52.0739973988,5.1187354316,30064,Zonenummer,504,Objectid,36415,Automaatnummer,Volkerakstraat 5,Adres,Rivierenwijk,Rayon,Utrecht,Woonplaats,3522RA,Postcode
2,Volkerakstraat 17,52.0741788119,5.1181549070,30064,Zonenummer,505,Objectid,36416,Automaatnummer,Volkerakstraat 17,Adres,Rivierenwijk,Rayon,Utrecht,Woonplaats,3522RA,Postcode
2,Runstraat 30,52.0744525997,5.1171927109,30064,Zonenummer,506,Objectid,36417,Automaatnummer,Runstraat 30,Adres,Rivierenwijk,Rayon,Utrecht,Woonplaats,3522RH,Postcode
2,Wielingenplein 50,52.0747782804,5.1165841127,30064,Zonenummer,507,Objectid,36418,Automaatnummer,Wielingenplein 50,Adres,Rivierenwijk,Rayon,Utrecht,Woonplaats,3522PE,Postcode
2,Wielingenplein 29,52.0753418657,5.1161248451,30064,Zonenummer,508,Objectid,36419,Automaatnummer,Wielingenplein 29,Adres,Rivierenwijk,Rayon,Utrecht,Woonplaats,3522PD,Postcode
2,Noordzeestraat 94,52.0746595104,5.1149405561,30064,Zonenummer,509,Objectid,36420,Automaatnummer,Noordzeestraat 94,Adres,Rivierenwijk,Rayon,Utrecht,Woonplaats,3522PL,Postcode
2,Stadionlaan 1,52.0794706001,5.1417819450,30065,Zonenummer,510,Objectid,36500,Automaatnummer,Stadionlaan 1,Adres,Rubenslaan,Rayon,Utrecht,Woonplaats,3583RA,Postcode
2,Israëlslaan 11,52.0781567502,5.1406106581,30065,Zonenummer,511,Objectid,36501,Automaatnummer,Israëlslaan 11,Adres,Rubenslaan,Rayon,Utrecht,Woonplaats,3582HH,Postcode
2,Marislaan 15,52.0789192248,5.1400989786,30065,Zonenummer,512,Objectid,36502,Automaatnummer,Marislaan 15,Adres,Rubenslaan,Rayon,Utrecht,Woonplaats,3582HD,Postcode
2,Breitnerlaan 9,52.0782524981,5.1391959594,30065,Zonenummer,513,Objectid,36503,Automaatnummer,Breitnerlaan 9,Adres,Rubenslaan,Rayon,Utrecht,Woonplaats,3582HA,Postcode
2,Marislaan 15,52.0789192248,5.1400989786,30065,Zonenummer,514,Objectid,36504,Automaatnummer,Marislaan 15,Adres,Rubenslaan,Rayon,Utrecht,Woonplaats,3582HD,Postcode
2,Rubenslaan 115,52.0794317190,5.1390095841,30065,Zonenummer,515,Objectid,36505,Automaatnummer,Rubenslaan 115,Adres,Rubenslaan,Rayon,Utrecht,Woonplaats,3582JH,Postcode
2,Rubenslaan 65,52.0791961891,5.1358213379,30065,Zonenummer,516,Objectid,36506,Automaatnummer,Rubenslaan 65,Adres,Rubenslaan,Rayon,Utrecht,Woonplaats,3582JC,Postcode
2,Rubenslaan,52.0800647523,5.1370763593,30065,Zonenummer,517,Objectid,36507,Automaatnummer,Rubenslaan,Adres,Rubenslaan,Rayon,Utrecht,Woonplaats,3582 JZ,Postcode
2,Ina Boudier-Bakkerlaan 7,52.0822406028,5.1331548911,30065,Zonenummer,519,Objectid,36509,Automaatnummer,Ina Boudier-Bakkerlaan 7,Adres,Rubenslaan,Rayon,Utrecht,Woonplaats,3582VA,Postcode
2,Ina Boudier-Bakkerhof 48,52.0821728408,5.1341238546,30065,Zonenummer,520,Objectid,36510,Automaatnummer,Ina Boudier-Bakkerhof 48,Adres,Rubenslaan,Rayon,Utrecht,Woonplaats,3582VX,Postcode
2,Ina Boudier-Bakkerhof 50,52.0821728408,5.1341238546,30065,Zonenummer,521,Objectid,36511,Automaatnummer,Ina Boudier-Bakkerhof 50,Adres,Rubenslaan,Rayon,Utrecht,Woonplaats,3582VX,Postcode
2,Oude Houtensepad 2,52.0774517870,5.1320752570,30066,Zonenummer,522,Objectid,36601,Automaatnummer,Oude Houtensepad 2,Adres,Oude Houtensepad,Rayon,Utrecht,Woonplaats,3582CW,Postcode
2,Kerkweg 45,52.0983066660,5.1070153491,30071,Zonenummer,524,Objectid,37102,Automaatnummer,Kerkweg 45,Adres,Pijlsweerd Nrd,Rayon,Utrecht,Woonplaats,3513VA,Postcode
2,Blokstraat 40,52.0984378765,5.1060914495,30071,Zonenummer,525,Objectid,37103,Automaatnummer,Blokstraat 40,Adres,Pijlsweerd Nrd,Rayon,Utrecht,Woonplaats,3513VL,Postcode
2,Kerkweg 90,52.0987791915,5.1052230347,30071,Zonenummer,526,Objectid,37104,Automaatnummer,Kerkweg 90,Adres,Pijlsweerd Nrd,Rayon,Utrecht,Woonplaats,3513VE,Postcode
2,Turfstraat 71,52.0987546260,5.1047382093,30071,Zonenummer,527,Objectid,37105,Automaatnummer,Turfstraat 71,Adres,Pijlsweerd Nrd,Rayon,Utrecht,Woonplaats,3513VH,Postcode
2,Nieuwe Pijlsweerdstraat 1,52.0996772255,5.1050769871,30071,Zonenummer,528,Objectid,37106,Automaatnummer,Nieuwe Pijlsweerdstraat 1,Adres,Pijlsweerd Nrd,Rayon,Utrecht,Woonplaats,3513XT,Postcode
2,Zilvergeldstraat 66,52.0991500767,5.1059048642,30071,Zonenummer,529,Objectid,37107,Automaatnummer,Zilvergeldstraat 66,Adres,Pijlsweerd Nrd,Rayon,Utrecht,Woonplaats,3513VS,Postcode
2,Zilvergeldstraat 31,52.0989570749,5.1070102814,30071,Zonenummer,530,Objectid,37108,Automaatnummer,Zilvergeldstraat 31,Adres,Pijlsweerd Nrd,Rayon,Utrecht,Woonplaats,3513VP,Postcode
2,Huurweerstraat 2,52.0985515677,5.1078654998,30071,Zonenummer,531,Objectid,37109,Automaatnummer,Huurweerstraat 2,Adres,Pijlsweerd Nrd,Rayon,Utrecht,Woonplaats,3513EE,Postcode
2,Tuinbouwstraat 29,52.0994244905,5.1080753439,30071,Zonenummer,532,Objectid,37110,Automaatnummer,Tuinbouwstraat 29,Adres,Pijlsweerd Nrd,Rayon,Utrecht,Woonplaats,3513EC,Postcode
2,Balkstraat 24,52.0998894061,5.1068401774,30071,Zonenummer,533,Objectid,37111,Automaatnummer,Balkstraat 24,Adres,Pijlsweerd Nrd,Rayon,Utrecht,Woonplaats,3513XL,Postcode
2,Nieuwe Pijlsweerdstraat 79,52.1009192930,5.1055690410,30071,Zonenummer,534,Objectid,37112,Automaatnummer,Nieuwe Pijlsweerdstraat 79,Adres,Pijlsweerd Nrd,Rayon,Utrecht,Woonplaats,3513XT,Postcode
2,Oude Pijlsweerdstraat 172,52.1011702002,5.1057784023,30071,Zonenummer,535,Objectid,37113,Automaatnummer,Oude Pijlsweerdstraat 172,Adres,Pijlsweerd Nrd,Rayon,Utrecht,Woonplaats,3513GM,Postcode
2,Hoveniersstraat 25,52.1007912684,5.1060666571,30071,Zonenummer,536,Objectid,37114,Automaatnummer,Hoveniersstraat 25,Adres,Pijlsweerd Nrd,Rayon,Utrecht,Woonplaats,3513XS,Postcode
2,Polderstraat 1,52.1005977322,5.1078264614,30071,Zonenummer,537,Objectid,37115,Automaatnummer,Polderstraat 1,Adres,Pijlsweerd Nrd,Rayon,Utrecht,Woonplaats,3513XN,Postcode
2,Oude Pijlsweerdstraat 120,52.1014400823,5.1070607067,30071,Zonenummer,538,Objectid,37116,Automaatnummer,Oude Pijlsweerdstraat 120,Adres,Pijlsweerd Nrd,Rayon,Utrecht,Woonplaats,3513GM,Postcode
2,Oudenoord 501,52.1021160082,5.1084132956,30071,Zonenummer,539,Objectid,37117,Automaatnummer,Oudenoord 501,Adres,Pijlsweerd Nrd,Rayon,Utrecht,Woonplaats,3513EP,Postcode
2,Oudenoord 461,52.1012882588,5.1085790604,30071,Zonenummer,540,Objectid,37118,Automaatnummer,Oudenoord 461,Adres,Pijlsweerd Nrd,Rayon,Utrecht,Woonplaats,3513EP,Postcode
2,Oudenoord 458,52.1009602214,5.1081912446,30071,Zonenummer,541,Objectid,37119,Automaatnummer,Oudenoord 458,Adres,Pijlsweerd Nrd,Rayon,Utrecht,Woonplaats,3513EX,Postcode
2,Engelen v Pijlsweertstr 12,52.1013259128,5.1091095602,30071,Zonenummer,542,Objectid,37120,Automaatnummer,Engelen v Pijlsweertstr 12,Adres,Pijlsweerd Nrd,Rayon,Utrecht,Woonplaats,3513GG,Postcode
2,Engelen v Pijlsweertstr 11,52.1014485078,5.1097496244,30071,Zonenummer,543,Objectid,37121,Automaatnummer,Engelen v Pijlsweertstr 11,Adres,Pijlsweerd Nrd,Rayon,Utrecht,Woonplaats,3513GC,Postcode
2,Kokkenhoflaan 1,52.1022102186,5.1098414169,30071,Zonenummer,544,Objectid,37122,Automaatnummer,Kokkenhoflaan 1,Adres,Pijlsweerd Nrd,Rayon,Utrecht,Woonplaats,3513GN,Postcode
2,Noordse Parklaan 11,52.1032090999,5.1104586160,30071,Zonenummer,545,Objectid,37123,Automaatnummer,Noordse Parklaan 11,Adres,Pijlsweerd Nrd,Rayon,Utrecht,Woonplaats,3513GV,Postcode
2,Lagenoord 26,52.1035836905,5.1105524692,30071,Zonenummer,546,Objectid,37124,Automaatnummer,Lagenoord 26,Adres,Pijlsweerd Nrd,Rayon,Utrecht,Woonplaats,3513GW,Postcode
2,Lagenoord 20,52.1033223023,5.1108946188,30071,Zonenummer,547,Objectid,37125,Automaatnummer,Lagenoord 20,Adres,Pijlsweerd Nrd,Rayon,Utrecht,Woonplaats,3513GW,Postcode
2,Hogenoord 8,52.1014585742,5.1111894117,30071,Zonenummer,548,Objectid,37126,Automaatnummer,Hogenoord 8,Adres,Pijlsweerd Nrd,Rayon,Utrecht,Woonplaats,3513GX,Postcode
2,Schouwweteringstraat 5,52.1012417191,5.1106522669,30071,Zonenummer,549,Objectid,37127,Automaatnummer,Schouwweteringstraat 5,Adres,Pijlsweerd Nrd,Rayon,Utrecht,Woonplaats,3513GH,Postcode
2,Ingen Houszstraat 1,52.1030245599,5.1237532278,30072,Zonenummer,550,Objectid,37201,Automaatnummer,Ingen Houszstraat 1,Adres,Tuinwijk nrd,Rayon,Utrecht,Woonplaats,3514HT,Postcode
2,Ingen Houszstraat 49,52.1032882021,5.1259529517,30072,Zonenummer,551,Objectid,37202,Automaatnummer,Ingen Houszstraat 49,Adres,Tuinwijk nrd,Rayon,Utrecht,Woonplaats,3514HV,Postcode
2,Cornelis Drebbelstraat 21,52.1038805058,5.1270141288,30072,Zonenummer,552,Objectid,37203,Automaatnummer,Cornelis Drebbelstraat 21,Adres,Tuinwijk nrd,Rayon,Utrecht,Woonplaats,3514HS,Postcode
2,Pieter Nieuwlandstraat 110,52.1035549733,5.1284461750,30072,Zonenummer,553,Objectid,37204,Automaatnummer,Pieter Nieuwlandstraat 110,Adres,Tuinwijk nrd,Rayon,Utrecht,Woonplaats,3514HL,Postcode
2,Pieter Nieuwlandstraat 105,52.1031742790,5.1296217511,30072,Zonenummer,554,Objectid,37205,Automaatnummer,Pieter Nieuwlandstraat 105,Adres,Tuinwijk nrd,Rayon,Utrecht,Woonplaats,3514HG,Postcode
2,Wagenstraat 1,52.0890209141,5.1329462540,30031,Zonenummer,79,Objectid,23120,Automaatnummer,Wagenstraat 1,Adres,Oudwijk,Rayon,Utrecht,Woonplaats,3581WP,Postcode
2,Beukstraat 2,52.0879107360,5.1334596914,30031,Zonenummer,80,Objectid,23121,Automaatnummer,Beukstraat 2,Adres,Oudwijk,Rayon,Utrecht,Woonplaats,3581XG,Postcode
2,Minervaplein 23,52.0867333431,5.1360909557,30031,Zonenummer,81,Objectid,23122,Automaatnummer,Minervaplein 23,Adres,Oudwijk,Rayon,Utrecht,Woonplaats,3581XP,Postcode
2,Iepstraat 31,52.0871606515,5.1356009309,30031,Zonenummer,82,Objectid,23123,Automaatnummer,Iepstraat 31,Adres,Oudwijk,Rayon,Utrecht,Woonplaats,3581LK,Postcode
2,Bankstraat 24,52.0877284490,5.1366152566,30031,Zonenummer,83,Objectid,23124,Automaatnummer,Bankstraat 24,Adres,Oudwijk,Rayon,Utrecht,Woonplaats,3581LN,Postcode
2,Bloemstraat 112,52.0882946071,5.1362814143,30031,Zonenummer,84,Objectid,23125,Automaatnummer,Bloemstraat 112,Adres,Oudwijk,Rayon,Utrecht,Woonplaats,3581WG,Postcode
2,Wagendwarsstraat 41,52.0892481854,5.1350003222,30031,Zonenummer,85,Objectid,23126,Automaatnummer,Wagendwarsstraat 41,Adres,Oudwijk,Rayon,Utrecht,Woonplaats,3581WJ,Postcode
2,Burgemeester Reigerstr 11,52.0900032683,5.1345450175,30031,Zonenummer,86,Objectid,23127,Automaatnummer,Burgemeester Reigerstr 11,Adres,Oudwijk,Rayon,Utrecht,Woonplaats,3581KJ,Postcode
2,Baanstraat 9,52.0886003899,5.1367039874,30031,Zonenummer,89,Objectid,23130,Automaatnummer,Baanstraat 9,Adres,Oudwijk,Rayon,Utrecht,Woonplaats,3581VS,Postcode
2,Baanstraat 33,52.0879383874,5.1376638353,30031,Zonenummer,90,Objectid,23131,Automaatnummer,Baanstraat 33,Adres,Oudwijk,Rayon,Utrecht,Woonplaats,3581VT,Postcode
2,Nicolaasweg 44,52.0869532987,5.1373852999,30031,Zonenummer,91,Objectid,23132,Automaatnummer,Nicolaasweg 44,Adres,Oudwijk,Rayon,Utrecht,Woonplaats,3581VJ,Postcode
2,Nicolaasweg 100,52.0860327918,5.1374305189,30031,Zonenummer,92,Objectid,23133,Automaatnummer,Nicolaasweg 100,Adres,Oudwijk,Rayon,Utrecht,Woonplaats,3581VK,Postcode
2,Wilhelminapark 32,52.0875794469,5.1384240354,30031,Zonenummer,93,Objectid,23134,Automaatnummer,Wilhelminapark 32,Adres,Oudwijk,Rayon,Utrecht,Woonplaats,3581NH,Postcode
2,Wilhelminapark 48,52.0864710499,5.1382590708,30031,Zonenummer,94,Objectid,23135,Automaatnummer,Wilhelminapark 48,Adres,Oudwijk,Rayon,Utrecht,Woonplaats,3581NL,Postcode
2,Julianalaan 17,52.0847377532,5.1383561365,30031,Zonenummer,95,Objectid,23136,Automaatnummer,Julianalaan 17,Adres,Oudwijk,Rayon,Utrecht,Woonplaats,3581NS,Postcode
2,Flamingostraat 5,52.0788516930,5.1258656186,30032,Zonenummer,96,Objectid,23201,Automaatnummer,Flamingostraat 5,Adres,Watervogelbuurt,Rayon,Utrecht,Woonplaats,3582SV,Postcode
2,Gruttostraat 10,52.0788625938,5.1263883201,30032,Zonenummer,97,Objectid,23202,Automaatnummer,Gruttostraat 10,Adres,Watervogelbuurt,Rayon,Utrecht,Woonplaats,3582TH,Postcode
2,Duikerstraat 2,52.0784270429,5.1268691998,30032,Zonenummer,98,Objectid,23203,Automaatnummer,Duikerstraat 2,Adres,Watervogelbuurt,Rayon,Utrecht,Woonplaats,3582TB,Postcode
2,Lepelaarstraat 53,52.0778461519,5.1270318735,30032,Zonenummer,99,Objectid,23204,Automaatnummer,Lepelaarstraat 53,Adres,Watervogelbuurt,Rayon,Utrecht,Woonplaats,3582SM,Postcode
2,Pelikaanstraat 35,52.0777896860,5.1259213889,30032,Zonenummer,100,Objectid,23206,Automaatnummer,Pelikaanstraat 35,Adres,Watervogelbuurt,Rayon,Utrecht,Woonplaats,3582SE,Postcode
2,Sternstraat 24,52.0782687267,5.1260200187,30032,Zonenummer,101,Objectid,23207,Automaatnummer,Sternstraat 24,Adres,Watervogelbuurt,Rayon,Utrecht,Woonplaats,3582TC,Postcode
2,Lepelaarstraat 2,52.0785906975,5.1250401706,30032,Zonenummer,102,Objectid,23208,Automaatnummer,Lepelaarstraat 2,Adres,Watervogelbuurt,Rayon,Utrecht,Woonplaats,3582SN,Postcode
2,Albatrosstraat 17,52.0795256586,5.1254256783,30032,Zonenummer,103,Objectid,23209,Automaatnummer,Albatrosstraat 17,Adres,Watervogelbuurt,Rayon,Utrecht,Woonplaats,3582ES,Postcode
2,Mr. Tripkade 2,52.1062330195,5.1213093960,30077,Zonenummer,644,Objectid,37708,Automaatnummer,Mr. Tripkade 2,Adres,Tuindorp,Rayon,Utrecht,Woonplaats,3571SX,Postcode
2,Schimmelpennincklaan 47,52.1074743959,5.1220726791,30077,Zonenummer,645,Objectid,37709,Automaatnummer,Schimmelpennincklaan 47,Adres,Tuindorp,Rayon,Utrecht,Woonplaats,3571BG,Postcode
2,Schimmelpennincklaan 33,52.1073699912,5.1225569704,30077,Zonenummer,646,Objectid,37710,Automaatnummer,Schimmelpennincklaan 33,Adres,Tuindorp,Rayon,Utrecht,Woonplaats,3571BG,Postcode
2,V Lynden v Sandenburgln 74,52.1086161180,5.1237683328,30077,Zonenummer,647,Objectid,37711,Automaatnummer,V Lynden v Sandenburgln 74,Adres,Tuindorp,Rayon,Utrecht,Woonplaats,3571BD,Postcode
2,Mr. Sickeszlaan 27,52.1059207425,5.1226496395,30077,Zonenummer,648,Objectid,37712,Automaatnummer,Mr. Sickeszlaan 27,Adres,Tuindorp,Rayon,Utrecht,Woonplaats,3571ST,Postcode
2,Prof. Sjollemalaan 7,52.1062776199,5.1243287274,30077,Zonenummer,651,Objectid,37715,Automaatnummer,Prof. Sjollemalaan 7,Adres,Tuindorp,Rayon,Utrecht,Woonplaats,3571CK,Postcode
2,Raiffeisenlaan 19,52.1059065982,5.1258755146,30077,Zonenummer,652,Objectid,37716,Automaatnummer,Raiffeisenlaan 19,Adres,Tuindorp,Rayon,Utrecht,Woonplaats,3571TA,Postcode
2,Mr. Sickeszlaan 9,52.1054033368,5.1248501269,30077,Zonenummer,653,Objectid,37717,Automaatnummer,Mr. Sickeszlaan 9,Adres,Tuindorp,Rayon,Utrecht,Woonplaats,3571SR,Postcode
2,Burg vd Voort v Zijpln 68,52.1078696990,5.1286339714,30077,Zonenummer,655,Objectid,37719,Automaatnummer,Burg vd Voort v Zijpln 68,Adres,Tuindorp,Rayon,Utrecht,Woonplaats,3571VX,Postcode
2,Prof. Sprengerlaan 21,52.1071993562,5.1295798630,30077,Zonenummer,656,Objectid,37720,Automaatnummer,Prof. Sprengerlaan 21,Adres,Tuindorp,Rayon,Utrecht,Woonplaats,3571HB,Postcode
2,Prof. Leonard Fuchslaan 13,52.1061976532,5.1290560983,30077,Zonenummer,657,Objectid,37721,Automaatnummer,Prof. Leonard Fuchslaan 13,Adres,Tuindorp,Rayon,Utrecht,Woonplaats,3571HC,Postcode
2,Prof. Suringarlaan 9,52.1054893755,5.1279326595,30077,Zonenummer,658,Objectid,37722,Automaatnummer,Prof. Suringarlaan 9,Adres,Tuindorp,Rayon,Utrecht,Woonplaats,3571WH,Postcode
2,H.F. van Riellaan 5,52.1048618783,5.1271014687,30077,Zonenummer,659,Objectid,37723,Automaatnummer,H.F. van Riellaan 5,Adres,Tuindorp,Rayon,Utrecht,Woonplaats,3571WB,Postcode
2,Prof. J.W. Dieperinklaan 8,52.1053050696,5.1288225724,30077,Zonenummer,660,Objectid,37724,Automaatnummer,Prof. J.W. Dieperinklaan 8,Adres,Tuindorp,Rayon,Utrecht,Woonplaats,3571WK,Postcode
2,Dr. H.J. Lovinklaan 1,52.1045003923,5.1288285653,30077,Zonenummer,661,Objectid,37725,Automaatnummer,Dr. H.J. Lovinklaan 1,Adres,Tuindorp,Rayon,Utrecht,Woonplaats,3571WC,Postcode
2,Prof. J.W. Dieperinklaan 22,52.1051108928,5.1296734460,30077,Zonenummer,662,Objectid,37726,Automaatnummer,Prof. J.W. Dieperinklaan 22,Adres,Tuindorp,Rayon,Utrecht,Woonplaats,3571WK,Postcode
2,Prof. Melchior Treublaan 2,52.1066329525,5.1304968847,30077,Zonenummer,663,Objectid,37727,Automaatnummer,Prof. Melchior Treublaan 2,Adres,Tuindorp,Rayon,Utrecht,Woonplaats,3571JA,Postcode
2,Prof. Leonard Fuchslaan 43,52.1074300597,5.1312011399,30077,Zonenummer,664,Objectid,37728,Automaatnummer,Prof. Leonard Fuchslaan 43,Adres,Tuindorp,Rayon,Utrecht,Woonplaats,3571HE,Postcode
2,Ornsteinsingel 1,52.1077905091,5.1328593851,30077,Zonenummer,665,Objectid,37729,Automaatnummer,Ornsteinsingel 1,Adres,Tuindorp,Rayon,Utrecht,Woonplaats,3571HR,Postcode
2,Ornsteinsingel 53,52.1081186869,5.1331793730,30077,Zonenummer,666,Objectid,37730,Automaatnummer,Ornsteinsingel 53,Adres,Tuindorp,Rayon,Utrecht,Woonplaats,3571HS,Postcode
2,Eykmanlaan 44,52.1056695316,5.1308637515,30077,Zonenummer,667,Objectid,37731,Automaatnummer,Eykmanlaan 44,Adres,Tuindorp,Rayon,Utrecht,Woonplaats,3571JT,Postcode
2,Eykmanlaan 6,52.1046486134,5.1302514441,30077,Zonenummer,668,Objectid,37732,Automaatnummer,Eykmanlaan 6,Adres,Tuindorp,Rayon,Utrecht,Woonplaats,3571JS,Postcode
2,Prof. Jordanlaan 2,52.1038314082,5.1314985689,30077,Zonenummer,669,Objectid,37733,Automaatnummer,Prof. Jordanlaan 2,Adres,Tuindorp,Rayon,Utrecht,Woonplaats,3571KA,Postcode
2,Prof. Jordanlaan 42,52.1055809563,5.1325279750,30077,Zonenummer,670,Objectid,37734,Automaatnummer,Prof. Jordanlaan 42,Adres,Tuindorp,Rayon,Utrecht,Woonplaats,3571KB,Postcode
2,Troosterlaan 34,52.1052108545,5.1355836889,30076,Zonenummer,671,Objectid,77601,Automaatnummer,Troosterlaan 34,Adres,Tuindorp Oost,Rayon,Utrecht,Woonplaats,3571NN,Postcode
2,Van Everdingenlaan 32,52.1048279016,5.1365546071,30076,Zonenummer,672,Objectid,77602,Automaatnummer,Van Everdingenlaan 32,Adres,Tuindorp Oost,Rayon,Utrecht,Woonplaats,3571NR,Postcode
2,Wichmannlaan 31,52.1050963513,5.1374544801,30076,Zonenummer,673,Objectid,77603,Automaatnummer,Wichmannlaan 31,Adres,Tuindorp Oost,Rayon,Utrecht,Woonplaats,3571NK,Postcode
2,Molengraaffplantsoen 80,52.1036331925,5.1372995592,30076,Zonenummer,674,Objectid,77604,Automaatnummer,Molengraaffplantsoen 80,Adres,Tuindorp Oost,Rayon,Utrecht,Woonplaats,3571ZZ,Postcode
2,Kernkampplantsoen 96,52.1035612016,5.1386448884,30076,Zonenummer,675,Objectid,77605,Automaatnummer,Kernkampplantsoen 96,Adres,Tuindorp Oost,Rayon,Utrecht,Woonplaats,3571PM,Postcode
2,Boomgaardlaan 1,52.1022773178,5.1052162119,30122,Zonenummer,734,Objectid,312205,Automaatnummer,Boomgaardlaan 1,Adres,Ondiep,Rayon,Utrecht,Woonplaats,3551XM,Postcode
2,Keulsekade 10,52.0895501489,5.0917414476,30131,Zonenummer,736,Objectid,313101,Automaatnummer,Keulsekade 10,Adres,Laan van Nw Guinea,Rayon,Utrecht,Woonplaats,3531JW,Postcode
2,Ambonstraat 4,52.0903219163,5.0920165786,30131,Zonenummer,737,Objectid,313102,Automaatnummer,Ambonstraat 4,Adres,Laan van Nw Guinea,Rayon,Utrecht,Woonplaats,3531JT,Postcode
2,Keulsekade 23,52.0901233404,5.0906155531,30131,Zonenummer,738,Objectid,313103,Automaatnummer,Keulsekade 23,Adres,Laan van Nw Guinea,Rayon,Utrecht,Woonplaats,3531JX,Postcode
2,Keulsekade 37,52.0911372942,5.0885933460,30131,Zonenummer,739,Objectid,313104,Automaatnummer,Keulsekade 37,Adres,Laan van Nw Guinea,Rayon,Utrecht,Woonplaats,3531JX,Postcode
2,Groeneweg 32,52.0920513528,5.0905827769,30131,Zonenummer,740,Objectid,313105,Automaatnummer,Groeneweg 32,Adres,Laan van Nw Guinea,Rayon,Utrecht,Woonplaats,3521VG,Postcode
2,Molukkenstraat 74,52.0925498159,5.0906373728,30131,Zonenummer,741,Objectid,313106,Automaatnummer,Molukkenstraat 74,Adres,Laan van Nw Guinea,Rayon,Utrecht,Woonplaats,3531WE,Postcode
2,Groeneweg 9,52.0934945282,5.0903242864,30131,Zonenummer,742,Objectid,313107,Automaatnummer,Groeneweg 9,Adres,Laan van Nw Guinea,Rayon,Utrecht,Woonplaats,3531VA,Postcode
2,Surinamestraat 1,52.0940631445,5.0900832638,30131,Zonenummer,743,Objectid,313108,Automaatnummer,Surinamestraat 1,Adres,Ln van Nieuw Guinea,Rayon,Utrecht,Woonplaats,3531KH,Postcode
2,Celebesstraat 25,52.0931555475,5.0897235205,30131,Zonenummer,744,Objectid,313109,Automaatnummer,Celebesstraat 25,Adres,Ln van Nieuw Guinea,Rayon,Utrecht,Woonplaats,3531KB,Postcode
2,Bataviastraat 8,52.0922708794,5.0894960477,30131,Zonenummer,745,Objectid,313110,Automaatnummer,Bataviastraat 8,Adres,Ln van Nieuw Guinea,Rayon,Utrecht,Woonplaats,3531XD,Postcode
2,Laan van Nieuw-Guinea 62,52.0915582556,5.0889218732,30131,Zonenummer,746,Objectid,313111,Automaatnummer,Laan van Nieuw-Guinea 62,Adres,Ln van Nieuw Guinea,Rayon,Utrecht,Woonplaats,3531JL,Postcode
2,Laan van Nieuw-Guinea 85,52.0922923733,5.0881444707,30131,Zonenummer,747,Objectid,313112,Automaatnummer,Laan van Nieuw-Guinea 85,Adres,Ln van Nieuw Guinea,Rayon,Utrecht,Woonplaats,3531JE,Postcode
2,Laan van Nieuw-Guinea 92,52.0922619086,5.0876684611,30131,Zonenummer,748,Objectid,313113,Automaatnummer,Laan van Nieuw-Guinea 92,Adres,Ln van Nieuw Guinea,Rayon,Utrecht,Woonplaats,3531JM,Postcode
2,Paramaribostraat 106,52.0924446769,5.0867802670,30131,Zonenummer,749,Objectid,313114,Automaatnummer,Paramaribostraat 106,Adres,Ln van Nieuw Guinea,Rayon,Utrecht,Woonplaats,3531KT,Postcode
2,Laan van Nieuw-Guinea 103,52.0927923273,5.0873064932,30131,Zonenummer,750,Objectid,313115,Automaatnummer,Laan van Nieuw-Guinea 103,Adres,Ln van Nieuw Guinea,Rayon,Utrecht,Woonplaats,3531JE,Postcode
2,Surinamestraat 75,52.0931276751,5.0885147851,30131,Zonenummer,751,Objectid,313116,Automaatnummer,Surinamestraat 75,Adres,Ln van Nieuw Guinea,Rayon,Utrecht,Woonplaats,3531KJ,Postcode
2,Madoerastraat 7,52.0933661031,5.0897773232,30131,Zonenummer,752,Objectid,313117,Automaatnummer,Madoerastraat 7,Adres,Ln van Nieuw Guinea,Rayon,Utrecht,Woonplaats,3531KE,Postcode
2,Vleutenseweg 422,52.0943640684,5.0883067815,30131,Zonenummer,753,Objectid,313118,Automaatnummer,Vleutenseweg 422,Adres,Ln van Nieuw Guinea,Rayon,Utrecht,Woonplaats,3532HJ,Postcode
2,Bataviastraat 89,52.0937895891,5.0871507571,30131,Zonenummer,754,Objectid,313119,Automaatnummer,Bataviastraat 89,Adres,Ln van Nieuw Guinea,Rayon,Utrecht,Woonplaats,3531XC,Postcode
2,Weltevredenstraat 1,52.0946596241,5.0863672502,30131,Zonenummer,755,Objectid,313120,Automaatnummer,Weltevredenstraat 1,Adres,Ln van Nieuw Guinea,Rayon,Utrecht,Woonplaats,3531XP,Postcode
2,Joke Smitplein 7,52.0917964153,5.1282045310,30041,Zonenummer,136,Objectid,24107,Automaatnummer,Joke Smitplein 7,Adres,Buiten Wittevrouwen,Rayon,Utrecht,Woonplaats,3581PZ,Postcode
2,Nachtegaalstraat 26,52.0925389107,5.1298218596,30041,Zonenummer,137,Objectid,24108,Automaatnummer,Nachtegaalstraat 26,Adres,Buiten Wittevrouwen,Rayon,Utrecht,Woonplaats,3581AJ,Postcode
2,Mulderstraat 43,52.0934825785,5.1311107092,30041,Zonenummer,138,Objectid,24109,Automaatnummer,Mulderstraat 43,Adres,Buiten Wittevrouwen,Rayon,Utrecht,Woonplaats,3581GP,Postcode
2,Sweelinckstraat 4,52.0944961968,5.1319557830,30041,Zonenummer,139,Objectid,24110,Automaatnummer,Sweelinckstraat 4,Adres,Buiten Wittevrouwen,Rayon,Utrecht,Woonplaats,3581RV,Postcode
2,Biltstraat 115,52.0952929808,5.1331342812,30041,Zonenummer,140,Objectid,24111,Automaatnummer,Biltstraat 115,Adres,Buiten Wittevrouwen,Rayon,Utrecht,Woonplaats,3572AP,Postcode
2,Kerkstraat 73,52.0935953114,5.1322408086,30041,Zonenummer,141,Objectid,24112,Automaatnummer,Kerkstraat 73,Adres,Buiten Wittevrouwen,Rayon,Utrecht,Woonplaats,3581RC,Postcode
2,Kerkstraat 34,52.0931993116,5.1312600352,30041,Zonenummer,142,Objectid,24113,Automaatnummer,Kerkstraat 34,Adres,Buiten Wittevrouwen,Rayon,Utrecht,Woonplaats,3581AE,Postcode
2,Parkstraat 47,52.0914183881,5.1303126677,30041,Zonenummer,143,Objectid,24114,Automaatnummer,Parkstraat 47,Adres,Buiten Wittevrouwen,Rayon,Utrecht,Woonplaats,3581PA,Postcode
2,Maliesingel 21,52.0902340481,5.1287249920,30041,Zonenummer,144,Objectid,24115,Automaatnummer,Maliesingel 21,Adres,Buiten Wittevrouwen,Rayon,Utrecht,Woonplaats,3581BG,Postcode
2,Mgr. van de Weteringstr 13,52.0926820348,5.1327817094,30041,Zonenummer,145,Objectid,24116,Automaatnummer,Mgr. van de Weteringstr 13,Adres,Buiten Wittevrouwen,Rayon,Utrecht,Woonplaats,3581EA,Postcode
2,Mgr. van de Weteringstr 84,52.0940143822,5.1345802338,30041,Zonenummer,146,Objectid,24117,Automaatnummer,Mgr. van de Weteringstr 84,Adres,Buiten Wittevrouwen,Rayon,Utrecht,Woonplaats,3581EL,Postcode
2,Maliestraat 18,52.0947222134,5.1357550341,30041,Zonenummer,147,Objectid,24118,Automaatnummer,Maliestraat 18,Adres,Buiten Wittevrouwen,Rayon,Utrecht,Woonplaats,3581SM,Postcode
2,Oorsprongpark 1,52.0952594251,5.1371094892,30041,Zonenummer,148,Objectid,24119,Automaatnummer,Oorsprongpark 1,Adres,Buiten Wittevrouwen,Rayon,Utrecht,Woonplaats,3581ES,Postcode
2,Maliebaan 96,52.0942181679,5.1371899970,30041,Zonenummer,149,Objectid,24120,Automaatnummer,Maliebaan 96,Adres,Buiten Wittevrouwen,Rayon,Utrecht,Woonplaats,3581CZ,Postcode
2,Maliebaan 56,52.0932186993,5.1347367951,30041,Zonenummer,150,Objectid,24121,Automaatnummer,Maliebaan 56,Adres,Buiten Wittevrouwen,Rayon,Utrecht,Woonplaats,3581CT,Postcode
2,Maliebaan 20,52.0909076339,5.1322136229,30041,Zonenummer,151,Objectid,24122,Automaatnummer,Maliebaan 20,Adres,Buiten Wittevrouwen,Rayon,Utrecht,Woonplaats,3581CP,Postcode
2,Maliebaan 10,52.0902214231,5.1311896425,30041,Zonenummer,152,Objectid,24123,Automaatnummer,Maliebaan 10,Adres,Buiten Wittevrouwen,Rayon,Utrecht,Woonplaats,3581CN,Postcode
2,Maliesingel 51,52.0865771930,5.1295679302,30041,Zonenummer,153,Objectid,24124,Automaatnummer,Maliesingel 51,Adres,Buiten Wittevrouwen,Rayon,Utrecht,Woonplaats,3581BP,Postcode
2,Maliesingel 29,52.0883055199,5.1293223788,30041,Zonenummer,154,Objectid,24125,Automaatnummer,Maliesingel 29,Adres,Buiten Wittevrouwen,Rayon,Utrecht,Woonplaats,3581BJ,Postcode
2,Maliebaan 17,52.0892652143,5.1310799037,30041,Zonenummer,155,Objectid,24126,Automaatnummer,Maliebaan 17,Adres,Buiten Wittevrouwen,Rayon,Utrecht,Woonplaats,3581CB,Postcode
2,Maliebaan 31,52.0898656858,5.1319819432,30041,Zonenummer,156,Objectid,24127,Automaatnummer,Maliebaan 31,Adres,Buiten Wittevrouwen,Rayon,Utrecht,Woonplaats,3581CC,Postcode
2,Maliebaan 55,52.0909785537,5.1336824383,30041,Zonenummer,157,Objectid,24128,Automaatnummer,Maliebaan 55,Adres,Buiten Wittevrouwen,Rayon,Utrecht,Woonplaats,3581CE,Postcode
2,Maliebaan 81,52.0920941525,5.1353475732,30041,Zonenummer,158,Objectid,24129,Automaatnummer,Maliebaan 81,Adres,Buiten Wittevrouwen,Rayon,Utrecht,Woonplaats,3581CG,Postcode
2,Sterrenbos 11,52.0865322153,5.1160973943,30046,Zonenummer,159,Objectid,24601,Automaatnummer,Sterrenbos 11,Adres,Hooch Boulandt,Rayon,Utrecht,Woonplaats,3511ES,Postcode
2,Herman Gorterstraat 40,52.0855669245,5.1159612406,30046,Zonenummer,160,Objectid,24602,Automaatnummer,Herman Gorterstraat 40,Adres,Hooch Boulandt,Rayon,Utrecht,Woonplaats,3511EW,Postcode
2,Nicolaas Beetsstraat 101,52.0846621170,5.1154985751,30046,Zonenummer,161,Objectid,24603,Automaatnummer,Nicolaas Beetsstraat 101,Adres,Hooch Boulandt,Rayon,Utrecht,Woonplaats,3511HD,Postcode
2,Arthur van Schendelstr 850,52.0838850748,5.1161053970,30046,Zonenummer,162,Objectid,24604,Automaatnummer,Arthur van Schendelstr 850,Adres,Hooch Boulandt,Rayon,Utrecht,Woonplaats,3511ML,Postcode
2,Arthur van Schendelstr 509,52.0828845463,5.1176601578,30046,Zonenummer,163,Objectid,24605,Automaatnummer,Arthur van Schendelstr 509,Adres,Hooch Boulandt,Rayon,Utrecht,Woonplaats,3511MP,Postcode
2,Arthur van Schendelstr 600,52.0816211962,5.1182841962,30046,Zonenummer,164,Objectid,24606,Automaatnummer,Arthur van Schendelstr 600,Adres,Hooch Boulandt,Rayon,Utrecht,Woonplaats,3511MJ,Postcode
2,Arthur van Schendelstr 500,52.0806994108,5.1194472024,30046,Zonenummer,165,Objectid,24607,Automaatnummer,Arthur van Schendelstr 500,Adres,Hooch Boulandt,Rayon,Utrecht,Woonplaats,3511MH,Postcode
2,Arthur van Schendelstr 42,52.0819880670,5.1197279534,30046,Zonenummer,166,Objectid,24608,Automaatnummer,Arthur van Schendelstr 42,Adres,Hooch Boulandt,Rayon,Utrecht,Woonplaats,3511MD,Postcode
2,Hartingstraat 100,52.0837390566,5.1180438000,30046,Zonenummer,167,Objectid,24609,Automaatnummer,Hartingstraat 100,Adres,Hooch Boulandt,Rayon,Utrecht,Woonplaats,3511HV,Postcode
2,Nicolaas Beetsstraat 6,52.0851195709,5.1177290217,30046,Zonenummer,168,Objectid,24610,Automaatnummer,Nicolaas Beetsstraat 6,Adres,Hooch Boulandt,Rayon,Utrecht,Woonplaats,3511HE,Postcode
2,Pasteurstraat 10,52.0829962982,5.1190684233,30046,Zonenummer,170,Objectid,24612,Automaatnummer,Pasteurstraat 10,Adres,Hooch Boulandt,Rayon,Utrecht,Woonplaats,3511HX,Postcode
2,Vaartsestraat 33,52.0805807948,5.1200769149,30046,Zonenummer,171,Objectid,24613,Automaatnummer,Vaartsestraat 33,Adres,Hooch Boulandt,Rayon,Utrecht,Woonplaats,3511TA,Postcode
2,Vaartsestraat 184,52.0799323854,5.1204856047,30046,Zonenummer,172,Objectid,24614,Automaatnummer,Vaartsestraat 184,Adres,Hooch Boulandt,Rayon,Utrecht,Woonplaats,3511TG,Postcode
2,Vaartsestraat 206,52.0794890192,5.1215233333,30046,Zonenummer,173,Objectid,24615,Automaatnummer,Vaartsestraat 206,Adres,Hooch Boulandt,Rayon,Utrecht,Woonplaats,3511TG,Postcode
2,Westerkade 26,52.0796979168,5.1226967904,30046,Zonenummer,174,Objectid,24616,Automaatnummer,Westerkade 26,Adres,Hooch Boulandt,Rayon,Utrecht,Woonplaats,3511HC,Postcode
2,Westerkade 10,52.0803826196,5.1231135833,30046,Zonenummer,175,Objectid,24617,Automaatnummer,Westerkade 10,Adres,Hooch Boulandt,Rayon,Utrecht,Woonplaats,3511HB,Postcode
2,Blekerstraat 3,52.0926601058,5.1059629749,30051,Zonenummer,176,Objectid,25101,Automaatnummer,Blekerstraat 3,Adres,Hagelbuurt,Rayon,Utrecht,Woonplaats,3531BL,Postcode
2,J.J.A. Goeverneurstraat 14,52.0930695220,5.1043253997,30052,Zonenummer,177,Objectid,25201,Automaatnummer,J.J.A. Goeverneurstraat 14,Adres,Nieuw Engeland,Rayon,Utrecht,Woonplaats,3532XX,Postcode
2,J. Kinkerstraat 6,52.0936123335,5.1042259914,30052,Zonenummer,178,Objectid,25202,Automaatnummer,J. Kinkerstraat 6,Adres,Nieuw Engeland,Rayon,Utrecht,Woonplaats,3532XT,Postcode
2,P.A. de Genestetstraat 46,52.0943542172,5.1043045345,30052,Zonenummer,179,Objectid,25203,Automaatnummer,P.A. de Genestetstraat 46,Adres,Nieuw Engeland,Rayon,Utrecht,Woonplaats,3532XS,Postcode
2,M.P. Lindostraat 13,52.0939017685,5.1034076878,30052,Zonenummer,180,Objectid,25204,Automaatnummer,M.P. Lindostraat 13,Adres,Nieuw Engeland,Rayon,Utrecht,Woonplaats,3532XE,Postcode
2,Bilderdijkstraat 14,52.0935439745,5.1025551725,30052,Zonenummer,181,Objectid,25205,Automaatnummer,Bilderdijkstraat 14,Adres,Nieuw Engeland,Rayon,Utrecht,Woonplaats,3532VE,Postcode
2,Vleutenseweg 167,52.0931631351,5.1014344493,30052,Zonenummer,182,Objectid,25206,Automaatnummer,Vleutenseweg 167,Adres,Nieuw Engeland,Rayon,Utrecht,Woonplaats,3532HB,Postcode
2,Douwes Dekkerstraat 49,52.0946639341,5.1025409522,30052,Zonenummer,183,Objectid,25207,Automaatnummer,Douwes Dekkerstraat 49,Adres,Nieuw Engeland,Rayon,Utrecht,Woonplaats,3532XC,Postcode
