OBJECTID,PUIC,TIJDSTIP_REGISTRATIE,BGTBRONHOUDERCODE,BGTBRONHOUDER,BGTSTATUS,RELATIEVEHOOGTELIGGING,FYSIEK_VOORKOMEN,GEOCODE,SUBCODE,GEOCODE_NR,GEOSUBCODE,GEOCODE_NAAM,KMLINT,KMLINT_OMSCHRIJVING,KM_GEOCODE_VLAKPUNT,KM_GEOCODE_VLAKPUNT_T,REGIO_NAAM,REGIO_AFKORTING,CONTRACTGEBIED_NAAM,CONTRACTGEBIED_NR,CONTRACTGEBIED_TYPE,PGO_GEBIED_NAAM,TECHNIEKVELD,ONDERHOUDSREGIO_NAAM,ONDERHOUDSREGIO_AFKORTING,BEHEERDER,X_VLAKPUNT,Y_VLAKPUNT,LATITUDE_VLAKPUNT,LONGITUDE_VLAKPUNT,OPPERVLAKTE,POSITIONELE_NAUWKEURIGHEID_MM,NAAM,STATUS,Shape__Area,Shape__Length
1,4a9056c58f314e34bcd8ec0adec44dc6,2022/12/06 12:10:42+00,L0004,Prorail,bestaand,0,gesloten verharding,924,a,924,924_a,Kijfhoek,Kfhz-Kfhn,Kijfhoek Zuid - Kijfhoek Noord ,34.646892,"34,646892",Randstad Zuid,RZ,Kijfhoek,99,BAAN,Zee-Zevenaar,BAAN,Randstad Zuid,RZ,ProRail,100837.147851,427026.3475,51.82920647,4.60146528,272893.108758,283,,gerealiseerd,272893.1087575,18314.2453339603
2,5d94a7339f0e4b9e94a91644a7692850,2022/01/05 09:17:28+00,L0004,Prorail,bestaand,0,gesloten verharding,116,a,116,116_a,Dordrecht - Rotterdam Barendrecht,Bd-Rtd,Breda - Rotterdam Centraal ,30.985349,"30,985349",Randstad Zuid,RZ,Dordrecht,5,BAAN,Dordrecht,BAAN,Randstad Zuid,RZ,ProRail,104003.690883,425159.0915,51.81272251,4.64767375,33.044811,283,,gerealiseerd,33.044811,25.375756637658
3,6eb967943b3c489d98079723fda2be1e,2016/05/26 12:12:55+00,L0004,Prorail,bestaand,0,gesloten verharding,625,b,625,625_b,Lage Zwaluwe,Bd-Rtd,Breda - Rotterdam Centraal ,14.540762,"14,540762",Zuid,Z,Roosendaal,19,BAAN,Zeeland,BAAN,Zuid,Z,ProRail,105143.672,411189.364166,51.6872676,4.66621108,127.507972,283,,Actueel,127.507972,68.6966787742609
4,a123291c088644779aff8137cdc0145f,2017/09/11 09:41:15+00,L0004,Prorail,bestaand,0,gesloten verharding,163,,163,163__,Rotterdam Lombardijen - Rotterdam Centraal,Bd-Rtd,Breda - Rotterdam Centraal ,43.659396,"43,659396",Randstad Zuid,RZ,Dordrecht,5,BAAN,Dordrecht,BAAN,Randstad Zuid,RZ,ProRail,95423.9835,434040.196855,51.89169148,4.52173401,25.87065,283,,Actueel,25.87065,21.6043023394251
5,a5424433d788440199aa8774de8fe257,2020/07/24 14:18:39+00,L0004,Prorail,bestaand,0,gesloten verharding,054,a,54,054_a,Boxtel - Eindhoven,Bd-Ehv,Breda - Eindhoven ,47.278567,"47,278567",Zuid,Z,Boxtel,23,BAAN,Brabant,BAAN,Zuid,Z,ProRail,154374.5635,392517.625433,51.52165371,5.3781896,43.624233,283,,gerealiseerd,43.624233,26.4836868096998
6,9a190abe0a22488bbe81607108c1d21e,2020/08/24 11:48:51+00,L0004,Prorail,bestaand,0,gesloten verharding,081,,81,081__,Zaandam - Amsterdam Singelgracht Aansl.,Awhv-Asd,Amsterdam Westhaven (gebied) - Amsterdam Centraal ,74.617392,"74,617392",Randstad Noord,RN,Amsterdam,9,BAAN,Amsterdam,BAAN,Randstad Noord,RN,ProRail,116884.4955,491576.036308,52.41068167,4.8270246,151.662998,283,,gerealiseerd,151.6629985,93.4925545466523
7,f7996ae91ae44a9d92fac1f1bc73ae88,2020/10/09 18:13:10+00,L0004,Prorail,bestaand,0,gesloten verharding,555,,555,555__,Rotterdam Centraal,Ass-Rtd,Amsterdam Sloterdijk - Rotterdam ,82.635324,"82,635324",Randstad Zuid,RZ,Rotterdam,3,BAAN,Rotterdam,BAAN,Randstad Zuid,RZ,ProRail,90600.602,437595.0265,51.92310278,4.45100765,42.48761,283,,gerealiseerd,42.48761,31.2558482088831
8,e489f89979de4756abcbda4c91977eba,2021/01/12 07:38:30+00,L0004,Prorail,bestaand,0,gesloten verharding,107,,107,107__,Moordrecht Aansl. - Den Haag Binckhorst,Gd-Gvc,Gouda - Den Haag Centraal ,6.544078,"6,544078",Randstad Zuid,RZ,Den Haag,2,BAAN,Den Haag,BAAN,Randstad Zuid,RZ,ProRail,99484.323025,448952.216,52.02613254,4.57830196,43.114452,283,,gerealiseerd,43.114452,31.1858226864332
9,b40b885c5acf4033b91d33582ed2f38e,2022/03/09 11:11:09+00,L0004,Prorail,bestaand,0,gesloten verharding,152,b,152,152_b,Kijfhoek - Meteren Aansl.,Brgnd-Brech,Betuweroute Giessendam - Betuweroute Echteld ,29.91471,"29,914710",Randstad Zuid,RZ,A15trace,71,BAAN,Zee-Zevenaar,BAAN,Randstad Zuid,RZ,ProRail,130237.841768,428178.1645,51.84163915,5.02788399,93.107905,283,,gerealiseerd,93.1079045,55.6617881084249
10,fef1070dd8d8441295e34f3f594eddc2,2017/05/10 09:05:17+00,L0004,Prorail,bestaand,0,gesloten verharding,152,a,152,152_a,Kijfhoek - Meteren Aansl.,Brppd-Brgnd,Betuweroute Papendrecht - Betuweroute Giessendam ,20.451999,"20,451999",Randstad Zuid,RZ,A15trace,71,BAAN,Zee-Zevenaar,BAAN,Randstad Zuid,RZ,ProRail,121269.168783,427676.216,51.83665727,4.89779443,211.785279,283,,Actueel,211.785279,65.7580088666567
11,32ace95d382444dd9736872801f96cca,2020/11/13 13:40:10+00,L0004,Prorail,bestaand,0,gesloten verharding,550,,550,550__,Leeuwarden,Hlg-Nscg,Harlingen - Nieuweschans Grens ,25.85607,"25,856070",Noord-Oost,NO,Friesland,36,BAAN,Wadden,BAAN,Noord-Oost,NO,ProRail,181712.290901,578783.3355,53.19503777,5.78689132,24.485574,283,,gerealiseerd,24.4855735,25.435693276269
12,54da48295f1b4351b1926d10e68e922d,2015/07/20 15:24:36+00,L0004,Prorail,bestaand,0,gesloten verharding,152,a,152,152_a,Kijfhoek - Meteren Aansl.,Brppd-Brgnd,Betuweroute Papendrecht - Betuweroute Giessendam ,8.006107,"8,006107",Randstad Zuid,RZ,A15trace,71,BAAN,Zee-Zevenaar,BAAN,Randstad Zuid,RZ,ProRail,109330.942641,427798.47,51.83690628,4.72457358,202.65786,283,,Actueel,202.65786,64.9144770325737
13,4173feeceda44693b5441d79a1e8ca5a,2021/03/12 08:49:26+00,L0004,Prorail,bestaand,0,gesloten verharding,118,,118,118__,Geldermalsen - Dordrecht,Gdm-Ddr,Geldermalsen - Dordrecht ,84.279465,"84,279465",Randstad Zuid,RZ,Dordrecht,5,BAAN,Dordrecht,BAAN,Randstad Zuid,RZ,ProRail,112571.780827,427097.77,51.83086441,4.77167941,44.695507,283,,gerealiseerd,44.695507,31.4405932994004
14,062429ec32b043e088742c8dd30b7b84,2021/03/12 08:49:26+00,L0004,Prorail,bestaand,0,gesloten verharding,118,,118,118__,Geldermalsen - Dordrecht,Gdm-Ddr,Geldermalsen - Dordrecht ,84.279554,"84,279554",Randstad Zuid,RZ,Dordrecht,5,BAAN,Dordrecht,BAAN,Randstad Zuid,RZ,ProRail,112570.086876,427092.6685,51.83081843,4.77165546,45.088587,283,,gerealiseerd,45.088587,31.5232614729984
15,62ad69f35e9c41ecbc664bc2cace7576,2022/04/03 15:22:56+00,L0004,Prorail,bestaand,0,gesloten verharding,507,b,507,507_b,Velperbroek Aansl.,Asa-Zvg,Amsterdam Amstel - Zevenaar Grens ,93.855969,"93,855969",Noord-Oost,NO,Achterhoek,30,BAAN,Gelre,BAAN,Noord-Oost,NO,ProRail,192185.304606,443988.071,51.98304606,5.92849314,44.313524,283,,gerealiseerd,44.3135235,31.3177009912663
16,b27c593a47ab4c48a37802a133074fbd,2022/04/03 15:22:47+00,L0004,Prorail,bestaand,0,gesloten verharding,508,,508,508__,Arnhem,Asa-Zvg,Amsterdam Amstel - Zevenaar Grens ,90.673856,"90,673856",Noord-Oost,NO,n.v.t.,,,n.v.t.,,n.v.t.,,Derden - Overig,189088.509788,444486.5245,51.98772494,5.88346572,70.558478,283,,gerealiseerd,70.5584785,45.8479174460819
17,f5c1a1d1d3f5456789ba8ce168b829fa,2020/10/02 14:51:20+00,L0004,Prorail,bestaand,0,gesloten verharding,508,,508,508__,Arnhem,Asa-Zvg,Amsterdam Amstel - Zevenaar Grens ,91.992041,"91,992041",Noord-Oost,NO,Achterhoek,30,BAAN,Gelre,BAAN,Noord-Oost,NO,ProRail,190389.812886,444203.9155,51.98510343,5.90238027,59.773067,283,,gerealiseerd,59.773067,40.5671234831156
18,23c4c7e7d35d4e209f5651121d0e5ff0,2021/01/08 15:56:58+00,L0004,Prorail,bestaand,0,gesloten verharding,119,a,119,119_a,Lage Zwaluwe - Dordrecht,Bd-Rtd,Breda - Rotterdam Centraal ,27.157803,"27,157803",Randstad Zuid,RZ,Dordrecht,5,BAAN,Dordrecht,BAAN,Randstad Zuid,RZ,ProRail,105735.035,422827.737655,51.79192425,4.67311099,34.614873,283,,gerealiseerd,34.6148735,26.5010090869237
19,ab2d698385f13418e05332a1e90a9dc5,2020/07/28 11:57:36+00,L0004,Prorail,bestaand,0,gesloten verharding,035,,35,035__,Lunetten - De Haar Aansl.,Asa-Zvg,Amsterdam Amstel - Zevenaar Grens ,38.42588,"38,425880",Randstad Noord,RN,Driebergen,15,BAAN,Neerlands Midden,BAAN,Randstad Noord,RN,ProRail,138330.389883,453470.055,52.06926671,5.14408471,41.735527,283,,Actueel,41.7355265,30.9452899178818
20,277b929d5ff5498ab21eb8589482f1a1,2021/04/14 12:17:01+00,L0004,Prorail,bestaand,0,gesloten verharding,035,,35,035__,Lunetten - De Haar Aansl.,Asa-Zvg,Amsterdam Amstel - Zevenaar Grens ,52.715396,"52,715396",Randstad Noord,RN,Maarn,16,BAAN,Eemland,BAAN,Randstad Noord,RN,ProRail,152468.832661,453068.5085,52.06590239,5.35029011,108.710118,283,,gerealiseerd,108.7101185,71.7126956567725
21,922bfce6ff4e44d594169ec237443dc6,2020/11/30 09:42:25+00,L0004,Prorail,bestaand,0,gesloten verharding,121,a,121,121_a,Breda - Lage Zwaluwe,Bd-Rtd,Breda - Rotterdam Centraal ,7.637811,"7,637811",Zuid,Z,Breda,20,BAAN,Brabant,BAAN,Zuid,Z,ProRail,107740.585,404788.57995,51.62996247,4.70463102,25.333805,283,,gerealiseerd,25.333805,21.4077591834858
22,bea04a6cf2d24bb6bbd2910801ed2f5a,2021/07/05 12:56:23+00,L0004,Prorail,bestaand,0,gesloten verharding,054,a,54,054_a,Boxtel - Eindhoven,Bd-Ehv,Breda - Eindhoven ,54.460126,"54,460126",Zuid,Z,Boxtel,23,BAAN,Brabant,BAAN,Zuid,Z,ProRail,158271.3565,386505.791463,51.46760625,5.43428035,26.37535,283,,gerealiseerd,26.3753505,21.752676377788
23,e78a7ad80b74687de0530b29a8c0c22a,2022/09/05 12:23:17+00,L0004,Prorail,bestaand,0,gesloten verharding,135,,135,135__,Weesp Aansl. - Lelystad Industrieterrein,Wp-Llso,Weesp - Lelystad Opstel. ,11.845022,"11,845022",Randstad Noord,RN,Weesp,11,BAAN,Amstelsepoort,BAAN,Randstad Noord,RN,ProRail,140639.424372,485928.075,52.36105687,5.17638571,43.206498,283,,gerealiseerd,43.206498,31.2040773071184
24,e78a7ad80aed687de0530b29a8c0c22a,2022/09/05 12:25:33+00,L0004,Prorail,bestaand,0,gesloten verharding,135,,135,135__,Weesp Aansl. - Lelystad Industrieterrein,Wp-Llso,Weesp - Lelystad Opstel. ,4.181878,"4,181878",Randstad Noord,RN,Weesp,11,BAAN,Amstelsepoort,BAAN,Randstad Noord,RN,ProRail,135505.119802,481030.6455,52.3168829,5.1012965,95.324674,283,,gerealiseerd,95.324674,39.9347018066694
25,b99c9b1402f74e8e86df47ea07809284,2021/01/22 19:00:38+00,L0004,Prorail,bestaand,0,gesloten verharding,585,,585,585__,Diemen Aansl.,Asd-Zp,Amsterdam Centraal - Zutphen ,9.002257,"9,002257",Randstad Noord,RN,Weesp,11,BAAN,Amstelsepoort,BAAN,Randstad Noord,RN,ProRail,128294.459422,482951.256,52.33384155,4.99539638,32.901646,283,,gerealiseerd,32.901646,25.5962426233959
26,c9a08e00f07b4196af461c06727f78ff,2015/06/01 15:25:01+00,L0004,Prorail,bestaand,0,gesloten verharding,541,d,541,541_d,Weesp Aansl.,Mbga-Kv,Muiderberg Aansl. - Keverdijk ,202.109015,"202,109015",Randstad Noord,RN,Weesp,11,BAAN,Amstelsepoort,BAAN,Randstad Noord,RN,ProRail,133645.162314,480221.5025,52.30954162,5.07407039,55.553598,283,,Actueel,55.553598,39.1619159130281
27,4983ea3d7056420da9399a35d37765cc,2023/02/01 06:50:49+00,L0004,Prorail,bestaand,0,gesloten verharding,135,,135,135__,Weesp Aansl. - Lelystad Industrieterrein,Wp-Llso,Weesp - Lelystad Opstel. ,40.428132,"40,428132",Randstad Noord,RN,Weesp,11,BAAN,Amstelsepoort,BAAN,Randstad Noord,RN,ProRail,160784.2085,502710.591845,52.51204552,5.47240926,42.877177,283,,Actueel,42.8771765,31.2036172318553
28,1c6cddce0f324656b4e834eda0669a7b,2017/09/06 13:56:49+00,L0004,Prorail,bestaand,0,gesloten verharding,135,,135,135__,Weesp Aansl. - Lelystad Industrieterrein,Wp-Llso,Weesp - Lelystad Opstel. ,22.008189,"22,008189",Randstad Noord,RN,Weesp,11,BAAN,Amstelsepoort,BAAN,Randstad Noord,RN,ProRail,149191.203953,490681.025,52.40393105,5.30184671,43.183744,283,,Actueel,43.1837435,32.1969844192796
29,e085ac60ae00436ba57a51acb66be52b,2015/06/02 08:22:05+00,L0004,Prorail,bestaand,0,gesloten verharding,585,,585,585__,Diemen Aansl.,Asd-Zp,Amsterdam Centraal - Zutphen ,9.009574,"9,009574",Randstad Noord,RN,Weesp,11,BAAN,Amstelsepoort,BAAN,Randstad Noord,RN,ProRail,128247.512544,482874.0705,52.33314557,4.99471375,47.497879,283,,Actueel,47.497879,34.4700409622399
30,db810f0ab7ff46869e9679cff4218e70,2015/05/26 10:21:58+00,L0004,Prorail,bestaand,0,gesloten verharding,614,c,614,614_c,s Hertogenbosch,Ut-Btl,Utrecht Centraal - Boxtel ,48.523314,"48,523314",Zuid,Z,Den Bosch,21,BAAN,Betuwe,BAAN,Zuid,Z,ProRail,148349.925,410729.598049,51.68531418,5.29103783,65.608171,283,,Actueel,65.608171,43.4672920797991
31,ab916c2dbea52578e0530b29a8c012c4,2021/05/18 07:44:40+00,L0004,Prorail,bestaand,0,gesloten verharding,158,,158,158__,Ressen = Bemmel - Zevenaar,Brech-Brzv,Betuweroute Echteld - Betuweroute Zevenaar ,95.766898,"95,766898",Randstad Zuid,RZ,A15trace,71,BAAN,Zee-Zevenaar,BAAN,Randstad Zuid,RZ,ProRail,192775.734114,435147.0435,51.90354404,5.93611488,211.808424,283,,gerealiseerd,211.808424,65.6208177992034
32,0d34b804aeb644e386b5989d98d43fdc,2020/09/15 09:03:58+00,L0004,Prorail,bestaand,0,gesloten verharding,504,b,504,504_b,Heerlen,Std-Hz,Sittard - Herzogenrath (D) ,18.128661,"18,128661",Zuid,Z,Maastricht,26,BAAN,Limburg,BAAN,Zuid,Z,ProRail,196031.481505,322608.2395,50.89178589,5.97034233,27.053711,283,,gerealiseerd,27.053711,21.9292788784597
33,ac91d7f09e834edd893de3d5d376d0ab,2021/04/23 10:43:37+00,L0004,Prorail,bestaand,0,gesloten verharding,139,,139,139__,Zaandam - Amsterdam Sloterdijk,Zd-Sgra,Zaandam - Amsterdam Singelgracht Aansl. ,172.054005,"172,054005",Randstad Noord,RN,Alkmaar,7,BAAN,Hollands Noorderkwartier,BAAN,Randstad Noord,RN,ProRail,116124.392,493829.926541,52.43088428,4.8155926,45.510916,283,,gerealiseerd,45.5109165,31.6055787201757
34,b9b1ab6abea348f984865cbdbf603e68,2021/04/23 10:44:34+00,L0004,Prorail,bestaand,0,gesloten verharding,139,,139,139__,Zaandam - Amsterdam Sloterdijk,Zd-Sgra,Zaandam - Amsterdam Singelgracht Aansl. ,174.428934,"174,428934",Randstad Noord,RN,Alkmaar,7,BAAN,Hollands Noorderkwartier,BAAN,Randstad Noord,RN,ProRail,115327.7715,491605.873,52.41083943,4.80414317,45.546534,283,,gerealiseerd,45.546534,31.6640000718543
35,7acb10bc58ea4ff0bf4b8490d5509207,2021/04/23 10:44:44+00,L0004,Prorail,bestaand,0,gesloten verharding,139,,139,139__,Zaandam - Amsterdam Sloterdijk,Zd-Sgra,Zaandam - Amsterdam Singelgracht Aansl. ,174.428879,"174,428879",Randstad Noord,RN,Alkmaar,7,BAAN,Hollands Noorderkwartier,BAAN,Randstad Noord,RN,ProRail,115321.025,491607.26897,52.41085149,4.80404385,45.434461,283,,gerealiseerd,45.4344615,31.9052007503434
36,bb121d5692dd4ffca6261b21a6b02fa6,2020/12/18 17:35:39+00,L0004,Prorail,bestaand,0,gesloten verharding,117,,117,117__,Lunetten - Geldermalsen,Ut-Btl,Utrecht Centraal - Boxtel ,15.576736,"15,576736",Randstad Noord,RN,Driebergen,15,BAAN,Neerlands Midden,BAAN,Randstad Noord,RN,ProRail,142746.8135,441897.336095,51.9653653,5.20890982,63.053082,283,,gerealiseerd,63.0530815,41.1804130719563
37,d86b216c04ea404ea3a45ac4e27a9586,2017/08/25 09:42:43+00,L0004,Prorail,bestaand,0,gesloten verharding,545,b,545,545_b,Roosendaal,Zlw-Np,Lage Zwaluwe - Nispen ,22.305052,"22,305052",Zuid,Z,Roosendaal,19,BAAN,Zeeland,BAAN,Zuid,Z,ProRail,91054.7745,395514.136521,51.54495345,4.46535768,16.319727,283,,Actueel,16.319727,16.8224829599416
38,1e5ffa12271347d7ae3dc98b05176f2b,2020/01/22 08:54:04+00,L0004,Prorail,bestaand,0,half verhard,117,,117,117__,Lunetten - Geldermalsen,Ut-Btl,Utrecht Centraal - Boxtel ,4.850679,"4,850679",Randstad Noord,RN,Driebergen,15,BAAN,Neerlands Midden,BAAN,Randstad Noord,RN,ProRail,139008.7965,451886.468232,52.05505341,5.15405299,42.174321,283,,Actueel,42.1743205,31.0693548599353
39,d6020f752d022ad1e0530b29a8c0c683,2022/10/10 10:16:49+00,L0004,Prorail,bestaand,0,gesloten verharding,505,a,505,505_a,Amersfoort Aansl.,Ama-Htba,Amersfoort Aansluiting - Hattemerbroek Aansluiting ,23.611487,"23,611487",Randstad Noord,RN,Amersfoort,12,BAAN,Eemland,BAAN,Randstad Noord,RN,ProRail,155730.8885,464719.979173,52.17063083,5.39788743,43.15511,283,,gerealiseerd,43.1551105,31.1751293743073
40,d6020f752cca2ad1e0530b29a8c0c683,2022/02/16 09:28:28+00,L0004,Prorail,bestaand,0,gesloten verharding,506,b,506,506_b,Amersfoort,Asd-Zp,Amsterdam Centraal - Zutphen ,45.218866,"45,218866",Randstad Noord,RN,Amersfoort,12,BAAN,Eemland,BAAN,Randstad Noord,RN,ProRail,154572.6385,463187.674151,52.15685895,5.38095842,49.080199,283,,gerealiseerd,49.080199,35.5993394175131
41,bfa584bf98d749df8e30b0b76b34c145,2020/10/30 17:09:52+00,L0004,Prorail,bestaand,0,gesloten verharding,608,b,608,608_b,Apeldoorn,Asd-Zp,Amsterdam Centraal - Zutphen ,88.415757,"88,415757",Noord-Oost,NO,IJsselstreek,31,BAAN,Veluwe,BAAN,Noord-Oost,NO,ProRail,195107.1974,469175.913,52.20922166,5.97398862,44.232266,283,,gerealiseerd,44.232266,31.4995929568206
42,8b322d4ec64e46ee8633155cd50b9135,2021/04/23 10:42:53+00,L0004,Prorail,bestaand,0,gesloten verharding,139,,139,139__,Zaandam - Amsterdam Sloterdijk,Zd-Sgra,Zaandam - Amsterdam Singelgracht Aansl. ,174.428973,"174,428973",Randstad Noord,RN,Alkmaar,7,BAAN,Hollands Noorderkwartier,BAAN,Randstad Noord,RN,ProRail,115314.437,491608.480648,52.4108619,4.80394689,46.330103,283,,gerealiseerd,46.3301035,31.7620156964565
43,28ea32a8652841c79b3718887190867d,2020/09/11 14:58:07+00,L0004,Prorail,bestaand,0,gesloten verharding,161,,161,161__,Lelystad Industrieterrein - Hattemerbroek,Llsoa-Zl,Lelystad Opstelterrein Aansl. - Zwolle ,40.060736,"40,060736",Noord-Oost,NO,Gelderland,33,BAAN,Veluwe,BAAN,Noord-Oost,NO,ProRail,195367.712931,502070.1755,52.50482981,5.98174987,92.576741,283,,gerealiseerd,92.5767415,39.5362320791866
44,071a6bc839444f6c9e79f0443488afb9,2023/01/23 13:16:31+00,L0004,Prorail,bestaand,0,gesloten verharding,133,a,133,133_a,Amsterdam Riekerpolder - Warmond,Asra-Wmd,Amsterdam Riekerpolder Aansl. - Warmond ,8.518344,"8,518344",Randstad Noord,RN,Haarlem,8,BAAN,Kennemerland,BAAN,Randstad Noord,RN,ProRail,116709.613953,483561.1505,52.33863805,4.82536772,49.092014,283,,gerealiseerd,49.092014,35.7649426243438
45,cf14761e3336461eb62ec1f8e6cd3aab,2020/09/11 14:59:19+00,L0004,Prorail,bestaand,0,gesloten verharding,161,,161,161__,Lelystad Industrieterrein - Hattemerbroek,Llsoa-Zl,Lelystad Opstelterrein Aansl. - Zwolle ,9.148613,"9,148613",Randstad Noord,RN,Weesp,11,BAAN,Amstelsepoort,BAAN,Randstad Noord,RN,ProRail,166473.088674,506708.51,52.54788582,5.55634696,59.969776,283,,gerealiseerd,59.9697755,40.6362555703949
46,8ef3c663831f4db18278b94eb016306e,2020/09/11 14:57:35+00,L0004,Prorail,bestaand,0,gesloten verharding,161,,161,161__,Lelystad Industrieterrein - Hattemerbroek,Llsoa-Zl,Lelystad Opstelterrein Aansl. - Zwolle ,23.087263,"23,087263",Randstad Noord,RN,Weesp,11,BAAN,Amstelsepoort,BAAN,Randstad Noord,RN,ProRail,180082.337825,504770.6245,52.53001415,5.75683239,92.962708,283,,gerealiseerd,92.9627075,39.7666534009956
47,30ebef040feb436a83c3cdba1b7dd1ca,2021/03/12 17:08:48+00,L0004,Prorail,bestaand,0,gesloten verharding,161,,161,161__,Lelystad Industrieterrein - Hattemerbroek,Llsoa-Zl,Lelystad Opstelterrein Aansl. - Zwolle ,29.198455,"29,198455",Randstad Noord,RN,Weesp,11,BAAN,Amstelsepoort,BAAN,Randstad Noord,RN,ProRail,186128.910684,504224.24,52.52479265,5.84588457,124.928168,283,,gerealiseerd,124.9281685,44.8193793535977
48,7d7a6b16e08c4d29a9662ee8f18460f8,2020/09/11 14:58:50+00,L0004,Prorail,bestaand,0,gesloten verharding,161,,161,161__,Lelystad Industrieterrein - Hattemerbroek,Llsoa-Zl,Lelystad Opstelterrein Aansl. - Zwolle ,31.87778,"31,877780",Noord-Oost,NO,Gelderland,33,BAAN,Veluwe,BAAN,Noord-Oost,NO,ProRail,188568.966342,505296.262,52.53428243,5.88194519,59.87926,283,,gerealiseerd,59.8792595,40.6001834579346
49,f11e5f0d2f0b43bbbdee8b6e5c6674c6,2021/04/23 10:45:15+00,L0004,Prorail,bestaand,0,gesloten verharding,139,,139,139__,Zaandam - Amsterdam Sloterdijk,Zd-Sgra,Zaandam - Amsterdam Singelgracht Aansl. ,177.392842,"177,392842",Randstad Noord,RN,Amsterdam,9,BAAN,Amsterdam,BAAN,Randstad Noord,RN,ProRail,116373.996357,489255.3185,52.38978931,4.81978929,42.404931,283,,gerealiseerd,42.404931,31.0291088865622
50,7d84a06ea199468087b05e7c1ee74978,2021/01/22 19:00:24+00,L0004,Prorail,bestaand,0,gesloten verharding,589,d,589,589_d,Duivendrecht,Vspa-Dvaz,Venserpolder Aansl. - Duivendrecht Aansl. Zuid ,200.648353,"200,648353",Randstad Noord,RN,Duivendrecht,10,BAAN,Amstelsepoort,BAAN,Randstad Noord,RN,ProRail,124466.0535,481217.087448,52.31805656,4.93938698,42.506692,283,,gerealiseerd,42.5066915,31.0091644541054
51,0fc195225ac942b285c18a5bd2ff8e41,2021/04/20 12:15:07+00,L0004,Prorail,bestaand,0,gesloten verharding,514,b,514,514_b,Nijmegen,Ht-Nm,s-Hertogenbosch - Nijmegen ,65.124481,"65,124481",Noord-Oost,NO,Maas en Waal,28,BAAN,Gelre,BAAN,Noord-Oost,NO,ProRail,186815.0665,427775.166368,51.83765792,5.848824,41.34146,283,,gerealiseerd,41.34146,29.9721278586367
52,e2cabf69119646748de53480d84298b8,2021/01/08 16:32:48+00,L0004,Prorail,bestaand,0,gesloten verharding,517,b,517,517_b,Venlo,Mt-Vl,Maastricht - Venlo ,69.476568,"69,476568",Zuid,Z,Venlo,27,BAAN,De Peel,BAAN,Zuid,Z,ProRail,209899.833,375049.382591,51.36197032,6.17546744,149.225437,283,,gerealiseerd,149.225437,48.9691483829331
53,78c7e091f3c44a50b9c5a586e23652bb,2021/01/08 16:30:14+00,L0004,Prorail,bestaand,0,gesloten verharding,517,a,517,517_a,Venlo,Vl-Ehv,Venlo - Eindhoven ,0.116583,"0,116583",Zuid,Z,Venlo,27,BAAN,De Peel,BAAN,Zuid,Z,ProRail,209437.3575,375395.062587,51.36512205,6.16888087,26.305729,283,,gerealiseerd,26.3057295,21.6594597380725
54,433333c48e4845b0a51c10f55e90e835,2021/04/20 12:15:07+00,L0004,Prorail,bestaand,0,gesloten verharding,514,a,514,514_a,Nijmegen,Ah-Vl,Arnhem - Venlo ,17.840806,"17,840806",Noord-Oost,NO,Maas en Waal,28,BAAN,Gelre,BAAN,Noord-Oost,NO,ProRail,187092.767,427642.291766,51.83644771,5.85284083,51.150601,283,,Actueel,51.1506005,35.860107945636
55,d0d53156123f4097b8e55208b9cd061e,2021/04/20 12:15:07+00,L0004,Prorail,bestaand,0,half verhard,514,b,514,514_b,Nijmegen,Ht-Nm,s-Hertogenbosch - Nijmegen ,65.155119,"65,155119",Noord-Oost,NO,Maas en Waal,28,BAAN,Gelre,BAAN,Noord-Oost,NO,ProRail,186829.2875,427802.230721,51.83790037,5.84903283,230.546621,283,,Actueel,230.5466205,113.512894523742
56,35e195a6d7b4434cb35197dadc39c55b,2020/04/10 07:50:13+00,L0004,Prorail,bestaand,0,half verhard,514,b,514,514_b,Nijmegen,Ht-Nm,s-Hertogenbosch - Nijmegen ,65.11768,"65,117680",Noord-Oost,NO,Maas en Waal,28,BAAN,Gelre,BAAN,Noord-Oost,NO,ProRail,186814.1735,427768.085647,51.83759433,5.84881039,17.085442,283,,gerealiseerd,17.0854425,35.2166410620178
57,c949772731a143b5be448aa6bd7cdb3d,2015/03/18 10:19:00+00,L0004,Prorail,bestaand,0,gesloten verharding,609,,609,609__,Zutphen,Ah-Zl,Arnhem - Zwolle ,28.519744,"28,519744",Noord-Oost,NO,n.v.t.,,,n.v.t.,,n.v.t.,,Derden - Overig,210806.253479,462931.396,52.15173602,6.20262605,71.767413,283,,Actueel,71.767413,34.535574628395
58,4e628ca1083b44f9ad1b94fbdc8d80f3,2022/11/17 09:28:29+00,L0004,Prorail,bestaand,0,gesloten verharding,513,a,513,513_a,Geldermalsen,Ut-Btl,Utrecht Centraal - Boxtel ,26.12925,"26,129250",Zuid,Z,Geldermalsen,22,BAAN,Betuwe,BAAN,Zuid,Z,ProRail,147120.978,432354.057584,51.87966728,5.27277536,39.09758,283,,gerealiseerd,39.09758,30.4857789155337
59,f82cb5f830314b70b24dc873bb2aabed,2022/12/05 13:01:26+00,L0004,Prorail,bestaand,0,gesloten verharding,003,,3,003__,Groningen Losplaats - Waterhuizen Aansl.,Hlg-Nscg,Harlingen - Nieuweschans Grens ,83.933747,"83,933747",Noord-Oost,NO,Groningen,37,BAAN,Wadden,BAAN,Noord-Oost,NO,ProRail,236609.736608,579413.526693,53.19515035,6.60833708,42.778473,283,,Actueel,42.778076945,39.0340586334174
60,b3d281af13b64b7881f0fefb9cf08f36,2020/08/24 11:48:45+00,L0004,Prorail,bestaand,0,gesloten verharding,486,c,486,486_c,Amsterdam Westhaven (gebied),Awhv-Asho,Amsterdam Westhaven (gebied) - Amsterdam Sloterdijk Noord Hornweg ,204.579781,"204,579781",Randstad Noord,RN,Amsterdam,9,BAAN,Amsterdam,BAAN,Randstad Noord,RN,ProRail,115342.2125,490975.275713,52.40517322,4.80442994,13.055795,283,,gerealiseerd,13.0557945,20.5272754704109
61,d94cff4ee0e345afb869cc653caf717e,2021/02/12 17:00:16+00,L0004,Prorail,bestaand,0,gesloten verharding,523,b,523,523_b,Amsterdam Sloterdijk,Zd-Sgra,Zaandam - Amsterdam Singelgracht Aansl. ,177.651696,"177,651696",Randstad Noord,RN,Amsterdam,9,BAAN,Amsterdam,BAAN,Randstad Noord,RN,ProRail,116620.703712,489165.6565,52.38900081,4.82342349,60.587848,283,,gerealiseerd,60.5878475,44.8652006284759
62,ee8385d2b8334f9483aa3f8157d38e0b,2020/09/11 15:52:34+00,L0004,Prorail,bestaand,0,gesloten verharding,105,,105,105__,Woerden - Gouda,Ut-Rtd,Utrecht Centraal - Rotterdam Centraal ,18.048909,"18,048909",Randstad Noord,RN,Woerden,14,BAAN,Neerlands Midden,BAAN,Randstad Noord,RN,ProRail,119745.14,453524.42974,52.06888455,4.87302959,66.179575,283,,gerealiseerd,66.179575,41.6044892345542
63,b256c472b7f653d5e0531529a8c0d73e,2020/11/13 15:18:31+00,L0004,Prorail,bestaand,0,gesloten verharding,076,,76,076__,Santpoort Noord - Uitgeest,Hlm-Utg,Haarlem - Uitgeest ,8.155441,"8,155441",Randstad Noord,RN,Alkmaar,7,BAAN,Hollands Noorderkwartier,BAAN,Randstad Noord,RN,ProRail,105027.1075,495916.31072,52.44873495,4.65212254,51.583758,283,,Actueel,51.583758,35.8903848277119
64,97729b5e82fe43f2a6a6d4eacdc8b34c,2022/07/20 08:31:17+00,L0004,Prorail,bestaand,0,gesloten verharding,096,a,96,096_a,Amsterdam Muiderpoort - Duivendrecht,Asa-Zvg,Amsterdam Amstel - Zevenaar Grens ,2.135305,"2,135305",Randstad Noord,RN,Duivendrecht,10,BAAN,Amstelsepoort,BAAN,Randstad Noord,RN,ProRail,123215.7385,483748.053195,52.34073253,4.92081138,73.195162,283,,gerealiseerd,73.195162,42.3156145620537
65,d9cf9c8ccf6a45b4803fc7838464cb4f,2020/10/09 10:56:16+00,L0004,Prorail,bestaand,0,gesloten verharding,547,c,547,547_c,Lunetten Aansl.,Asa-Zvg,Amsterdam Amstel - Zevenaar Grens ,37.458915,"37,458915",Randstad Noord,RN,Utrecht,13,BAAN,Neerlands Midden,BAAN,Randstad Noord,RN,ProRail,137602.010591,454084.293,52.07476508,5.13343044,33.557935,283,,gerealiseerd,33.557935,26.1070457515228
66,4883f6e5c60042c08f4aa5a8a89c7027,2020/10/09 10:57:18+00,L0004,Prorail,bestaand,0,gesloten verharding,547,c,547,547_c,Lunetten Aansl.,Asa-Zvg,Amsterdam Amstel - Zevenaar Grens ,37.458798,"37,458798",Randstad Noord,RN,Utrecht,13,BAAN,Neerlands Midden,BAAN,Randstad Noord,RN,ProRail,137605.733167,454089.542,52.07481237,5.13348447,34.554244,283,,gerealiseerd,34.5542435,26.3534575572929
67,09fcc241d4b244009069591b211a35df,2020/01/21 15:12:53+00,L0004,Prorail,bestaand,0,gesloten verharding,117,,117,117__,Lunetten - Geldermalsen,Ut-Btl,Utrecht Centraal - Boxtel ,8.953048,"8,953048",Randstad Noord,RN,Driebergen,15,BAAN,Neerlands Midden,BAAN,Randstad Noord,RN,ProRail,140572.8285,448095.764767,52.02102529,5.17701612,43.963937,283,,Actueel,43.963937,31.472881914372
68,f3681e6507f84309b032480d5f88eab3,2021/12/13 13:54:49+00,L0004,Prorail,bestaand,0,gesloten verharding,666,b,666,666_b,Meteren Aansl.,Brgnd-Brech,Betuweroute Giessendam - Betuweroute Echteld ,48.572987,"48,572987",Randstad Zuid,RZ,A15trace,71,BAAN,Zee-Zevenaar,BAAN,Randstad Zuid,RZ,ProRail,148438.650638,430115.9875,51.8595679,5.29195442,267.951628,283,,gerealiseerd,267.951628,70.3643221867807
69,3f1659057b5f4c588e271927d2b40eae,2020/01/21 15:12:52+00,L0004,Prorail,bestaand,0,gesloten verharding,117,,117,117__,Lunetten - Geldermalsen,Ut-Btl,Utrecht Centraal - Boxtel ,8.95287,"8,952870",Randstad Noord,RN,Driebergen,15,BAAN,Neerlands Midden,BAAN,Randstad Noord,RN,ProRail,140568.5385,448094.184637,52.02101098,5.17695369,42.914682,283,,Actueel,42.914682,31.3432324315431
70,452b4041501c46d39593d346d05584f1,2020/10/09 10:57:13+00,L0004,Prorail,bestaand,0,gesloten verharding,547,c,547,547_c,Lunetten Aansl.,Asa-Zvg,Amsterdam Amstel - Zevenaar Grens ,37.458993,"37,458993",Randstad Noord,RN,Utrecht,13,BAAN,Neerlands Midden,BAAN,Randstad Noord,RN,ProRail,137594.931198,454074.553,52.07467731,5.13332768,35.591776,283,,gerealiseerd,35.5917755,26.5910291818719
71,01ec676f8a4b40a8be362b1a48cca17d,2020/01/21 15:12:53+00,L0004,Prorail,bestaand,0,gesloten verharding,117,,117,117__,Lunetten - Geldermalsen,Ut-Btl,Utrecht Centraal - Boxtel ,8.952435,"8,952435",Randstad Noord,RN,Driebergen,15,BAAN,Neerlands Midden,BAAN,Randstad Noord,RN,ProRail,140557.412,448090.056869,52.02097359,5.17679176,43.936057,283,,Actueel,43.936057,31.3864244351009
72,8c89ee8013da45119d284182e086aa90,2020/09/14 11:33:23+00,L0004,Prorail,bestaand,0,gesloten verharding,528,b,528,528_b,Hilversum,Asd-Zp,Amsterdam Centraal - Zutphen ,28.88618,"28,886180",Randstad Noord,RN,Amersfoort,12,BAAN,Eemland,BAAN,Randstad Noord,RN,ProRail,141231.610228,470510.037,52.22249995,5.18570782,91.799369,283,,gerealiseerd,91.799369,55.471125984069
73,d6b3634fc4e74fd1aa045ff9af6c736b,2015/06/15 15:21:10+00,L0004,Prorail,bestaand,0,gesloten verharding,094,,94,094__,Utrecht Centraal - Blauwkapel,Ut-Amf,Utrecht - Amersfoort ,3.176521,"3,176521",Randstad Noord,RN,Utrecht,13,BAAN,Neerlands Midden,BAAN,Randstad Noord,RN,ProRail,137181.717505,458060.4445,52.11048915,5.12709227,43.896497,283,,Actueel,43.896497,32.135668063231
74,3536301c1f40469e8acadd830442c119,2015/06/09 13:42:10+00,L0004,Prorail,bestaand,0,gesloten verharding,085,,85,085__,Haarlem - Warmond,Ass-Rtd,Amsterdam Sloterdijk - Rotterdam ,19.668861,"19,668861",Randstad Noord,RN,Haarlem,8,BAAN,Kennemerland,BAAN,Randstad Noord,RN,ProRail,102330.187,487426.361436,52.37218463,4.61378845,184.69795,283,,Actueel,184.69795,107.097706630784
75,109ab67d366b45b1a53fab46d8a9efce,2023/01/22 20:05:05+00,L0004,Prorail,bestaand,0,gesloten verharding,517,b,517,517_b,Venlo,Mt-Vl,Maastricht - Venlo ,69.727641,"69,727641",Zuid,Z,Venlo,27,BAAN,De Peel,BAAN,Zuid,Z,ProRail,209599.276,375126.261918,51.36269044,6.17116421,30.533469,283,,gerealiseerd,30.533469,30.8261492610817
76,2b8ab089d0974684b48df9a855f8fa31,2017/09/06 10:36:53+00,L0004,Prorail,bestaand,0,gesloten verharding,802,,802,802__,Utrecht Industrieterrein Lage Weide,Mas-Utlg,Maarssen - Utrecht Lage Weide ,101.273876,"101,273876",Randstad Noord,RN,Woerden,14,BAAN,Neerlands Midden,BAAN,Randstad Noord,RN,ProRail,132816.8975,458028.667079,52.11004581,5.06337762,204.964244,283,,Actueel,204.9642435,126.891861665766
77,3583404bda8442c1af5a94328a11acb8,2017/10/10 07:05:25+00,L0004,Prorail,bestaand,0,gesloten verharding,543,c,543,543_c,Hengelo,Zp-Esg,Zutphen - Enschede Grens ,45.6,"45,600000",Noord-Oost,NO,Twente,32,BAAN,Twente,BAAN,Noord-Oost,NO,ProRail,251522.267988,475723.247,52.2610658,6.80106187,26.098252,283,,Actueel,26.0982525,24.3142718310714
78,a2349bea4de048b78b756199baf14749,2023/01/10 07:17:39+00,L0004,Prorail,bestaand,0,gesloten verharding,952,,952,952__,Botlektunnel,Ps-Bot,"Rotterdam, Emplacement Pernis - Rotterdam, Botlek ",816.287902,"816,287902",Randstad Zuid,RZ,Europoort,4,BAAN,Zee-Zevenaar,BAAN,Randstad Zuid,RZ,ProRail,80869.530584,431756.24,51.869418,4.31082291,104.081659,283,,Actueel,104.081659,41.3023757549243
79,75ba33319a9548b2ae7fa9009c968b0b,2020/06/24 17:15:18+00,L0004,Prorail,bestaand,0,gesloten verharding,950,a,950,950_a,Barendrecht Vork - Rotterdam Maasvlakte,Whz-Bot,"Rotterdam, Emplacement Waalhaven Zuid - Rotterdam, Botlek",12.980731,"12,980731",Randstad Zuid,RZ,Europoort,4,BAAN,Zee-Zevenaar,BAAN,Randstad Zuid,RZ,ProRail,84075.235759,432504.7635,51.8765624,4.35720867,26.746704,283,,gerealiseerd,26.7467035,28.4780075339148
80,ecbd661ab44b40a2adfdd6b3223d390e,2020/02/20 11:15:38+00,L0004,Prorail,bestaand,0,gesloten verharding,098,,98,098__,Breukelen - Utrecht Centraal,Asa-Zvg,Amsterdam Amstel - Zevenaar Grens ,28.063685,"28,063685",Randstad Noord,RN,Woerden,14,BAAN,Neerlands Midden,BAAN,Randstad Noord,RN,ProRail,131029.899292,460651.642,52.13354618,5.0371071,41.866241,283,,Actueel,41.8662415,31.0204599511128
81,c61e94f2e21949dfbfffdb7190b4cad7,2020/02/20 11:15:38+00,L0004,Prorail,bestaand,0,gesloten verharding,098,,98,098__,Breukelen - Utrecht Centraal,Asa-Zvg,Amsterdam Amstel - Zevenaar Grens ,28.063621,"28,063621",Randstad Noord,RN,Woerden,14,BAAN,Neerlands Midden,BAAN,Randstad Noord,RN,ProRail,131034.372589,460656.367,52.13358884,5.0371721,43.270758,283,,Actueel,43.270758,31.253009926463
82,ef3cce3346be5c80e0530b29a8c0e689,2022/12/13 12:51:51+00,L0004,Prorail,bestaand,0,gesloten verharding,144,a,144,144_a,Duivendrecht - Amsterdam Riekerpolder,Gpda-Asra,Gaasperdammerweg Aansl. - Amsterdam Riekerpolder Aansl. ,154.888748,"154,888748",Randstad Noord,RN,Duivendrecht,10,BAAN,Amstelsepoort,BAAN,Randstad Noord,RN,ProRail,120320.888774,483625.755,52.33945837,4.87834735,28.531812,283,,gerealiseerd,28.531812,23.8386944769362
83,20d6bd7509c445898a79af280f2b02c4,2020/01/21 15:12:52+00,L0004,Prorail,bestaand,0,gesloten verharding,117,,117,117__,Lunetten - Geldermalsen,Ut-Btl,Utrecht Centraal - Boxtel ,8.95197,"8,951970",Randstad Noord,RN,Driebergen,15,BAAN,Neerlands Midden,BAAN,Randstad Noord,RN,ProRail,140552.699,448088.611085,52.02096047,5.17672316,45.049914,283,,Actueel,45.049914,31.5010771907059
84,65d3e5ff64ea4db5b480071897de8f2d,2016/05/25 16:04:47+00,L0004,Prorail,bestaand,0,gesloten verharding,504,b,504,504_b,Heerlen,Std-Hz,Sittard - Herzogenrath (D) ,17.579452,"17,579452",Zuid,Z,Maastricht,26,BAAN,Limburg,BAAN,Zuid,Z,ProRail,195517.917414,322807.4855,50.89361336,5.96306615,1085.389175,283,,Actueel,1085.389175,409.765041161802
85,da042873f2d745a5a8eeffd262018cd3,2022/11/30 18:07:16+00,L0004,Prorail,bestaand,0,gesloten verharding,132,,132,132__,Moordrecht Aansl. - Rotterdam Kleiweg,Ut-Rtd,Utrecht Centraal - Rotterdam Centraal ,48.885019,"48,885019",Randstad Zuid,RZ,Rotterdam,3,BAAN,Rotterdam,BAAN,Randstad Zuid,RZ,ProRail,94828.42,440116.825277,51.94624053,4.51202029,4.894552,283,,gerealiseerd,4.894552,9.5354334087816
86,a3ef9bdcdd1943b880c806d3c05ce2f4,2020/01/22 08:54:04+00,L0004,Prorail,bestaand,0,half verhard,117,,117,117__,Lunetten - Geldermalsen,Ut-Btl,Utrecht Centraal - Boxtel ,4.850431,"4,850431",Randstad Noord,RN,Driebergen,15,BAAN,Neerlands Midden,BAAN,Randstad Noord,RN,ProRail,139004.76,451885.102425,52.05504102,5.1539942,39.992466,283,,Actueel,39.992466,30.6528593367701
87,f07bf11602ff49ccb0c87cea7d82f479,2022/07/04 17:26:19+00,L0004,Prorail,bestaand,0,gesloten verharding,609,,609,609__,Zutphen,Ah-Zl,Arnhem - Zwolle ,26.560889,"26,560889",Noord-Oost,NO,IJsselstreek,31,BAAN,Veluwe,BAAN,Noord-Oost,NO,ProRail,209312.824574,461794.837,52.14167035,6.18062497,30.562276,283,,gerealiseerd,30.562276,24.7852531711725
88,953a89e22eed48028c20e90b769161d3,2021/01/22 19:00:02+00,L0004,Prorail,bestaand,0,gesloten verharding,128,,128,128__,Diemen Aansl. - Weesp Aansl.,Asd-Zp,Amsterdam Centraal - Zutphen ,12.30917,"12,309170",Randstad Noord,RN,Weesp,11,BAAN,Amstelsepoort,BAAN,Randstad Noord,RN,ProRail,130997.605387,481041.937,52.31680618,5.03519057,58.038241,283,,gerealiseerd,58.038241,40.6335098953791
89,2195340c99064ce28a0850403bd23d94,2017/09/01 13:30:49+00,L0004,Prorail,bestaand,0,gesloten verharding,522,b,522,522_b,Uitgeest,Hdr-Zd,Den Helder - Zaandam ,57.577237,"57,577237",Randstad Noord,RN,Alkmaar,7,BAAN,Hollands Noorderkwartier,BAAN,Randstad Noord,RN,ProRail,108367.658399,504175.6265,52.52325447,4.70010447,170.662691,283,,Actueel,170.662691,125.526309389733
90,d6020f752c932ad1e0530b29a8c0c683,2022/10/10 10:17:05+00,L0004,Prorail,bestaand,0,gesloten verharding,505,a,505,505_a,Amersfoort Aansl.,Ama-Htba,Amersfoort Aansluiting - Hattemerbroek Aansluiting ,23.611539,"23,611539",Randstad Noord,RN,Amersfoort,12,BAAN,Eemland,BAAN,Randstad Noord,RN,ProRail,155737.2815,464715.130189,52.17058724,5.39798087,39.542471,283,,gerealiseerd,39.5424705,30.5278476658981
91,39586724478f4a0a8870dd1d9c29d157,2019/12/17 15:52:46+00,L0004,Prorail,bestaand,0,gesloten verharding,950,a,950,950_a,Barendrecht Vork - Rotterdam Maasvlakte,Whz-Bot,"Rotterdam, Emplacement Waalhaven Zuid - Rotterdam, Botlek",12.974445,"12,974445",Randstad Zuid,RZ,Europoort,4,BAAN,Zee-Zevenaar,BAAN,Randstad Zuid,RZ,ProRail,84082.110003,432501.3585,51.87653267,4.35730919,45.659658,283,,Actueel,45.659658,46.7122021092433
92,b5143d0798c22237e0531529a8c02740,2020/12/04 12:38:18+00,L0004,Prorail,bestaand,0,gesloten verharding,133,a,133,133_a,Amsterdam Riekerpolder - Warmond,Rtd-Hfd,Rotterdam Centraal - Hoofddorp ,146.529621,"146,529621",Randstad Noord,RN,Haarlem,8,BAAN,Kennemerland,BAAN,Randstad Noord,RN,ProRail,106813.556,477539.109395,52.28373879,4.68103262,45.461056,283,,gerealiseerd,45.4610565,31.5901322548353
93,2f00b893da6c4fa4bd2c95ec16c6cd8f,2020/03/18 13:24:50+00,L0004,Prorail,bestaand,0,gesloten verharding,123,,123,123__,Breda - Tilburg,Bd-Ehv,Breda - Eindhoven ,20.800484,"20,800484",Zuid,Z,Breda,20,BAAN,Brabant,BAAN,Zuid,Z,ProRail,132623.005992,397161.519,51.56295113,5.06448872,37.549842,283,,gerealiseerd,37.549842,36.2080484306429
94,e6fc6187df835f61e0530b29a8c0e64a,2022/08/31 13:57:09+00,L0004,Prorail,bestaand,0,gesloten verharding,100,,100,100__,Utrecht Centraal - Harmelen Aansl.,Ut-Rtd,Utrecht Centraal - Rotterdam Centraal ,9.766583,"9,766583",Randstad Noord,RN,Woerden,14,BAAN,Neerlands Midden,BAAN,Randstad Noord,RN,ProRail,126567.594446,457587.281,52.10579293,4.97219007,62.809468,283,,gerealiseerd,62.8094685,41.1143138279141
95,b44e7f87a2304aa4e0531529a8c0e68a,2020/12/04 12:37:30+00,L0004,Prorail,bestaand,0,gesloten verharding,133,a,133,133_a,Amsterdam Riekerpolder - Warmond,Rtd-Hfd,Rotterdam Centraal - Hoofddorp ,146.529701,"146,529701",Randstad Noord,RN,Haarlem,8,BAAN,Kennemerland,BAAN,Randstad Noord,RN,ProRail,106809.9795,477542.379483,52.28376787,4.68097974,44.554107,283,,gerealiseerd,44.5541075,31.3989885330289
96,13ce6da8e1074f13a1bfb9a7318de156,2020/11/13 15:17:28+00,L0004,Prorail,bestaand,0,gesloten verharding,527,b,527,527_b,Haarlem,Hlm-Utg,Haarlem - Uitgeest ,0.948815,"0,948815",Randstad Noord,RN,Haarlem,8,BAAN,Kennemerland,BAAN,Randstad Noord,RN,ProRail,103104.332,489436.685116,52.39032492,4.62484463,52.345684,283,,gerealiseerd,52.345684,39.7432017793483
97,d8ad4a8935c23767e0530b29a8c07381,2022/05/25 12:29:15+00,L0004,Prorail,bestaand,0,gesloten verharding,586,,586,586__,Amsterdam Centraal,Awhv-Asd,Amsterdam Westhaven (gebied) - Amsterdam Centraal ,81.385086,"81,385086",Randstad Noord,RN,Amsterdam,9,BAAN,Amsterdam,BAAN,Randstad Noord,RN,ProRail,122388.575779,487786.445,52.37697844,4.90828269,41.950197,283,,gerealiseerd,41.9501975,30.9827567765892
98,d8ad4a89360a3767e0530b29a8c07381,2022/05/25 12:29:33+00,L0004,Prorail,bestaand,0,gesloten verharding,586,,586,586__,Amsterdam Centraal,Awhv-Asd,Amsterdam Westhaven (gebied) - Amsterdam Centraal ,80.140589,"80,140589",Randstad Noord,RN,Amsterdam,9,BAAN,Amsterdam,BAAN,Randstad Noord,RN,ProRail,121302.23864,488359.591,52.38206387,4.89227214,49.220952,283,,gerealiseerd,49.220952,35.5732674042582
99,d8ad4a8935b23767e0530b29a8c07381,2022/05/25 12:30:04+00,L0004,Prorail,bestaand,0,gesloten verharding,588,,588,588__,Amsterdam Dijksgracht,Asd-Zp,Amsterdam Centraal - Zutphen ,2.497859,"2,497859",Randstad Noord,RN,Amsterdam,9,BAAN,Amsterdam,BAAN,Randstad Noord,RN,ProRail,124051.4715,487138.404838,52.37125054,4.9327624,41.172913,283,,gerealiseerd,41.172913,30.7763357134619
100,d8ad4a8935dc3767e0530b29a8c07381,2022/05/25 12:28:42+00,L0004,Prorail,bestaand,0,gesloten verharding,525,c,525,525_c,Amsterdam Singelgracht Aansl.,Zd-Sgra,Zaandam - Amsterdam Singelgracht Aansl. ,180.634391,"180,634391",Randstad Noord,RN,Amsterdam,9,BAAN,Amsterdam,BAAN,Randstad Noord,RN,ProRail,119604.385702,489139.1195,52.38896284,4.86725392,42.338348,283,,gerealiseerd,42.338348,33.1773438312185
101,d8ad4a8935063767e0530b29a8c07381,2022/05/25 12:28:56+00,L0004,Prorail,bestaand,0,gesloten verharding,588,,588,588__,Amsterdam Dijksgracht,Asd-Zp,Amsterdam Centraal - Zutphen ,2.496958,"2,496958",Randstad Noord,RN,Amsterdam,9,BAAN,Amsterdam,BAAN,Randstad Noord,RN,ProRail,124076.598,487144.017252,52.3713024,4.93313082,32.236394,283,,gerealiseerd,32.236394,25.5392477653134
102,d8ad4a89363e3767e0530b29a8c07381,2022/05/25 12:33:43+00,L0004,Prorail,bestaand,0,gesloten verharding,588,,588,588__,Amsterdam Dijksgracht,Asd-Zp,Amsterdam Centraal - Zutphen ,2.497396,"2,497396",Randstad Noord,RN,Amsterdam,9,BAAN,Amsterdam,BAAN,Randstad Noord,RN,ProRail,124055.6095,487139.645761,52.37126193,4.93282304,43.220613,283,,gerealiseerd,43.2206135,31.1318707573446
103,d8ad4a89363f3767e0530b29a8c07381,2022/05/25 12:34:02+00,L0004,Prorail,bestaand,0,gesloten verharding,588,,588,588__,Amsterdam Dijksgracht,Asd-Zp,Amsterdam Centraal - Zutphen ,2.497116,"2,497116",Randstad Noord,RN,Amsterdam,9,BAAN,Amsterdam,BAAN,Randstad Noord,RN,ProRail,124062.9045,487141.293989,52.37127715,4.93293,33.003593,283,,gerealiseerd,33.0035925,25.3467178491144
104,d76fc51bae653518e0530b29a8c0c3f9,2022/02/17 16:41:37+00,L0004,Prorail,bestaand,0,gesloten verharding,533,,533,533__,Woerden,Ut-Rtd,Utrecht Centraal - Rotterdam Centraal ,16.356043,"16,356043",Randstad Noord,RN,Woerden,14,BAAN,Neerlands Midden,BAAN,Randstad Noord,RN,ProRail,120676.148,454929.153805,52.08156835,4.88646608,41.442919,283,,gerealiseerd,41.442919,31.0030379768104
105,f3cbdb7f64984ce3a3a9d5d1eb59dbc4,2022/05/10 13:26:47+00,L0004,Prorail,bestaand,0,gesloten verharding,617,a,617,617_a,Boxtel,Bd-Ehv,Breda - Eindhoven ,40.659253,"40,659253",Zuid,Z,Boxtel,23,BAAN,Brabant,BAAN,Zuid,Z,ProRail,151078.303,398261.625739,51.573271,5.3306314,22.122357,283,,gerealiseerd,22.122357,20.5082839971333
106,3624a9837ab04be5ad21fcc5168c80fa,2022/09/05 10:19:01+00,L0004,Prorail,bestaand,0,gesloten verharding,513,a,513,513_a,Geldermalsen,Ut-Btl,Utrecht Centraal - Boxtel ,25.389556,"25,389556",Zuid,Z,Geldermalsen,22,BAAN,Betuwe,BAAN,Zuid,Z,ProRail,146906.771,433062.224997,51.88602942,5.26964782,64.281892,283,,gerealiseerd,64.281892,41.27924538376
107,a0a874ab765341b5b73a7647ded0ead0,2015/06/24 07:38:03+00,L0004,Prorail,bestaand,0,gesloten verharding,124,a,124,124_a,Tilburg - Vught Aansl.,Tb-Vga,Tilburg - Vught Aansluiting ,4.068016,"4,068016",Zuid,Z,Den Bosch,21,BAAN,Betuwe,BAAN,Zuid,Z,ProRail,136884.529,399082.685197,51.58037301,5.12584679,124.630403,283,,Actueel,124.630403,109.525515541669
108,3714fa2297f8437fb4d612cb1a63b2f7,2022/05/10 13:26:16+00,L0004,Prorail,bestaand,0,gesloten verharding,617,a,617,617_a,Boxtel,Bd-Ehv,Breda - Eindhoven ,40.669079,"40,669079",Zuid,Z,Boxtel,23,BAAN,Brabant,BAAN,Zuid,Z,ProRail,151119.9345,398273.958529,51.57338214,5.3312318,22.441331,283,,gerealiseerd,22.4413315,20.743524521626
109,752cb1f50648474abfe424bea3d37137,2021/07/05 12:56:23+00,L0004,Prorail,bestaand,0,gesloten verharding,054,a,54,054_a,Boxtel - Eindhoven,Bd-Ehv,Breda - Eindhoven ,54.460061,"54,460061",Zuid,Z,Boxtel,23,BAAN,Brabant,BAAN,Zuid,Z,ProRail,158268.025,386503.113985,51.4675822,5.43423238,26.424416,283,,gerealiseerd,26.4244165,21.779025988339
110,4b407064406d4a7b90cbc43ccb71650e,2021/07/05 12:56:23+00,L0004,Prorail,bestaand,0,gesloten verharding,054,a,54,054_a,Boxtel - Eindhoven,Bd-Ehv,Breda - Eindhoven ,54.460152,"54,460152",Zuid,Z,Boxtel,23,BAAN,Brabant,BAAN,Zuid,Z,ProRail,158277.2845,386510.67284,51.46765009,5.4343657,26.199646,283,,gerealiseerd,26.1996455,21.6568761608025
111,3ae1eea131a4489ba1998e7cf896fa7b,2017/08/25 09:42:42+00,L0004,Prorail,bestaand,0,gesloten verharding,545,b,545,545_b,Roosendaal,Zlw-Np,Lage Zwaluwe - Nispen ,22.3039,"22,303900",Zuid,Z,Roosendaal,19,BAAN,Zeeland,BAAN,Zuid,Z,ProRail,91058.523,395512.023795,51.54493489,4.4654121,16.459919,283,,Actueel,16.4599185,16.8869147965765
112,ab3b3a9442204d18bc735feaa44e3f39,2022/05/09 13:07:26+00,L0004,Prorail,bestaand,0,gesloten verharding,105,,105,105__,Woerden - Gouda,Ut-Rtd,Utrecht Centraal - Rotterdam Centraal ,30.550638,"30,550638",Randstad Zuid,RZ,Rijn en Gouwe,81,BAAN,Rijn en Gouwe,BAAN,Randstad Zuid,RZ,ProRail,109799.962772,447707.8055,52.01588484,4.72876161,26.837194,283,,gerealiseerd,26.837194,21.8260062771739
113,0691130f34704c46852cba5aa3ae5d1a,2015/07/22 14:54:03+00,L0004,Prorail,bestaand,0,gesloten verharding,105,,105,105__,Woerden - Gouda,Ut-Rtd,Utrecht Centraal - Rotterdam Centraal ,24.331138,"24,331138",Randstad Noord,RN,Woerden,14,BAAN,Neerlands Midden,BAAN,Randstad Noord,RN,ProRail,115562.426587,449026.7285,52.02817852,4.81254869,68.287657,283,,Actueel,68.2876575,44.7897117077164
114,8c4ee31edb44403280bf64be6f0238f9,2020/10/09 10:57:03+00,L0004,Prorail,bestaand,0,gesloten verharding,100,,100,100__,Utrecht Centraal - Harmelen Aansl.,Ut-Rtd,Utrecht Centraal - Rotterdam Centraal ,2.861814,"2,861814",Randstad Noord,RN,Woerden,14,BAAN,Neerlands Midden,BAAN,Randstad Noord,RN,ProRail,133413.295344,456730.106,52.09839806,5.07216586,43.262468,283,,gerealiseerd,43.262468,31.1630603864379
115,e2f0f282bfce4b64a6a1c35d03324350,2017/08/25 09:42:42+00,L0004,Prorail,bestaand,0,gesloten verharding,545,b,545,545_b,Roosendaal,Zlw-Np,Lage Zwaluwe - Nispen ,22.307664,"22,307664",Zuid,Z,Roosendaal,19,BAAN,Zeeland,BAAN,Zuid,Z,ProRail,91046.8455,395518.359771,51.54499051,4.46524262,17.277368,283,,Actueel,17.2773675,17.1177108112539
116,19ad9ddef7bc4279b3acfff1169bd074,2020/10/09 10:57:20+00,L0004,Prorail,bestaand,0,gesloten verharding,100,,100,100__,Utrecht Centraal - Harmelen Aansl.,Ut-Rtd,Utrecht Centraal - Rotterdam Centraal ,2.861712,"2,861712",Randstad Noord,RN,Woerden,14,BAAN,Neerlands Midden,BAAN,Randstad Noord,RN,ProRail,133414.353826,456737.991,52.09846897,5.07218081,44.75818,283,,gerealiseerd,44.7581805,31.4232456737855
117,edaad44b6aba4a8cbc752b6ffa9585c8,2020/07/24 14:18:48+00,L0004,Prorail,bestaand,0,gesloten verharding,054,a,54,054_a,Boxtel - Eindhoven,Bd-Ehv,Breda - Eindhoven ,47.278572,"47,278572",Zuid,Z,Boxtel,23,BAAN,Brabant,BAAN,Zuid,Z,ProRail,154379.693,392520.54429,51.52167995,5.3782635,24.591139,283,,gerealiseerd,24.591139,21.094306218795
118,256ba0a9461e488a9397175279c6d882,2017/01/11 03:31:10+00,L0004,Prorail,bestaand,0,gesloten verharding,121,b,121,121_b,Breda - Lage Zwaluwe,Brda-Bdgr,Barendrecht Aansl. - Breda Grens ,232.956907,"232,956907",Zuid,Z,HSL,70,BAAN,OPC: 70-HSL,BAAN,Randstad Zuid,RZ,ProRail,105744.043,409390.193229,51.67114988,4.67514708,50.916724,283,,Actueel,50.9167235,35.8742862742969
119,32ac265e68f544eb86f683ee753deef6,2022/02/17 16:15:55+00,L0004,Prorail,bestaand,0,gesloten verharding,132,,132,132__,Moordrecht Aansl. - Rotterdam Kleiweg,Ut-Rtd,Utrecht Centraal - Rotterdam Centraal ,51.869681,"51,869681",Randstad Zuid,RZ,Rotterdam,3,BAAN,Rotterdam,BAAN,Randstad Zuid,RZ,ProRail,91900.513441,439535.363,51.94069014,4.46954642,36.604736,283,,gerealiseerd,36.604736,27.2583259532276
120,b979939c973844a2b24d713ced8c694e,2015/05/26 10:21:59+00,L0004,Prorail,bestaand,0,gesloten verharding,614,c,614,614_c,s Hertogenbosch,Ut-Btl,Utrecht Centraal - Boxtel ,48.365367,"48,365367",Zuid,Z,Den Bosch,21,BAAN,Betuwe,BAAN,Zuid,Z,ProRail,148431.357,410871.936867,51.68659455,5.2922127,103.116685,283,,Actueel,103.1166855,64.3644241537168
121,f492db80f9ff4136bf61850789116ca9,2022/05/10 13:26:39+00,L0004,Prorail,bestaand,0,gesloten verharding,617,a,617,617_a,Boxtel,Bd-Ehv,Breda - Eindhoven ,40.669158,"40,669158",Zuid,Z,Boxtel,23,BAAN,Brabant,BAAN,Zuid,Z,ProRail,151114.713,398270.896063,51.57335458,5.33115651,22.471934,283,,gerealiseerd,22.471934,20.6791470361495
122,60545072100e470bbafcf6005127e668,2022/05/09 13:07:26+00,L0004,Prorail,bestaand,0,gesloten verharding,105,,105,105__,Woerden - Gouda,Ut-Rtd,Utrecht Centraal - Rotterdam Centraal ,30.550756,"30,550756",Randstad Zuid,RZ,Rijn en Gouwe,81,BAAN,Rijn en Gouwe,BAAN,Randstad Zuid,RZ,ProRail,109800.516283,447713.84,52.01593912,4.72876888,26.654352,283,,gerealiseerd,26.6543525,21.7890870414461
123,49c4887611c049feb3c909317d2c84ec,2020/04/21 17:02:19+00,L0004,Prorail,bestaand,0,gesloten verharding,924,a,924,924_a,Kijfhoek,Kfhz-Kfhn,Kijfhoek Zuid - Kijfhoek Noord ,33.326608,"33,326608",Randstad Zuid,RZ,Kijfhoek,99,BAAN,Zee-Zevenaar,BAAN,Randstad Zuid,RZ,ProRail,102032.530951,426438.906,51.82404151,4.61889514,78.878767,283,,gerealiseerd,78.878767,42.8703116037573
124,f33da62389fc4f71acada0c084ddc3ff,2021/02/12 17:00:19+00,L0004,Prorail,bestaand,0,gesloten verharding,523,a,523,523_a,Amsterdam Sloterdijk,Sgra-Asra,Amsterdam Singelgracht Aansl. - Amsterdam Riekerpolder Aansl. ,50.934265,"50,934265",Randstad Noord,RN,Amsterdam,9,BAAN,Amsterdam,BAAN,Randstad Noord,RN,ProRail,118682.434992,489869.564,52.39546727,4.8536323,42.217862,283,,gerealiseerd,42.2178625,31.1159579869873
125,a4419a7f9f3f4618b871658dd5dc0d44,2019/09/10 11:49:03+00,L0004,Prorail,bestaand,0,gesloten verharding,144,a,144,144_a,Duivendrecht - Amsterdam Riekerpolder,Gpda-Asra,Gaasperdammerweg Aansl. - Amsterdam Riekerpolder Aansl. ,156.155681,"156,155681",Randstad Noord,RN,Duivendrecht,10,BAAN,Amstelsepoort,BAAN,Randstad Noord,RN,ProRail,119057.108928,483488.5215,52.33814383,4.85981892,42.966358,283,,Actueel,42.9663585,31.1776396357286
126,e6244af783074e7b9ddb91168e2b4a2f,2019/09/10 11:49:03+00,L0004,Prorail,bestaand,0,gesloten verharding,144,a,144,144_a,Duivendrecht - Amsterdam Riekerpolder,Gpda-Asra,Gaasperdammerweg Aansl. - Amsterdam Riekerpolder Aansl. ,156.155798,"156,155798",Randstad Noord,RN,Duivendrecht,10,BAAN,Amstelsepoort,BAAN,Randstad Noord,RN,ProRail,119056.797291,483493.026,52.33818429,4.85981387,40.747224,283,,Actueel,40.747224,30.7862172923883
127,f05e5a10aeff5655e0530b29a8c0b415,2023/01/09 12:49:37+00,L0004,Prorail,bestaand,0,gesloten verharding,133,a,133,133_a,Amsterdam Riekerpolder - Warmond,Asra-Wmd,Amsterdam Riekerpolder Aansl. - Warmond ,30.801286,"30,801286",Randstad Noord,RN,Haarlem,8,BAAN,Kennemerland,BAAN,Randstad Noord,RN,ProRail,99240.284678,471303.9115,52.22698792,4.57108481,43.078492,283,,gerealiseerd,43.078492,31.1607149074087
128,5284d37c0aa2429fb1effd3b2eb4fa5b,2015/08/04 15:27:53+00,L0004,Prorail,bestaand,0,gesloten verharding,564,b,564,564_b,Den Haag Binckhorst,Gd-Gvc,Gouda - Den Haag Centraal ,23.68132,"23,681320",Randstad Zuid,RZ,Den Haag,2,BAAN,Den Haag,BAAN,Randstad Zuid,RZ,ProRail,83368.59704,454224.073,52.07166282,4.34241293,81.643823,283,,Actueel,81.643823,54.80869380072
129,5d14e47b362247c9b98f124c9f8e3334,2020/06/11 13:41:22+00,L0004,Prorail,bestaand,0,gesloten verharding,112,,112,112__,Den Haag HS - Schiedam Centrum,Ass-Rtd,Amsterdam Sloterdijk - Rotterdam ,63.468534,"63,468534",Randstad Zuid,RZ,Den Haag,2,BAAN,Den Haag,BAAN,Randstad Zuid,RZ,ProRail,81036.2905,451998.589996,52.05135637,4.30888241,26.242742,283,,gerealiseerd,26.242742,21.824956186739
130,f944486bab9d46e0a404073894c62f72,2021/01/12 07:38:30+00,L0004,Prorail,bestaand,0,gesloten verharding,107,,107,107__,Moordrecht Aansl. - Den Haag Binckhorst,Gd-Gvc,Gouda - Den Haag Centraal ,6.544083,"6,544083",Randstad Zuid,RZ,Den Haag,2,BAAN,Den Haag,BAAN,Randstad Zuid,RZ,ProRail,99482.780098,448948.5605,52.02609953,4.57828008,43.096148,283,,gerealiseerd,43.096148,31.1839146075843
131,c2fa503900804a57a11f0e12dbaabcff,2021/05/18 08:23:40+00,L0004,Prorail,bestaand,0,gesloten verharding,104,,104,104__,Leiden Centraal - Den Haag Mariahoeve,Ass-Rtd,Amsterdam Sloterdijk - Rotterdam ,51.43714,"51,437140",Randstad Zuid,RZ,Leiden,1,BAAN,Rijn en Gouwe,BAAN,Randstad Zuid,RZ,ProRail,89547.717,459994.324242,52.12428472,4.43141884,25.615548,283,,Actueel,25.615548,21.4323811374894
132,7a0ad62459474f0c80ae7a67226934d4,2021/05/18 08:23:41+00,L0004,Prorail,bestaand,0,gesloten verharding,104,,104,104__,Leiden Centraal - Den Haag Mariahoeve,Ass-Rtd,Amsterdam Sloterdijk - Rotterdam ,51.436947,"51,436947",Randstad Zuid,RZ,Leiden,1,BAAN,Rijn en Gouwe,BAAN,Randstad Zuid,RZ,ProRail,89540.9395,460000.092685,52.12433576,4.43131878,24.574444,283,,Actueel,24.574444,21.1649112207272
133,297e5242e21e409b8a9d8eea883c5d32,2021/05/18 08:23:41+00,L0004,Prorail,bestaand,0,gesloten verharding,104,,104,104__,Leiden Centraal - Den Haag Mariahoeve,Ass-Rtd,Amsterdam Sloterdijk - Rotterdam ,51.4371,"51,437100",Randstad Zuid,RZ,Leiden,1,BAAN,Rijn en Gouwe,BAAN,Randstad Zuid,RZ,ProRail,89530.6145,460008.313086,52.12440841,4.43116644,25.294692,283,,gerealiseerd,25.294692,21.4130835536
134,3df90e5072ec4f1f89da99b59fd628bb,2018/11/13 14:36:49+00,L0004,Prorail,bestaand,0,gesloten verharding,555,,555,555__,Rotterdam Centraal,Ass-Rtd,Amsterdam Sloterdijk - Rotterdam ,83.207804,"83,207804",Randstad Zuid,RZ,Rotterdam,3,BAAN,Rotterdam,BAAN,Randstad Zuid,RZ,ProRail,91161.666739,437734.29,51.92441905,4.45913716,137.564712,283,,Actueel,137.564712,93.8923446346177
135,acd4065b90a4482ebb923e63313f4d69,2021/05/18 08:23:41+00,L0004,Prorail,bestaand,0,gesloten verharding,104,,104,104__,Leiden Centraal - Den Haag Mariahoeve,Ass-Rtd,Amsterdam Sloterdijk - Rotterdam ,51.436914,"51,436914",Randstad Zuid,RZ,Leiden,1,BAAN,Rijn en Gouwe,BAAN,Randstad Zuid,RZ,ProRail,89537.789,460002.702371,52.12435884,4.43127227,23.527635,283,,Actueel,23.5276355,20.9245806827443
136,d8ad4a8935ce3767e0530b29a8c07381,2022/05/25 12:29:10+00,L0004,Prorail,bestaand,0,gesloten verharding,588,,588,588__,Amsterdam Dijksgracht,Asd-Zp,Amsterdam Centraal - Zutphen ,2.82654,"2,826540",Randstad Noord,RN,Duivendrecht,10,BAAN,Amstelsepoort,BAAN,Randstad Noord,RN,ProRail,124068.8385,486817.084421,52.3683637,4.93304697,45.490138,283,,gerealiseerd,45.490138,31.6325094415137
137,d8ad4a8935e63767e0530b29a8c07381,2022/05/25 12:29:44+00,L0004,Prorail,bestaand,0,gesloten verharding,586,,586,586__,Amsterdam Centraal,Awhv-Asd,Amsterdam Westhaven (gebied) - Amsterdam Centraal ,81.269464,"81,269464",Randstad Noord,RN,Amsterdam,9,BAAN,Amsterdam,BAAN,Randstad Noord,RN,ProRail,122279.969634,487804.1755,52.37713133,4.90668606,18.9808,283,,gerealiseerd,18.9808005,27.15045466054
138,c1ff30767d44407c8b21d61adc8a668a,2020/11/13 15:13:40+00,L0004,Prorail,bestaand,0,gesloten verharding,527,c,527,527_c,Haarlem,Ass-Rtd,Amsterdam Sloterdijk - Rotterdam ,17.544499,"17,544499",Randstad Noord,RN,Haarlem,8,BAAN,Kennemerland,BAAN,Randstad Noord,RN,ProRail,103329.130388,489190.7975,52.38813636,4.62818453,54.06998,283,,gerealiseerd,54.06998,36.2898900594467
139,7bf5f11f565d4c7fbc7d4363ca246b47,2021/02/12 17:00:21+00,L0004,Prorail,bestaand,0,gesloten verharding,558,a,558,558_a,Amsterdam Riekerpolder,Sgra-Asra,Amsterdam Singelgracht Aansl. - Amsterdam Riekerpolder Aansl. ,57.262237,"57,262237",Randstad Noord,RN,Amsterdam,9,BAAN,Amsterdam,BAAN,Randstad Noord,RN,ProRail,117322.368,484411.195779,52.34631999,4.83426313,42.87921,283,,gerealiseerd,42.8792105,31.1285365581056
140,b9d8f559029e4a22a1392ca91fd469b3,2021/04/23 10:45:06+00,L0004,Prorail,bestaand,0,gesloten verharding,139,,139,139__,Zaandam - Amsterdam Sloterdijk,Zd-Sgra,Zaandam - Amsterdam Singelgracht Aansl. ,172.053861,"172,053861",Randstad Noord,RN,Alkmaar,7,BAAN,Hollands Noorderkwartier,BAAN,Randstad Noord,RN,ProRail,116137.853,493828.866057,52.43087571,4.81579064,44.924923,283,,gerealiseerd,44.9249235,31.3153258307174
141,5a59bc3d2e76401fb690993d40c26b3d,2021/02/12 17:03:14+00,L0004,Prorail,bestaand,0,gesloten verharding,523,b,523,523_b,Amsterdam Sloterdijk,Zd-Sgra,Zaandam - Amsterdam Singelgracht Aansl. ,178.426502,"178,426502",Randstad Noord,RN,Amsterdam,9,BAAN,Amsterdam,BAAN,Randstad Noord,RN,ProRail,117397.985064,489191.9305,52.38929074,4.83483808,44.28656,283,,gerealiseerd,44.28656,31.4538584317571
142,c0790455eeeb4aba81f1b5b9fad11c31,2021/02/01 17:54:28+00,L0004,Prorail,bestaand,0,gesloten verharding,525,b,525,525_b,Amsterdam Singelgracht Aansl.,Awhv-Asd,Amsterdam Westhaven (gebied) - Amsterdam Centraal ,78.024518,"78,024518",Randstad Noord,RN,Amsterdam,9,BAAN,Amsterdam,BAAN,Randstad Noord,RN,ProRail,119490.414,489468.435002,52.39191511,4.86554496,38.415929,283,,gerealiseerd,38.415929,30.3899796076515
143,d8ad4a8935b33767e0530b29a8c07381,2022/05/25 12:33:01+00,L0004,Prorail,bestaand,0,gesloten verharding,588,,588,588__,Amsterdam Dijksgracht,Asd-Zp,Amsterdam Centraal - Zutphen ,2.496731,"2,496731",Randstad Noord,RN,Amsterdam,9,BAAN,Amsterdam,BAAN,Randstad Noord,RN,ProRail,124069.2845,487142.876418,52.37129173,4.93302354,37.378132,283,,gerealiseerd,37.378132,27.4203611453186
144,83aaa18b4e5f4ef8998cff8324ad6591,2020/12/04 12:37:20+00,L0004,Prorail,bestaand,0,gesloten verharding,133,a,133,133_a,Amsterdam Riekerpolder - Warmond,Asra-Wmd,Amsterdam Riekerpolder Aansl. - Warmond ,21.045132,"21,045132",Randstad Noord,RN,Haarlem,8,BAAN,Kennemerland,BAAN,Randstad Noord,RN,ProRail,106574.547,477149.306693,52.2802146,4.67758611,145.146995,283,,gerealiseerd,145.146995,92.9391798703668
145,325c28b4981f4bd688621c13d2d58d43,2021/08/02 13:40:28+00,L0004,Prorail,bestaand,0,gesloten verharding,080,,80,080__,Amsterdam Bijlmer - Nieuwersluis=Loenen,Asa-Zvg,Amsterdam Amstel - Zevenaar Grens ,10.209918,"10,209918",Randstad Noord,RN,Duivendrecht,10,BAAN,Amstelsepoort,BAAN,Randstad Noord,RN,ProRail,127105.2795,476679.403577,52.27741426,4.97846854,45.090737,283,,gerealiseerd,45.0907375,31.5453069400602
146,3c8ee3f4fd9b4a37ae90fecec0f3f639,2022/05/03 15:56:27+00,L0004,Prorail,bestaand,0,gesloten verharding,060,,60,060__,Roermond - Venlo,Mt-Vl,Maastricht - Venlo ,51.581495,"51,581495",Zuid,Z,Venlo,27,BAAN,De Peel,BAAN,Zuid,Z,ProRail,199874.115,360729.508815,51.23414433,6.02971443,24.290624,283,,Actueel,24.2906245,22.3323565167213
147,09c39dab1bff45f780faf36c64f6c4bc,2015/05/12 13:06:36+00,L0004,Prorail,bestaand,0,gesloten verharding,155,b,155,155_b,Meteren Aansl. - Ressen = Bemmel,Brech-Brzv,Betuweroute Echteld - Betuweroute Zevenaar ,73.901,"73,901000",Randstad Zuid,RZ,A15trace,71,BAAN,Zee-Zevenaar,BAAN,Randstad Zuid,RZ,ProRail,171707.250075,437119.996,51.92230913,5.63007274,241.540321,283,,Actueel,241.540321,68.1393798272521
148,f1cd8d77d9484ef9b482991dd2ba2dcb,2020/06/08 14:33:38+00,L0004,Prorail,bestaand,0,gesloten verharding,155,b,155,155_b,Meteren Aansl. - Ressen = Bemmel,Brech-Brzv,Betuweroute Echteld - Betuweroute Zevenaar ,57.904048,"57,904048",Randstad Zuid,RZ,A15trace,71,BAAN,Zee-Zevenaar,BAAN,Randstad Zuid,RZ,ProRail,156302.045021,434587.6245,51.89979725,5.40612065,205.110084,283,,gerealiseerd,205.110084,64.9770349435621
149,52a7c8aac86542439b036b6138653e75,2015/05/12 13:06:39+00,L0004,Prorail,bestaand,0,gesloten verharding,155,b,155,155_b,Meteren Aansl. - Ressen = Bemmel,Brech-Brzv,Betuweroute Echteld - Betuweroute Zevenaar ,85.850502,"85,850502",Randstad Zuid,RZ,A15trace,71,BAAN,Zee-Zevenaar,BAAN,Randstad Zuid,RZ,ProRail,183084.81426,434636.831,51.89953188,5.79526026,206.372875,283,,Actueel,206.3728745,65.1397064791228
150,5a85a7eb25d64b73b5d545168b7ce354,2021/09/08 09:32:29+00,L0004,Prorail,bestaand,0,gesloten verharding,158,,158,158__,Ressen = Bemmel - Zevenaar,Brech-Brzv,Betuweroute Echteld - Betuweroute Zevenaar ,103.923178,"103,923178",Randstad Zuid,RZ,A15trace,71,BAAN,Zee-Zevenaar,BAAN,Randstad Zuid,RZ,ProRail,200294.267684,437867.833,51.92743657,6.04571732,42.009642,283,,gerealiseerd,42.009642,27.9962607282803
151,b93d3ead38f43eede0531529a8c06af0,2021/05/18 07:47:59+00,L0004,Prorail,bestaand,0,gesloten verharding,206,,206,206__,Zwolle - Wierden,Zl-Wdn,Zwolle - Wierden ,31.713991,"31,713991",Noord-Oost,NO,Twente,32,BAAN,Twente,BAAN,Noord-Oost,NO,ProRail,228852.705717,486994.627,52.36586143,6.47153404,44.750357,283,,gerealiseerd,44.750357,31.4135626892834
152,dbe8bc0e6d9c0721e0530b29a8c0b194,2022/06/20 15:14:12+00,L0004,Prorail,bestaand,0,gesloten verharding,543,c,543,543_c,Hengelo,Zp-Esg,Zutphen - Enschede Grens ,45.467825,"45,467825",Noord-Oost,NO,Twente,32,BAAN,Twente,BAAN,Noord-Oost,NO,ProRail,251368.284204,475691.896,52.26081106,6.79879803,270.260956,283,,gerealiseerd,270.2609555,156.816737820513
153,543da1af598846eeb4de7533f0ad381b,2021/06/08 10:11:19+00,L0004,Prorail,bestaand,0,gesloten verharding,024,,24,024__,Deventer - Wierden,Dv-Aml,Deventer - Almelo ,26.731148,"26,731148",Noord-Oost,NO,IJsselstreek,31,BAAN,Veluwe,BAAN,Noord-Oost,NO,ProRail,232646.6185,481436.86337,52.31539492,6.52594483,26.706582,283,,Actueel,26.706582,21.7645807971929
154,9dc43dd73cd543eb9e793d3a880312b8,2022/08/11 15:15:26+00,L0004,Prorail,bestaand,0,gesloten verharding,543,c,543,543_c,Hengelo,Zp-Esg,Zutphen - Enschede Grens ,45.655174,"45,655174",Noord-Oost,NO,Twente,32,BAAN,Twente,BAAN,Noord-Oost,NO,ProRail,251544.729732,475646.3015,52.26037046,6.80136881,26255.97073,283,,gerealiseerd,26255.9707305,1799.73746129706
155,65ec0bdc7c6a42039a3ae5e67bbfe203,2020/12/18 14:47:30+00,L0004,Prorail,bestaand,0,gesloten verharding,503,c,503,503_c,Deventer,Ah-Zl,Arnhem - Zwolle ,42.898962,"42,898962",Noord-Oost,NO,IJsselstreek,31,BAAN,Veluwe,BAAN,Noord-Oost,NO,ProRail,208483.312417,474451.362,52.25549771,6.17050523,59.288236,283,,gerealiseerd,59.288236,39.7516082329894
156,ed8a1d6e9476456f92fbac8373932d0a,2020/12/18 17:36:28+00,L0004,Prorail,bestaand,0,gesloten verharding,513,a,513,513_a,Geldermalsen,Ut-Btl,Utrecht Centraal - Boxtel ,26.129139,"26,129139",Zuid,Z,Geldermalsen,22,BAAN,Betuwe,BAAN,Zuid,Z,ProRail,147113.266,432352.379128,51.87965209,5.27266339,79.338919,283,,gerealiseerd,79.338919,39.6373159266308
157,4430c5b2c49f4b7cbb2fc069f03fa236,2020/07/09 19:25:01+00,L0004,Prorail,bestaand,0,gesloten verharding,559,,559,559__,Warmond,Ass-Rtd,Amsterdam Sloterdijk - Rotterdam ,42.57645,"42,576450",Randstad Zuid,RZ,Leiden,1,BAAN,Rijn en Gouwe,BAAN,Randstad Zuid,RZ,ProRail,94082.246,467301.901829,52.1904763,4.49631761,34.126031,283,,gerealiseerd,34.1260305,26.3238735754167
158,2643348ee12d4763b438593263954a24,2016/01/05 11:00:12+00,L0004,Prorail,bestaand,0,gesloten verharding,520,a,520,520_a,Maastricht,Mt-Vl,Maastricht - Venlo ,0.885505,"0,885505",Zuid,Z,Maastricht,26,BAAN,Limburg,BAAN,Zuid,Z,ProRail,177330.628,318442.609496,50.85537703,5.70431284,25.898312,283,,Actueel,25.898312,21.6424429737155
159,efb29835731f4ce49eef85298677c713,2017/09/06 13:47:04+00,L0004,Prorail,bestaand,0,gesloten verharding,433,,433,433__,Sittard - Born,Std-Bon,Sittard - Born ,5.325648,"5,325648",Zuid,Z,Roermond,25,BAAN,Limburg,BAAN,Zuid,Z,ProRail,184503.5315,338790.832875,51.0379546,5.80783406,78.322354,283,,Actueel,78.322354,50.4287222097344
160,579e62ccf917422db2af87fa01865bb9,2021/07/26 11:31:30+00,L0004,Prorail,bestaand,0,gesloten verharding,103,,103,103__,Alphen a/d Rijn - Leiden Centraal,Wd-Ledn,Woerden - Leiden Centraal ,31.285661,"31,285661",Randstad Zuid,RZ,Leiden,1,BAAN,Rijn en Gouwe,BAAN,Randstad Zuid,RZ,ProRail,92816.9775,463713.047638,52.15808226,4.4784733,43.156253,283,,gerealiseerd,43.156253,35.9593651626959
161,41e3e42245d644d8b9a2a475dd5293b9,2021/05/18 08:05:20+00,L0004,Prorail,bestaand,0,gesloten verharding,112,,112,112__,Den Haag HS - Schiedam Centrum,Ass-Rtd,Amsterdam Sloterdijk - Rotterdam ,70.477293,"70,477293",Randstad Zuid,RZ,Den Haag,2,BAAN,Den Haag,BAAN,Randstad Zuid,RZ,ProRail,84530.86707,446005.4815,51.99795201,4.36105635,5.286783,283,,Actueel,5.286783,9.50612042661374
162,c4a9c1c8e4234095b34ebab8dfe88cc8,2017/08/25 09:42:43+00,L0004,Prorail,bestaand,0,gesloten verharding,479,a,479,479_a,Maasvlakte 2,Mvtnwa-Mvtyn,Maasvlakte Noordwesthoek Aansl. - Maasvlakte Yangtzehaven Noord ,304.6055,"304,605500",Randstad Zuid,RZ,Europoort,4,BAAN,Zee-Zevenaar,BAAN,Randstad Zuid,RZ,ProRail,57745.667,440564.655322,51.94501431,3.97266008,56.854472,283,,Actueel,56.854472,52.502580955364
163,2bf2670b69804d61a44c1a780f139c76,2017/08/25 09:42:42+00,L0004,Prorail,bestaand,0,gesloten verharding,479,a,479,479_a,Maasvlakte 2,Mvtnwa-Mvtyn,Maasvlakte Noordwesthoek Aansl. - Maasvlakte Yangtzehaven Noord ,304.605509,"304,605509",Randstad Zuid,RZ,Europoort,4,BAAN,Zee-Zevenaar,BAAN,Randstad Zuid,RZ,ProRail,57741.4655,440563.190324,51.94500041,3.9725994,58.79427,283,,Actueel,58.7942705,52.6651154220609
164,55e8ba48a2f448bcbb8f1a9e7e077f1e,2021/11/29 11:15:03+00,L0004,Prorail,bestaand,0,gesloten verharding,478,a,478,478_a,Rotterdam Europoort 4,Mvta-Mvtn,Maasvlakte Aansl. - Maasvlakte Noordwesthoek ,2.193537,"2,193537",Randstad Zuid,RZ,Europoort,4,BAAN,Zee-Zevenaar,BAAN,Randstad Zuid,RZ,ProRail,61286.059,440439.745362,51.94449996,4.02417418,221.290866,283,,Actueel,221.2908665,127.568206448949
165,2f07103740864eada16f347dc4cdd02a,2023/01/12 10:46:08+00,L0004,Prorail,bestaand,0,gesloten verharding,478,a,478,478_a,Rotterdam Europoort 4,Mvta-Mvtn,Maasvlakte Aansl. - Maasvlakte Noordwesthoek ,2.215584,"2,215584",Randstad Zuid,RZ,Europoort,4,BAAN,Zee-Zevenaar,BAAN,Randstad Zuid,RZ,ProRail,61254.799,440452.051292,51.94460527,4.02371628,88.244512,283,,gerealiseerd,88.244512,57.0931263600351
166,86ef75fa7f174a1d917133529f91e29b,2022/03/14 11:22:00+00,L0004,Prorail,bestaand,0,gesloten verharding,112,,112,112__,Den Haag HS - Schiedam Centrum,Ass-Rtd,Amsterdam Sloterdijk - Rotterdam ,72.39894,"72,398940",Randstad Zuid,RZ,Den Haag,2,BAAN,Den Haag,BAAN,Randstad Zuid,RZ,ProRail,85105.945,444172.155519,51.9815486,4.369803,28.433927,283,,gerealiseerd,28.4339275,28.8467610305927
167,5d86db4b669e48a392f8def7e628d42e,2019/05/15 12:05:01+00,L0004,Prorail,bestaand,0,gesloten verharding,529,,529,529__,Breukelen,Asa-Zvg,Amsterdam Amstel - Zevenaar Grens ,22.847017,"22,847017",Randstad Noord,RN,Duivendrecht,10,BAAN,Amstelsepoort,BAAN,Randstad Noord,RN,ProRail,127885.9995,464611.1866,52.16898841,4.99087397,51.646907,283,,Actueel,51.6469075,36.0655341199092
168,0abba38136fc47daad4ba17731640f3a,2022/02/22 08:13:18+00,L0004,Prorail,bestaand,0,gesloten verharding,132,,132,132__,Moordrecht Aansl. - Rotterdam Kleiweg,Ut-Rtd,Utrecht Centraal - Rotterdam Centraal ,36.446017,"36,446017",Randstad Zuid,RZ,Rijn en Gouwe,81,BAAN,Rijn en Gouwe,BAAN,Randstad Zuid,RZ,ProRail,104685.547,446143.94352,52.00138933,4.65449381,42.84173,283,,gerealiseerd,42.84173,31.0366880359848
169,cda5d880d51a44eab9be8ea294837918,2020/01/21 15:13:40+00,L0004,Prorail,bestaand,0,gesloten verharding,117,,117,117__,Lunetten - Geldermalsen,Ut-Btl,Utrecht Centraal - Boxtel ,5.16964,"5,169640",Randstad Noord,RN,Driebergen,15,BAAN,Neerlands Midden,BAAN,Randstad Noord,RN,ProRail,139118.5845,451586.732569,52.05236254,5.1556676,43.55229,283,,Actueel,43.55229,31.1768825129402
170,361ab87c3cc7464cbded35671a59dabe,2020/01/21 15:12:52+00,L0004,Prorail,bestaand,0,gesloten verharding,117,,117,117__,Lunetten - Geldermalsen,Ut-Btl,Utrecht Centraal - Boxtel ,5.169442,"5,169442",Randstad Noord,RN,Driebergen,15,BAAN,Neerlands Midden,BAAN,Randstad Noord,RN,ProRail,139114.6365,451585.335226,52.05234987,5.15561011,43.301243,283,,Actueel,43.301243,31.0992897915309
171,e6fc6187df825f61e0530b29a8c0e64a,2022/08/31 13:57:13+00,L0004,Prorail,bestaand,0,gesloten verharding,100,,100,100__,Utrecht Centraal - Harmelen Aansl.,Ut-Rtd,Utrecht Centraal - Rotterdam Centraal ,9.766892,"9,766892",Randstad Noord,RN,Woerden,14,BAAN,Neerlands Midden,BAAN,Randstad Noord,RN,ProRail,126568.394346,457594.1415,52.10585463,4.97220117,62.937224,283,,gerealiseerd,62.937224,41.1037460588079
172,4034232a2cbc4ba6b0d2e01142a4d50f,2020/10/09 10:54:04+00,L0004,Prorail,bestaand,0,gesloten verharding,547,c,547,547_c,Lunetten Aansl.,Asa-Zvg,Amsterdam Amstel - Zevenaar Grens ,37.779207,"37,779207",Randstad Noord,RN,Utrecht,13,BAAN,Neerlands Midden,BAAN,Randstad Noord,RN,ProRail,137804.024067,453844.095,52.07261249,5.13638915,36.283415,283,,gerealiseerd,36.283415,26.9229150943837
173,ce3545a10e614abd923c249524418db0,2015/04/01 10:33:25+00,L0004,Prorail,bestaand,0,gesloten verharding,531,d,531,531_d,Utrecht Centraal,Ut-Rtd,Utrecht Centraal - Rotterdam Centraal ,1.501403,"1,501403",Randstad Noord,RN,Utrecht,13,BAAN,Neerlands Midden,BAAN,Randstad Noord,RN,ProRail,134778.400181,456670.9035,52.0979175,5.09209152,526.789596,283,,Actueel,526.789596,202.983742861726
174,baa8fe3d1a0645c1a98dbe2b9c6b5801,2019/12/17 15:52:46+00,L0004,Prorail,bestaand,0,gesloten verharding,950,a,950,950_a,Barendrecht Vork - Rotterdam Maasvlakte,Whz-Bot,"Rotterdam, Emplacement Waalhaven Zuid - Rotterdam, Botlek",12.977742,"12,977742",Randstad Zuid,RZ,Europoort,4,BAAN,Zee-Zevenaar,BAAN,Randstad Zuid,RZ,ProRail,84077.29123,432510.494,51.87661416,4.35723734,57.605042,283,,Actueel,57.605042,58.4193328023109
175,b28f29ed80c6482d9170daed1c6d39c8,2020/06/24 17:15:14+00,L0004,Prorail,bestaand,0,gesloten verharding,950,a,950,950_a,Barendrecht Vork - Rotterdam Maasvlakte,Whz-Bot,"Rotterdam, Emplacement Waalhaven Zuid - Rotterdam, Botlek",12.968712,"12,968712",Randstad Zuid,RZ,Europoort,4,BAAN,Zee-Zevenaar,BAAN,Randstad Zuid,RZ,ProRail,84086.974789,432506.735,51.87658161,4.35737872,20.206375,283,,gerealiseerd,20.206375,22.5307355631517
176,ca5c2e417f60424598a66b4dc03a3ff2,2015/06/11 08:49:59+00,L0004,Prorail,bestaand,0,gesloten verharding,085,,85,085__,Haarlem - Warmond,Ass-Rtd,Amsterdam Sloterdijk - Rotterdam ,31.820957,"31,820957",Randstad Noord,RN,Haarlem,8,BAAN,Kennemerland,BAAN,Randstad Noord,RN,ProRail,96882.072,476659.899101,52.27487851,4.53565232,286.590046,283,,Actueel,286.590046,129.966128150361
177,e6d0762df1c7486f9cc1212c13405c14,2015/08/03 08:57:57+00,L0004,Prorail,bestaand,0,gesloten verharding,555,,555,555__,Rotterdam Centraal,Ass-Rtd,Amsterdam Sloterdijk - Rotterdam ,82.735964,"82,735964",Randstad Zuid,RZ,Rotterdam,3,BAAN,Rotterdam,BAAN,Randstad Zuid,RZ,ProRail,90700.5338,437626.0135,51.92339283,4.45245441,35.114091,283,,Actueel,35.114091,26.3858101480895
178,6568ab03dbe44641a055f2db79148bca,2022/03/14 11:22:11+00,L0004,Prorail,bestaand,0,gesloten verharding,112,,112,112__,Den Haag HS - Schiedam Centrum,Ass-Rtd,Amsterdam Sloterdijk - Rotterdam ,72.398948,"72,398948",Randstad Zuid,RZ,Den Haag,2,BAAN,Den Haag,BAAN,Randstad Zuid,RZ,ProRail,85110.2915,444173.52896,51.98156149,4.36986598,28.111917,283,,gerealiseerd,28.1119175,28.9320451549366
179,843acc7c22084334b4cb5fc0f3b23b57,2021/04/23 12:17:30+00,L0004,Prorail,bestaand,0,gesloten verharding,534,b,534,534_b,Leiden Centraal,Ass-Rtd,Amsterdam Sloterdijk - Rotterdam ,45.175829,"45,175829",Randstad Zuid,RZ,Leiden,1,BAAN,Rijn en Gouwe,BAAN,Randstad Zuid,RZ,ProRail,93323.376,464978.921662,52.16951544,4.485643,106.111223,283,,gerealiseerd,106.1112225,67.1486599200539
180,b0e7ff3dbf1a4333e0530b29a8c0f035,2021/01/25 12:21:58+00,L0004,Prorail,bestaand,0,gesloten verharding,620,,620,620__,Alkmaar,Hdr-Zd,Den Helder - Zaandam ,41.907351,"41,907351",Randstad Noord,RN,Alkmaar,7,BAAN,Hollands Noorderkwartier,BAAN,Randstad Noord,RN,ProRail,111245.052781,516966.9115,52.63844363,4.74081508,182.701508,283,,gerealiseerd,182.7015075,107.932503702552
181,dfbe14e837fa04d9e0530b29a8c0b0a9,2022/05/31 16:06:41+00,L0004,Prorail,bestaand,0,gesloten verharding,076,,76,076__,Santpoort Noord - Uitgeest,Hlm-Utg,Haarlem - Uitgeest ,11.395523,"11,395523",Randstad Noord,RN,Alkmaar,7,BAAN,Hollands Noorderkwartier,BAAN,Randstad Noord,RN,ProRail,105171.698,499022.674656,52.47666438,4.65378652,174.23419,283,,gerealiseerd,174.23419,106.129556113215
182,b256c472b7f753d5e0531529a8c0d73e,2020/11/13 15:08:40+00,L0004,Prorail,bestaand,0,gesloten verharding,076,,76,076__,Santpoort Noord - Uitgeest,Hlm-Utg,Haarlem - Uitgeest ,8.155487,"8,155487",Randstad Noord,RN,Alkmaar,7,BAAN,Hollands Noorderkwartier,BAAN,Randstad Noord,RN,ProRail,105024.0795,495918.520141,52.44875453,4.65207768,49.775246,283,,Actueel,49.775246,35.667713135718
183,b8ca42afc9c45d84e0531529a8c01171,2021/08/25 08:19:53+00,L0004,Prorail,bestaand,0,gesloten verharding,027,,27,027__,Diemen - Duivendrecht,Gpda-Asra,Gaasperdammerweg Aansl. - Amsterdam Riekerpolder Aansl. ,149.412068,"149,412068",Randstad Noord,RN,Duivendrecht,10,BAAN,Amstelsepoort,BAAN,Randstad Noord,RN,ProRail,125046.586283,482284.262,52.32767964,4.9478061,62.252954,283,,gerealiseerd,62.252954,41.0169977211441
184,9c6d40215d774d5183f65010e0d2b3e2,2021/01/22 18:59:50+00,L0004,Prorail,bestaand,0,gesloten verharding,144,a,144,144_a,Duivendrecht - Amsterdam Riekerpolder,Gpda-Asra,Gaasperdammerweg Aansl. - Amsterdam Riekerpolder Aansl. ,156.155999,"156,155999",Randstad Noord,RN,Duivendrecht,10,BAAN,Amstelsepoort,BAAN,Randstad Noord,RN,ProRail,119056.261085,483500.774,52.33825389,4.85980517,42.295715,283,,gerealiseerd,42.295715,31.0099812794527
185,53eaedbdfc4f4fbca2f49589c9e72300,2015/07/22 14:54:02+00,L0004,Prorail,bestaand,0,gesloten verharding,105,,105,105__,Woerden - Gouda,Ut-Rtd,Utrecht Centraal - Rotterdam Centraal ,23.722299,"23,722299",Randstad Noord,RN,Woerden,14,BAAN,Neerlands Midden,BAAN,Randstad Noord,RN,ProRail,116058.315796,449378.7305,52.03137727,4.819734,63.782066,283,,Actueel,63.7820655,44.2536684937618
186,d8ad4a89350b3767e0530b29a8c07381,2022/07/20 09:17:06+00,L0004,Prorail,bestaand,0,gesloten verharding,096,b,96,096_b,Amsterdam Muiderpoort - Duivendrecht,Asdm-Asa,Amsterdam Muiderpoort - Amsterdam Amstel ,105.613323,"105,613323",Randstad Noord,RN,Duivendrecht,10,BAAN,Amstelsepoort,BAAN,Randstad Noord,RN,ProRail,122894.581,484605.145128,52.34841686,4.91601721,99.510828,283,,gerealiseerd,99.510828,44.8602851549529
187,f88264ab14364000a7ed2e8fc19bae60,2021/09/08 09:32:29+00,L0004,Prorail,bestaand,0,gesloten verharding,158,,158,158__,Ressen = Bemmel - Zevenaar,Brech-Brzv,Betuweroute Echteld - Betuweroute Zevenaar ,103.923146,"103,923146",Randstad Zuid,RZ,A15trace,71,BAAN,Zee-Zevenaar,BAAN,Randstad Zuid,RZ,ProRail,200294.158098,437873.126,51.92748415,6.04571642,34.611557,283,,gerealiseerd,34.6115565,26.4521498453096
188,89f5d0bf84844ac3bca3f9b28650a2bf,2022/05/03 15:56:27+00,L0004,Prorail,bestaand,0,gesloten verharding,060,,60,060__,Roermond - Venlo,Mt-Vl,Maastricht - Venlo ,51.582791,"51,582791",Zuid,Z,Venlo,27,BAAN,De Peel,BAAN,Zuid,Z,ProRail,199871.7165,360733.339343,51.23417895,6.02968058,27.588808,283,,Actueel,27.5888075,23.4277996435498
189,74338aa13028426691475b86634f2bbf,2021/03/08 16:31:40+00,L0004,Prorail,bestaand,0,gesloten verharding,520,a,520,520_a,Maastricht,Mt-Vl,Maastricht - Venlo ,1.1,"1,100000",Zuid,Z,n.v.t.,,,n.v.t.,,n.v.t.,,Derden - Overig,177191.5815,318735.970478,50.85801935,5.70235623,37.007912,283,,gerealiseerd,37.0079125,27.4650401286408
190,6bb7758caa404e8a9c7f21cf642308de,2021/11/19 19:57:19+00,L0004,Prorail,bestaand,0,half verhard,107,,107,107__,Moordrecht Aansl. - Den Haag Binckhorst,Gd-Gvc,Gouda - Den Haag Centraal ,6.768928,"6,768928",Randstad Zuid,RZ,Den Haag,2,BAAN,Den Haag,BAAN,Randstad Zuid,RZ,ProRail,99277.09143,449036.561,52.0268698,4.57526901,6724.350548,283,,Actueel,6724.3505485,1161.9230630988
191,01a13eaea2b9468694640ee5064967bf,2021/04/23 10:43:16+00,L0004,Prorail,bestaand,0,gesloten verharding,139,,139,139__,Zaandam - Amsterdam Sloterdijk,Zd-Sgra,Zaandam - Amsterdam Singelgracht Aansl. ,172.053957,"172,053957",Randstad Noord,RN,Alkmaar,7,BAAN,Hollands Noorderkwartier,BAAN,Randstad Noord,RN,ProRail,116131.137,493829.370878,52.43087977,4.81569184,44.218986,283,,gerealiseerd,44.218986,31.2276610670539
192,d8ad4a8936363767e0530b29a8c07381,2022/05/25 12:28:52+00,L0004,Prorail,bestaand,0,gesloten verharding,525,c,525,525_c,Amsterdam Singelgracht Aansl.,Zd-Sgra,Zaandam - Amsterdam Singelgracht Aansl. ,180.63606,"180,636060",Randstad Noord,RN,Amsterdam,9,BAAN,Amsterdam,BAAN,Randstad Noord,RN,ProRail,119606.188568,489144.9195,52.38901508,4.86727979,39.895292,283,,gerealiseerd,39.8952925,31.8271207241645
193,654be18738d54af3b8eab22c542b3e98,2021/02/12 17:02:22+00,L0004,Prorail,bestaand,0,gesloten verharding,558,a,558,558_a,Amsterdam Riekerpolder,Sgra-Asra,Amsterdam Singelgracht Aansl. - Amsterdam Riekerpolder Aansl. ,57.261939,"57,261939",Randstad Noord,RN,Amsterdam,9,BAAN,Amsterdam,BAAN,Randstad Noord,RN,ProRail,117318.224,484411.455078,52.34632203,4.83420229,41.60528,283,,gerealiseerd,41.6052795,30.8320377452982
194,d8ad4a89360b3767e0530b29a8c07381,2022/05/25 12:32:43+00,L0004,Prorail,bestaand,0,gesloten verharding,588,,588,588__,Amsterdam Dijksgracht,Asd-Zp,Amsterdam Centraal - Zutphen ,2.826717,"2,826717",Randstad Noord,RN,Duivendrecht,10,BAAN,Amstelsepoort,BAAN,Randstad Noord,RN,ProRail,124072.5185,486815.590692,52.36835049,4.93310114,43.397496,283,,gerealiseerd,43.3974955,31.3190849519267
195,311cc118f35242d38f12f5deb1eb3eaa,2021/01/08 15:57:10+00,L0004,Prorail,bestaand,0,gesloten verharding,119,a,119,119_a,Lage Zwaluwe - Dordrecht,Bd-Rtd,Breda - Rotterdam Centraal ,27.157823,"27,157823",Randstad Zuid,RZ,Dordrecht,5,BAAN,Dordrecht,BAAN,Randstad Zuid,RZ,ProRail,105738.7915,422825.649668,51.79190582,4.67316573,34.408939,283,,gerealiseerd,34.4089395,26.3196344978266
196,7bc4dad8a8c845059c4e2e594e348a0d,2022/05/10 11:15:19+00,L0004,Prorail,bestaand,0,gesloten verharding,112,,112,112__,Den Haag HS - Schiedam Centrum,Ass-Rtd,Amsterdam Sloterdijk - Rotterdam ,67.571515,"67,571515",Randstad Zuid,RZ,Den Haag,2,BAAN,Den Haag,BAAN,Randstad Zuid,RZ,ProRail,83314.1055,448615.776978,52.02125473,4.34279461,44.441552,283,,gerealiseerd,44.4415525,34.9705512474609
197,71a44730cefc49b3b4ae4fe4361e33d6,2019/10/29 16:00:59+00,L0004,Prorail,bestaand,0,gesloten verharding,035,,35,035__,Lunetten - De Haar Aansl.,Asa-Zvg,Amsterdam Amstel - Zevenaar Grens ,38.443105,"38,443105",Randstad Noord,RN,Driebergen,15,BAAN,Neerlands Midden,BAAN,Randstad Noord,RN,ProRail,138340.273875,453450.844,52.06909433,5.1442298,41.995824,283,,Actueel,41.995824,31.0694875608187
198,b0a39ffe5b31494e92bd1e12da801fa0,2020/04/21 17:04:03+00,L0004,Prorail,bestaand,0,gesloten verharding,924,a,924,924_a,Kijfhoek,Kfhz-Kfhn,Kijfhoek Zuid - Kijfhoek Noord ,33.260611,"33,260611",Randstad Zuid,RZ,Kijfhoek,99,BAAN,Zee-Zevenaar,BAAN,Randstad Zuid,RZ,ProRail,102083.161306,426388.1905,51.8235905,4.61963724,1401.973247,283,,gerealiseerd,1401.9732465,269.816192022837
199,cbd9b40e74e140018e52b9658f8280d4,2021/02/01 17:56:03+00,L0004,Prorail,bestaand,0,gesloten verharding,927,,927,927__,Watergraafsmeer,Wgm-Dmn,Watergraafsmeer - Diemen ,904.558046,"904,558046",Randstad Noord,RN,Weesp,11,BAAN,Amstelsepoort,BAAN,Randstad Noord,RN,ProRail,124665.357285,485476.963,52.35635282,4.94192618,46.809529,283,,gerealiseerd,46.8095285,32.6296626627158
200,d2c780763f1a49cca449b7e63a6e3b60,2020/10/09 17:03:38+00,L0004,Prorail,bestaand,0,gesloten verharding,533,,533,533__,Woerden,Ut-Rtd,Utrecht Centraal - Rotterdam Centraal ,15.259577,"15,259577",Randstad Noord,RN,Woerden,14,BAAN,Neerlands Midden,BAAN,Randstad Noord,RN,ProRail,121569.320942,455545.6235,52.08716367,4.89943536,47.138422,283,,gerealiseerd,47.1384225,31.6173247367074
201,ad96a6b5c4144c0ebec8eba8d30e44b5,2022/05/10 11:15:22+00,L0004,Prorail,bestaand,0,gesloten verharding,539,,539,539__,Schiedam Centrum,Ass-Rtd,Amsterdam Sloterdijk - Rotterdam ,80.45979,"80,459790",Randstad Zuid,RZ,Rotterdam,3,BAAN,Rotterdam,BAAN,Randstad Zuid,RZ,ProRail,88481.8145,437361.982473,51.92075904,4.42025534,307.44139,283,,gerealiseerd,307.44139,74.8235651962278
202,19249e25f47e417086ccdf40cd686175,2020/11/18 13:19:56+00,L0004,Prorail,bestaand,0,gesloten verharding,536,,536,536__,Den Haag HS,Ass-Rtd,Amsterdam Sloterdijk - Rotterdam ,60.642566,"60,642566",Randstad Zuid,RZ,Den Haag,2,BAAN,Den Haag,BAAN,Randstad Zuid,RZ,ProRail,82357.390468,454277.603,52.07201219,4.32765483,44.904835,283,,gerealiseerd,44.9048345,31.6216693166907
203,028229d074bb4d379b8e99a8120294bf,2020/09/18 15:57:15+00,L0004,Prorail,bestaand,0,gesloten verharding,107,,107,107__,Moordrecht Aansl. - Den Haag Binckhorst,Gd-Gvc,Gouda - Den Haag Centraal ,21.904074,"21,904074",Randstad Zuid,RZ,Den Haag,2,BAAN,Den Haag,BAAN,Randstad Zuid,RZ,ProRail,84950.891632,453402.8845,52.06448526,4.36565667,42.88284,283,,gerealiseerd,42.88284,30.9294657683532
204,86c7bda5be23485a9bf94e338d8c35f5,2022/01/05 09:17:28+00,L0004,Prorail,bestaand,0,gesloten verharding,116,a,116,116_a,Dordrecht - Rotterdam Barendrecht,Bd-Rtd,Breda - Rotterdam Centraal ,30.98532,"30,985320",Randstad Zuid,RZ,Dordrecht,5,BAAN,Dordrecht,BAAN,Randstad Zuid,RZ,ProRail,104005.913244,425162.338,51.81275189,4.6477055,32.300342,283,,gerealiseerd,32.300342,25.153918386686
205,b8ca42afcd445d84e0531529a8c01171,2021/08/25 08:19:53+00,L0004,Prorail,bestaand,0,gesloten verharding,027,,27,027__,Diemen - Duivendrecht,Gpda-Asra,Gaasperdammerweg Aansl. - Amsterdam Riekerpolder Aansl. ,149.414363,"149,414363",Randstad Noord,RN,Duivendrecht,10,BAAN,Amstelsepoort,BAAN,Randstad Noord,RN,ProRail,125047.150804,482278.2755,52.32762587,4.94781491,42.60577,283,,gerealiseerd,42.60577,31.2611008493901
206,1c3ec5ae213a4a97affc4d5f8be3751c,2022/12/05 13:05:20+00,L0004,Prorail,bestaand,0,gesloten verharding,003,,3,003__,Groningen Losplaats - Waterhuizen Aansl.,Hlg-Nscg,Harlingen - Nieuweschans Grens ,83.869978,"83,869978",Noord-Oost,NO,Groningen,37,BAAN,Wadden,BAAN,Noord-Oost,NO,ProRail,236559.333796,579455.578109,53.19553582,6.60759372,41.880966,283,,Actueel,41.880792215,35.659234884962
207,179636bbf86f46a79cbe9fcb73a716c5,2019/09/12 07:52:21+00,L0004,Prorail,bestaand,0,gesloten verharding,144,b,144,144_b,Duivendrecht - Amsterdam Riekerpolder,Gpda-Asra,Gaasperdammerweg Aansl. - Amsterdam Riekerpolder Aansl. ,151.505764,"151,505764",Randstad Noord,RN,Duivendrecht,10,BAAN,Amstelsepoort,BAAN,Randstad Noord,RN,ProRail,123129.825677,481833.1835,52.32351787,4.91973194,45.155558,283,,Actueel,45.155558,31.5229285686715
208,88f39537563b4f2581bb0399a3f8aca0,2019/09/12 08:37:24+00,L0004,Prorail,bestaand,0,gesloten verharding,144,b,144,144_b,Duivendrecht - Amsterdam Riekerpolder,Gpda-Asra,Gaasperdammerweg Aansl. - Amsterdam Riekerpolder Aansl. ,151.551489,"151,551489",Randstad Noord,RN,Duivendrecht,10,BAAN,Amstelsepoort,BAAN,Randstad Noord,RN,ProRail,123110.201419,481886.3545,52.3239946,4.91943907,45.377609,283,,Actueel,45.377609,31.5713417619023
209,d5937252bf1241fbae168f26fdfb284e,2020/02/11 14:23:03+00,L0004,Prorail,bestaand,0,gesloten verharding,531,c,531,531_c,Utrecht Centraal,Asa-Zvg,Amsterdam Amstel - Zevenaar Grens ,35.312996,"35,312996",Randstad Noord,RN,Utrecht,13,BAAN,Neerlands Midden,BAAN,Randstad Noord,RN,ProRail,136090.1665,455520.116902,52.08762066,5.11129887,70.906044,283,,Actueel,70.906044,45.9537965318901
210,4e2023bc714d406592261fd05b2cd533,2020/06/11 13:41:22+00,L0004,Prorail,bestaand,0,gesloten verharding,112,,112,112__,Den Haag HS - Schiedam Centrum,Ass-Rtd,Amsterdam Sloterdijk - Rotterdam ,63.468507,"63,468507",Randstad Zuid,RZ,Den Haag,2,BAAN,Den Haag,BAAN,Randstad Zuid,RZ,ProRail,81040.414,451999.197329,52.05136238,4.30894239,25.20142,283,,gerealiseerd,25.2014205,21.4789468997035
211,dee23b917be36b37e0530b29a8c00c3a,2022/05/17 11:48:06+00,L0004,Prorail,bestaand,0,gesloten verharding,158,,158,158__,Ressen = Bemmel - Zevenaar,Brech-Brzv,Betuweroute Echteld - Betuweroute Zevenaar ,96.093895,"96,093895",Randstad Zuid,RZ,A15trace,71,BAAN,Zee-Zevenaar,BAAN,Randstad Zuid,RZ,ProRail,193101.988798,435169.238,51.90372128,5.94085787,10.951139,283,,gerealiseerd,10.951139,13.7986470103243
212,dee23b917bd56b37e0530b29a8c00c3a,2022/05/17 11:48:23+00,L0004,Prorail,bestaand,0,gesloten verharding,158,,158,158__,Ressen = Bemmel - Zevenaar,Brech-Brzv,Betuweroute Echteld - Betuweroute Zevenaar ,96.093918,"96,093918",Randstad Zuid,RZ,A15trace,71,BAAN,Zee-Zevenaar,BAAN,Randstad Zuid,RZ,ProRail,193102.301801,435164.307,51.90367694,5.94086188,10.730536,283,,gerealiseerd,10.730536,13.6935420313958
213,8cd6679d90f64418add5bd25fa260401,2020/04/21 17:05:00+00,L0004,Prorail,bestaand,0,gesloten verharding,924,a,924,924_a,Kijfhoek,Kfhz-Kfhn,Kijfhoek Zuid - Kijfhoek Noord ,33.258618,"33,258618",Randstad Zuid,RZ,Kijfhoek,99,BAAN,Zee-Zevenaar,BAAN,Randstad Zuid,RZ,ProRail,102093.902702,426408.187,51.82377124,4.61978997,755.230665,283,,gerealiseerd,755.230665,251.903039416323
214,1d775734464d46f8b720249d62ed0c81,2021/04/23 12:17:03+00,L0004,Prorail,bestaand,0,gesloten verharding,103,,103,103__,Alphen a/d Rijn - Leiden Centraal,Wd-Ledn,Woerden - Leiden Centraal ,31.285914,"31,285914",Randstad Zuid,RZ,Leiden,1,BAAN,Rijn en Gouwe,BAAN,Randstad Zuid,RZ,ProRail,92812.882,463712.587945,52.15807766,4.47841354,41.340168,283,,gerealiseerd,41.340168,30.9332217939232
215,d8d58cb0cad910aae0530b29a8c01170,2022/03/07 11:29:16+00,L0004,Prorail,bestaand,0,gesloten verharding,926,,926,926__,Zwolle Rangeerterrein,Zlr-Zlge,Zwolle Rangeerterrein - Zwolle Goederenemplacement ,0.760678,"0,760678",Noord-Oost,NO,Overijssel,34,BAAN,Drenthe,BAAN,Noord-Oost,NO,ProRail,201649.5085,501108.166454,52.49568451,6.07412917,187.982274,283,,gerealiseerd,187.982274,108.588798376804
216,dfd155970fd31ec3e0530b29a8c0df95,2022/07/04 17:27:55+00,L0004,Prorail,bestaand,0,gesloten verharding,609,,609,609__,Zutphen,Ah-Zl,Arnhem - Zwolle ,28.2489,"28,248900",Noord-Oost,NO,IJsselstreek,31,BAAN,Veluwe,BAAN,Noord-Oost,NO,ProRail,210659.427,462702.926409,52.14969753,6.20044346,182.738426,283,,gerealiseerd,182.7384255,108.084247214252
217,db92521166e24171ba9122a00d7bd7bf,2020/09/18 15:56:39+00,L0004,Prorail,bestaand,0,gesloten verharding,107,,107,107__,Moordrecht Aansl. - Den Haag Binckhorst,Gd-Gvc,Gouda - Den Haag Centraal ,21.904012,"21,904012",Randstad Zuid,RZ,Den Haag,2,BAAN,Den Haag,BAAN,Randstad Zuid,RZ,ProRail,84948.673645,453399.107,52.06445103,4.36562511,40.757415,283,,gerealiseerd,40.757415,30.5703894024475
218,ab7c81b3b3940f19e0530b29a8c02470,2021/11/29 14:02:40+00,L0004,Prorail,bestaand,0,gesloten verharding,108,,108,108__,De Haar Aansl. - Ede=Wageningen,Asa-Zvg,Amsterdam Amstel - Zevenaar Grens ,67.264477,"67,264477",Noord-Oost,NO,Gelderse Vallei,29,BAAN,Veluwe,BAAN,Noord-Oost,NO,ProRail,166758.60038,451161.2095,52.04864019,5.55861768,33.883823,283,,gerealiseerd,33.883823,34.5975516931315
219,57a8fdd5eaf645e4820536fd3e010875,2020/10/09 18:09:00+00,L0004,Prorail,bestaand,0,gesloten verharding,555,,555,555__,Rotterdam Centraal,Ass-Rtd,Amsterdam Sloterdijk - Rotterdam ,82.635088,"82,635088",Randstad Zuid,RZ,Rotterdam,3,BAAN,Rotterdam,BAAN,Randstad Zuid,RZ,ProRail,90600.602,437591.0475,51.92306702,4.4510084,41.360264,283,,gerealiseerd,41.360264,31.0690824463088
220,e3e2632e94b745e7ac5b955161c6989f,2020/11/30 09:41:42+00,L0004,Prorail,bestaand,0,gesloten verharding,121,a,121,121_a,Breda - Lage Zwaluwe,Bd-Rtd,Breda - Rotterdam Centraal ,7.637823,"7,637823",Zuid,Z,Breda,20,BAAN,Brabant,BAAN,Zuid,Z,ProRail,107736.9745,404787.087151,51.62994875,4.70457908,24.944214,283,,gerealiseerd,24.944214,21.2765372477478
221,38a260dd47c546a5af83a6229e92cd34,2020/10/09 18:12:43+00,L0004,Prorail,bestaand,0,gesloten verharding,163,,163,163__,Rotterdam Lombardijen - Rotterdam Centraal,Bd-Rtd,Breda - Rotterdam Centraal ,44.990447,"44,990447",Randstad Zuid,RZ,Rotterdam,3,BAAN,Rotterdam,BAAN,Randstad Zuid,RZ,ProRail,94795.2995,435211.352937,51.90214953,4.51239732,41.014315,283,,gerealiseerd,41.014315,30.8358104881934
222,686ea8136c574f7f9c3062ee57019afd,2020/09/02 10:33:48+00,L0004,Prorail,bestaand,0,gesloten verharding,817,e,817,817_e,Vlissingen Sloehaven,Sloe-Qh,Sloehaven Emplacement - Quarleshaven ,200.18009,"200,180090",Zuid,Z,Goes,18,BAAN,Zeeland,BAAN,Zuid,Z,ProRail,40354.6435,386274.812155,51.45388279,3.73769594,77.755939,283,,Actueel,77.7559385,67.4773825590604
223,9ee593daaac14b8997b5c9a9de7fcd0d,2020/11/18 13:20:07+00,L0004,Prorail,bestaand,0,gesloten verharding,536,,536,536__,Den Haag HS,Ass-Rtd,Amsterdam Sloterdijk - Rotterdam ,60.642651,"60,642651",Randstad Zuid,RZ,Den Haag,2,BAAN,Den Haag,BAAN,Randstad Zuid,RZ,ProRail,82359.972472,454273.643,52.07197694,4.32769333,44.280035,283,,gerealiseerd,44.280035,31.5184580531712
224,0b4a06509af2419aad58f4c2fd292524,2022/02/22 08:13:18+00,L0004,Prorail,bestaand,0,gesloten verharding,132,,132,132__,Moordrecht Aansl. - Rotterdam Kleiweg,Ut-Rtd,Utrecht Centraal - Rotterdam Centraal ,36.445651,"36,445651",Randstad Zuid,RZ,Rijn en Gouwe,81,BAAN,Rijn en Gouwe,BAAN,Randstad Zuid,RZ,ProRail,104682.3465,446146.457293,52.00141163,4.65444684,42.614191,283,,gerealiseerd,42.614191,31.0317454062669
225,b93d3ead38f53eede0531529a8c06af0,2021/05/18 07:47:59+00,L0004,Prorail,bestaand,0,gesloten verharding,206,,206,206__,Zwolle - Wierden,Zl-Wdn,Zwolle - Wierden ,31.713924,"31,713924",Noord-Oost,NO,Twente,32,BAAN,Twente,BAAN,Noord-Oost,NO,ProRail,228853.180737,487000.61,52.36591513,6.47154233,42.675892,283,,gerealiseerd,42.6758925,31.0907223220975
226,1a7974b326c54f15bff89e4fd7feeb57,2023/01/12 10:17:16+00,L0004,Prorail,bestaand,0,gesloten verharding,950,e,950,950_e,Barendrecht Vork - Rotterdam Maasvlakte,Bot-Mvt,"Rotterdam, Botlek - Rotterdam, Emplacement Maasvlakte",39.996029,"39,996029",Randstad Zuid,RZ,Europoort,4,BAAN,Zee-Zevenaar,BAAN,Randstad Zuid,RZ,ProRail,62184.2095,438736.68232,51.92934657,4.03769383,23.05702,283,,gerealiseerd,23.0570195,20.7884678929942
227,f86565c1065843debf3bc155fe8a4e86,2023/01/12 10:17:16+00,L0004,Prorail,bestaand,0,gesloten verharding,950,e,950,950_e,Barendrecht Vork - Rotterdam Maasvlakte,Bot-Mvt,"Rotterdam, Botlek - Rotterdam, Emplacement Maasvlakte",39.996204,"39,996204",Randstad Zuid,RZ,Europoort,4,BAAN,Zee-Zevenaar,BAAN,Randstad Zuid,RZ,ProRail,62180.9775,438733.929915,51.92932129,4.0376476,23.147639,283,,gerealiseerd,23.1476385,20.8298420129981
228,d8d58cb0cbc310aae0530b29a8c01170,2022/04/07 14:26:20+00,L0004,Prorail,bestaand,0,gesloten verharding,603,a,603,603_a,Zwolle,Zlr-Zlge,Zwolle Rangeerterrein - Zwolle Goederenemplacement ,2.228987,"2,228987",Noord-Oost,NO,Overijssel,34,BAAN,Drenthe,BAAN,Noord-Oost,NO,ProRail,202272.327695,502381.822,52.50707709,6.08348012,44.624092,283,,gerealiseerd,44.6240925,31.3279420125994
229,da325aa8cf941bfce0530b29a8c02655,2022/04/03 15:23:41+00,L0004,Prorail,bestaand,0,gesloten verharding,508,,508,508__,Arnhem,Asa-Zvg,Amsterdam Amstel - Zevenaar Grens ,90.750351,"90,750351",Noord-Oost,NO,Achterhoek,30,BAAN,Gelre,BAAN,Noord-Oost,NO,ProRail,189163.381191,444349.311,51.98648708,5.88454198,71.364184,283,,gerealiseerd,71.3641835,45.8904293159175
230,d8d58cb0c9fc10aae0530b29a8c01170,2022/03/07 11:28:22+00,L0004,Prorail,bestaand,0,gesloten verharding,502,b,502,502_b,Meppel,Zl-Lw,Zwolle - Leeuwarden ,101.018627,"101,018627",Noord-Oost,NO,Drenthe,35,BAAN,Drenthe,BAAN,Noord-Oost,NO,ProRail,209871.7505,523248.68194,52.69388469,6.1988513,59.500584,283,,gerealiseerd,59.500584,40.6273004463965
231,dfbe14e8380b04d9e0530b29a8c0b0a9,2022/05/31 16:07:43+00,L0004,Prorail,bestaand,0,gesloten verharding,804,a,804,804_a,"Beverwijk Hoogovens, Van Gelder",Bv-Bvhg,Beverwijk - Beverwijk Hoogovens ,0.115418,"0,115418",Randstad Noord,RN,n.v.t.,,,n.v.t.,,n.v.t.,,Strukton Rail Short Line,105223.699,499107.38483,52.47743038,4.65453924,35.747416,283,,Actueel,35.7474155,26.7739636263449
232,d8ad4a8935043767e0530b29a8c07381,2022/05/25 12:34:05+00,L0004,Prorail,bestaand,0,gesloten verharding,586,,586,586__,Amsterdam Centraal,Awhv-Asd,Amsterdam Westhaven (gebied) - Amsterdam Centraal ,80.064288,"80,064288",Randstad Noord,RN,Amsterdam,9,BAAN,Amsterdam,BAAN,Randstad Noord,RN,ProRail,121214.274902,488357.0095,52.38203526,4.89098049,62.84269,283,,gerealiseerd,62.84269,41.3229260228103
233,d8ad4a8935053767e0530b29a8c07381,2022/05/25 12:34:12+00,L0004,Prorail,bestaand,0,gesloten verharding,586,,586,586__,Amsterdam Centraal,Awhv-Asd,Amsterdam Westhaven (gebied) - Amsterdam Centraal ,80.065091,"80,065091",Randstad Noord,RN,Amsterdam,9,BAAN,Amsterdam,BAAN,Randstad Noord,RN,ProRail,121217.204831,488360.9495,52.38207085,4.89102313,60.396439,283,,gerealiseerd,60.3964395,40.7158582466949
234,d8ad4a8935aa3767e0530b29a8c07381,2022/05/25 12:34:26+00,L0004,Prorail,bestaand,0,gesloten verharding,586,,586,586__,Amsterdam Centraal,Awhv-Asd,Amsterdam Westhaven (gebied) - Amsterdam Centraal ,81.269643,"81,269643",Randstad Noord,RN,Amsterdam,9,BAAN,Amsterdam,BAAN,Randstad Noord,RN,ProRail,122281.01348,487807.616,52.37716232,4.90670105,19.025975,283,,gerealiseerd,19.025975,27.1406867250692
235,e78a7ad80b4a687de0530b29a8c0c22a,2022/09/05 12:22:12+00,L0004,Prorail,bestaand,0,gesloten verharding,135,,135,135__,Weesp Aansl. - Lelystad Industrieterrein,Wp-Llso,Weesp - Lelystad Opstel. ,45.257652,"45,257652",Randstad Noord,RN,Weesp,11,BAAN,Amstelsepoort,BAAN,Randstad Noord,RN,ProRail,162505.065698,506870.482,52.54941052,5.49785218,63.0372,283,,gerealiseerd,63.0372,41.1571488407388
236,e78a7ad80aa8687de0530b29a8c0c22a,2022/09/05 12:25:41+00,L0004,Prorail,bestaand,0,gesloten verharding,135,,135,135__,Weesp Aansl. - Lelystad Industrieterrein,Wp-Llso,Weesp - Lelystad Opstel. ,15.954349,"15,954349",Randstad Noord,RN,Weesp,11,BAAN,Amstelsepoort,BAAN,Randstad Noord,RN,ProRail,144287.758757,487639.998,52.37652606,5.22988987,57.989129,283,,gerealiseerd,57.989129,40.4751962272471
237,e6fc6187df855f61e0530b29a8c0e64a,2022/08/31 13:57:11+00,L0004,Prorail,bestaand,0,gesloten verharding,100,,100,100__,Utrecht Centraal - Harmelen Aansl.,Ut-Rtd,Utrecht Centraal - Rotterdam Centraal ,9.750326,"9,750326",Randstad Noord,RN,Woerden,14,BAAN,Neerlands Midden,BAAN,Randstad Noord,RN,ProRail,126585.656497,457596.334,52.10587523,4.97245295,58.177689,283,,gerealiseerd,58.177689,39.5151106227608
238,e6fc6187df845f61e0530b29a8c0e64a,2022/08/31 13:57:34+00,L0004,Prorail,bestaand,0,gesloten verharding,100,,100,100__,Utrecht Centraal - Harmelen Aansl.,Ut-Rtd,Utrecht Centraal - Rotterdam Centraal ,9.750783,"9,750783",Randstad Noord,RN,Woerden,14,BAAN,Neerlands Midden,BAAN,Randstad Noord,RN,ProRail,126586.319132,457603.282,52.10593771,4.97246204,60.916954,283,,gerealiseerd,60.916954,39.9146088579346
239,e6fc6187df7c5f61e0530b29a8c0e64a,2022/08/31 13:57:37+00,L0004,Prorail,bestaand,0,gesloten verharding,547,c,547,547_c,Lunetten Aansl.,Asa-Zvg,Amsterdam Amstel - Zevenaar Grens ,37.779305,"37,779305",Randstad Noord,RN,Utrecht,13,BAAN,Neerlands Midden,BAAN,Randstad Noord,RN,ProRail,137807.876196,453847.281,52.07264124,5.13644517,49.983212,283,,gerealiseerd,49.983212,29.0680236905082
240,e6fc6187df925f61e0530b29a8c0e64a,2022/08/31 13:57:38+00,L0004,Prorail,bestaand,0,gesloten verharding,100,,100,100__,Utrecht Centraal - Harmelen Aansl.,Ut-Rtd,Utrecht Centraal - Rotterdam Centraal ,2.86167,"2,861670",Randstad Noord,RN,Woerden,14,BAAN,Neerlands Midden,BAAN,Randstad Noord,RN,ProRail,133414.906706,456742.205,52.09850687,5.07218861,45.074605,283,,gerealiseerd,45.0746055,31.496913447734
241,e6fc6187df9b5f61e0530b29a8c0e64a,2022/08/31 13:57:42+00,L0004,Prorail,bestaand,0,gesloten verharding,531,d,531,531_d,Utrecht Centraal,Ut-Rtd,Utrecht Centraal - Rotterdam Centraal ,1.039777,"1,039777",Randstad Noord,RN,Utrecht,13,BAAN,Neerlands Midden,BAAN,Randstad Noord,RN,ProRail,135229.081355,456495.7615,52.09635961,5.09867878,69.524179,283,,gerealiseerd,69.524179,45.5262918081936
242,e6fc6187df935f61e0530b29a8c0e64a,2022/08/31 13:58:47+00,L0004,Prorail,bestaand,0,gesloten verharding,547,c,547,547_c,Lunetten Aansl.,Asa-Zvg,Amsterdam Amstel - Zevenaar Grens ,37.779192,"37,779192",Randstad Noord,RN,Utrecht,13,BAAN,Neerlands Midden,BAAN,Randstad Noord,RN,ProRail,137800.51498,453841.096,52.07258542,5.13633811,39.993478,283,,gerealiseerd,39.993478,28.6552008276325
243,e6fc6187df7a5f61e0530b29a8c0e64a,2022/08/31 13:58:48+00,L0004,Prorail,bestaand,0,gesloten verharding,100,,100,100__,Utrecht Centraal - Harmelen Aansl.,Ut-Rtd,Utrecht Centraal - Rotterdam Centraal ,2.861813,"2,861813",Randstad Noord,RN,Woerden,14,BAAN,Neerlands Midden,BAAN,Randstad Noord,RN,ProRail,133412.782667,456725.8675,52.09835995,5.07215865,42.791564,283,,gerealiseerd,42.791564,31.1046700853269
244,ea31d98145dd40a7e0530b29a8c04380,2022/10/10 10:16:56+00,L0004,Prorail,bestaand,0,gesloten verharding,040,,40,040__,Leusden - Amersfoort,Lsd-Amf,Leusden - Amersfoort ,46.285732,"46,285732",Randstad Noord,RN,Amersfoort,12,BAAN,Eemland,BAAN,Randstad Noord,RN,ProRail,156851.8335,459099.874626,52.12011502,5.41424221,44.465523,283,,gerealiseerd,44.4655235,59.066299324654
245,ea31d98145fc40a7e0530b29a8c04380,2022/10/10 10:17:07+00,L0004,Prorail,bestaand,0,gesloten verharding,506,b,506,506_b,Amersfoort,Asd-Zp,Amsterdam Centraal - Zutphen ,43.184404,"43,184404",Randstad Noord,RN,Amersfoort,12,BAAN,Eemland,BAAN,Randstad Noord,RN,ProRail,152760.072287,463242.0025,52.15734291,5.3544708,22.66584,283,,gerealiseerd,22.66584,23.2942452502557
246,ea31d981461b40a7e0530b29a8c04380,2022/10/10 10:15:36+00,L0004,Prorail,bestaand,0,gesloten verharding,040,,40,040__,Leusden - Amersfoort,Lsd-Amf,Leusden - Amersfoort ,45.947046,"45,947046",Randstad Noord,RN,Amersfoort,12,BAAN,Eemland,BAAN,Randstad Noord,RN,ProRail,157017.51,458804.441195,52.11745908,5.41665951,38.515454,283,,gerealiseerd,38.515454,51.0593950960007
247,ea31d981461d40a7e0530b29a8c04380,2022/10/10 10:15:54+00,L0004,Prorail,bestaand,0,gesloten verharding,040,,40,040__,Leusden - Amersfoort,Lsd-Amf,Leusden - Amersfoort ,46.068446,"46,068446",Randstad Noord,RN,n.v.t.,,,n.v.t.,,n.v.t.,,Strukton Rail Short Line,156961.8395,458912.4302,52.11842989,5.41584733,43.58387,283,,gerealiseerd,43.58387,59.0890780899311
248,ea31d98145fd40a7e0530b29a8c04380,2022/10/10 10:16:05+00,L0004,Prorail,bestaand,0,gesloten verharding,040,,40,040__,Leusden - Amersfoort,Lsd-Amf,Leusden - Amersfoort ,46.068257,"46,068257",Randstad Noord,RN,Amersfoort,12,BAAN,Eemland,BAAN,Randstad Noord,RN,ProRail,156957.903,458910.020557,52.11840825,5.41578984,44.843634,283,,gerealiseerd,44.8436335,59.1451142517863
249,ea31d98145de40a7e0530b29a8c04380,2022/10/10 10:16:09+00,L0004,Prorail,bestaand,0,gesloten verharding,040,,40,040__,Leusden - Amersfoort,Lsd-Amf,Leusden - Amersfoort ,46.497598,"46,497598",Randstad Noord,RN,n.v.t.,,,n.v.t.,,n.v.t.,,Strukton Rail Short Line,156752.438,459287.054692,52.12179771,5.41279189,44.796798,283,,gerealiseerd,44.796798,59.0935687110527
250,ea31d981461c40a7e0530b29a8c04380,2022/10/10 10:16:11+00,L0004,Prorail,bestaand,0,gesloten verharding,506,b,506,506_b,Amersfoort,Asd-Zp,Amsterdam Centraal - Zutphen ,43.18618,"43,186180",Randstad Noord,RN,Amersfoort,12,BAAN,Eemland,BAAN,Randstad Noord,RN,ProRail,152754.442743,463234.913,52.15727917,5.35438858,27.83147,283,,gerealiseerd,27.8314695,24.3015280530021
251,ea31d981461e40a7e0530b29a8c04380,2022/10/10 10:16:15+00,L0004,Prorail,bestaand,0,gesloten verharding,040,,40,040__,Leusden - Amersfoort,Lsd-Amf,Leusden - Amersfoort ,46.285775,"46,285775",Randstad Noord,RN,n.v.t.,,,n.v.t.,,n.v.t.,,Strukton Rail Short Line,156855.7885,459102.131433,52.12013529,5.41429997,43.750452,283,,gerealiseerd,43.750452,59.1435720884789
252,ea31d981461140a7e0530b29a8c04380,2022/10/10 10:16:28+00,L0004,Prorail,bestaand,0,gesloten verharding,506,b,506,506_b,Amersfoort,Asd-Zp,Amsterdam Centraal - Zutphen ,43.185356,"43,185356",Randstad Noord,RN,Amersfoort,12,BAAN,Eemland,BAAN,Randstad Noord,RN,ProRail,152757.436786,463238.5255,52.15731165,5.35443231,21.562961,283,,gerealiseerd,21.562961,23.0522594156675
253,2ba9a3e06c1747f4aea500766eddb254,2022/11/07 10:52:34+00,L0004,Prorail,bestaand,0,gesloten verharding,135,,135,135__,Weesp Aansl. - Lelystad Industrieterrein,Wp-Llso,Weesp - Lelystad Opstel. ,32.928443,"32,928443",Randstad Noord,RN,Weesp,11,BAAN,Amstelsepoort,BAAN,Randstad Noord,RN,ProRail,157270.572853,496616.189,52.45729896,5.42060995,44.276748,283,,Actueel,44.276748,31.3175825326102
254,1026e8000db242018e87fecec3edaeef,2022/11/01 15:46:18+00,L0004,Prorail,bestaand,0,gesloten verharding,135,,135,135__,Weesp Aansl. - Lelystad Industrieterrein,Wp-Llso,Weesp - Lelystad Opstel. ,32.928458,"32,928458",Randstad Noord,RN,Weesp,11,BAAN,Amstelsepoort,BAAN,Randstad Noord,RN,ProRail,157273.291001,496613.4145,52.45727401,5.42064992,43.128322,283,,Actueel,43.128322,31.2228506144348
255,ebf1357088074b9fe0530b29a8c0829d,2022/12/01 10:08:00+00,L0004,Prorail,bestaand,0,gesloten verharding,524,b,524,524_b,Zaandam,Hdr-Zd,Den Helder - Zaandam ,70.629357,"70,629357",Randstad Noord,RN,Alkmaar,7,BAAN,Hollands Noorderkwartier,BAAN,Randstad Noord,RN,ProRail,115771.048,495189.814276,52.44308052,4.81023816,135.187516,283,,gerealiseerd,135.187516,78.4417515062277
256,f05e5a10ace65655e0530b29a8c0b415,2023/01/09 12:50:14+00,L0004,Prorail,bestaand,0,gesloten verharding,133,a,133,133_a,Amsterdam Riekerpolder - Warmond,Asra-Wmd,Amsterdam Riekerpolder Aansl. - Warmond ,30.801336,"30,801336",Randstad Noord,RN,Haarlem,8,BAAN,Kennemerland,BAAN,Randstad Noord,RN,ProRail,99240.590316,471300.089,52.2269536,4.57108991,42.800837,283,,gerealiseerd,42.800837,31.1005651462669
257,7b7826918f284d61bfd216f4f90f10b2,2023/02/01 06:50:03+00,L0004,Prorail,bestaand,0,gesloten verharding,135,,135,135__,Weesp Aansl. - Lelystad Industrieterrein,Wp-Llso,Weesp - Lelystad Opstel. ,38.866218,"38,866218",Randstad Noord,RN,Weesp,11,BAAN,Amstelsepoort,BAAN,Randstad Noord,RN,ProRail,160864.5285,501151.443436,52.49803213,5.47356496,45.43297,283,,Actueel,45.43297,31.6277801274453
258,38569bcbfce743b4b74c1dc24ba2831f,2017/09/06 13:56:49+00,L0004,Prorail,bestaand,0,gesloten verharding,135,,135,135__,Weesp Aansl. - Lelystad Industrieterrein,Wp-Llso,Weesp - Lelystad Opstel. ,22.009812,"22,009812",Randstad Noord,RN,Weesp,11,BAAN,Amstelsepoort,BAAN,Randstad Noord,RN,ProRail,149200.700702,490668.706,52.40382043,5.30198648,41.292178,283,,Actueel,41.292178,29.2783160415612
259,e78a7ad80b2f687de0530b29a8c0c22a,2022/09/05 12:22:41+00,L0004,Prorail,bestaand,0,gesloten verharding,135,,135,135__,Weesp Aansl. - Lelystad Industrieterrein,Wp-Llso,Weesp - Lelystad Opstel. ,11.844809,"11,844809",Randstad Noord,RN,Weesp,11,BAAN,Amstelsepoort,BAAN,Randstad Noord,RN,ProRail,140641.640838,485924.832,52.36102778,5.17641839,43.194292,283,,gerealiseerd,43.194292,31.2715840596246
