"alm_time","alm_date","inci_no","station","occup_id","number","st_prefix","street","st_type","st_suffix","xstreet","xst_prefix","xst_type","xst_suffix","city","state","zip","latitude","longitude","mutl_aid","shift","alarms","alm_type","inci_type","descript"
,"2013-01-01T00:00:00.000","13-0001001","10 ","30251          ","853     ","  ","WETHERSFIELD             ","AV  ","  ","                         ","  ","    ","  ","Hartford                 ","CT","06114     ","41.732733","-72.670467","N ","B","1","1 ","300 ","Rescue, EMS incident, other                       "
,"2013-01-01T00:00:00.000","13-0001002","02 ","               ","221     ","  ","TRUMBULL                 ","ST  ","  ","                         ","  ","    ","  ","Hartford                 ","CT","06103     ","41.768083","-72.675768","N ","B","1","1 ","744 ","Detector activation, no fire - unintentional      "
,"2013-01-01T00:00:00.000","13-0001003","02 ","29952          ","50      ","  ","UNION                    ","PL  ","  ","                         ","  ","    ","  ","Hartford                 ","CT","06106     ","41.768654","-72.681646","N ","B","1","4 ","622 ","No Incident found on arrival at dispatch address  "
,"2013-01-01T00:00:00.000","13-0001004","02 ","17947          ","1469    ","  ","MAIN                     ","ST  ","  ","                         ","  ","    ","  ","Hartford                 ","CT","06120     ","41.774455","-72.677100","N ","B","1","4 ","322 ","Motor vehicle accident with injuries              "
,"2013-01-01T00:00:00.000","13-0001005","01 ","40739          ","106     ","  ","SHULTAS                  ","PL  ","  ","                         ","  ","    ","  ","Hartford                 ","CT","06114     ","41.748033","-72.678533","N ","B","1","1 ","321 ","EMS call, excluding vehicle accident with injury  "
,"2013-01-01T00:00:00.000","13-0001006","07 ","               ","        ","  ","I 91S-XT33 JENNINGS RD   ","    ","  ","                         ","  ","    ","  ","Hartford                 ","CT","00000     ","41.788800","-72.659000","N ","B","1","1 ","324 ","Motor Vehicle Accident with no injuries           "
,"2013-01-01T00:00:00.000","13-0001007","05 ","20539          ","226     ","  ","SOUTH MARSHALL           ","ST  ","  ","                         ","  ","    ","  ","Hartford                 ","CT","06105     ","41.766046","-72.698992","N ","B","1","1 ","300 ","Rescue, EMS incident, other                       "
,"2013-01-01T00:00:00.000","13-0001008","14 ","12219          ","27      ","  ","DEERFIELD                ","AV  ","  ","                         ","  ","    ","  ","Hartford                 ","CT","06112     ","41.783278","-72.692639","N ","B","1","1 ","552 ","Police matter                                     "
,"2013-01-01T00:00:00.000","13-0001009","15 ","32707          ","42      ","  ","GRANDVIEW                ","TER ","  ","                         ","  ","    ","  ","Hartford                 ","CT","06114     ","41.742250","-72.690800","N ","B","1","1 ","300 ","Rescue, EMS incident, other                       "
,"2013-01-01T00:00:00.000","13-0001010","10 ","41283          ","49      ","  ","ELLIOTT                  ","ST  ","  ","                         ","  ","    ","  ","Hartford                 ","CT","06114     ","41.746240","-72.676100","N ","B","1","1 ","552 ","Police matter                                     "
,"2013-01-01T00:00:00.000","13-0001011","11 ","10266          ","75      ","  ","EVERGREEN                ","AV  ","  ","                         ","  ","    ","  ","Hartford                 ","CT","06105     ","41.763535","-72.708971","N ","B","1","1 ","324 ","Motor Vehicle Accident with no injuries           "
,"2013-01-01T00:00:00.000","13-0001012","05 ","46604          ","330     ","  ","LAUREL                   ","ST  ","  ","                         ","  ","    ","  ","Hartford                 ","CT","06105     ","41.767959","-72.697417","N ","B","1","4 ","463 ","Vehicle accident, general cleanup                 "
,"2013-01-01T00:00:00.000","13-0001013","08 ","               ","        ","  ","HAMILTON                 ","ST  ","  ","HILLSIDE                 ","  ","AV  ","  ","Hartford                 ","CT","06106     ","41.752500","-72.697400","N ","B","1","1 ","622 ","No Incident found on arrival at dispatch address  "
,"2013-01-01T00:00:00.000","13-0001014","08 ","15656          ","50      ","  ","MADISON                  ","ST  ","  ","                         ","  ","    ","  ","Hartford                 ","CT","06106     ","41.754309","-72.685147","N ","B","1","1 ","400 ","Hazardous condition, Other                        "
,"2013-01-01T00:00:00.000","13-0001015","07 ","8830           ","284     ","  ","BARBOUR                  ","ST  ","  ","                         ","  ","    ","  ","Hartford                 ","CT","06120     ","41.793025","-72.677775","N ","B","1","1 ","321 ","EMS call, excluding vehicle accident with injury  "
,"2013-01-01T00:00:00.000","13-0001016","02 ","18694          ","57      ","  ","CENTER                   ","ST  ","  ","                         ","  ","    ","  ","Hartford                 ","CT","06120     ","41.777418","-72.680891","N ","B","1","1 ","321 ","EMS call, excluding vehicle accident with injury  "
,"2013-01-01T00:00:00.000","13-0001017","11 ","22983          ","6       ","  ","NEW PARK                 ","AV  ","  ","                         ","  ","    ","  ","Hartford                 ","CT","06106     ","41.756957","-72.706379","N ","B","1","1 ","622 ","No Incident found on arrival at dispatch address  "
,"2013-01-01T00:00:00.000","13-0001018","07 ","45677          ","169     ","  ","KENSINGTON               ","ST  ","  ","                         ","  ","    ","  ","Hartford                 ","CT","06120     ","41.793130","-72.676530","N ","B","1","1 ","321 ","EMS call, excluding vehicle accident with injury  "
,"2013-01-01T00:00:00.000","13-0001019","10 ","31977          ","126     ","  ","STANDISH                 ","ST  ","  ","                         ","  ","    ","  ","Hartford                 ","CT","06114     ","41.736056","-72.677095","N ","B","1","1 ","300 ","Rescue, EMS incident, other                       "
,"2013-01-01T00:00:00.000","13-0001020","02 ","               ","        ","  ","ASYLUM                   ","ST  ","  ","SPRUCE                   ","  ","ST  ","  ","Hartford                 ","CT","06103     ","41.767800","-72.682700","N ","B","1","1 ","323 ","Motor vehicle/pedestrian accident (MV Ped)        "
,"2013-01-01T00:00:00.000","13-0001021","05 ","11329          ","60      ","  ","NILES                    ","ST  ","  ","                         ","  ","    ","  ","Hartford                 ","CT","06105     ","41.769957","-72.698671","N ","B","1","1 ","552 ","Police matter                                     "
,"2013-01-01T00:00:00.000","13-0001022","15 ","26416          ","187     ","  ","HILLSIDE                 ","AV  ","  ","                         ","  ","    ","  ","Hartford                 ","CT","06106     ","41.747371","-72.698779","N ","B","1","1 ","311 ","Medical assist, assist EMS crew                   "
,"2013-01-01T00:00:00.000","13-0001023","02 ","54010          ","21      ","  ","TEMPLE                   ","ST  ","  ","                         ","  ","    ","  ","Hartford                 ","CT","06103     ","41.767450","-72.673075","N ","B","1","1 ","321 ","EMS call, excluding vehicle accident with injury  "
,"2013-01-01T00:00:00.000","13-0001024","05 ","11355          ","967     ","  ","ASYLUM                   ","AV  ","  ","                         ","  ","    ","  ","Hartford                 ","CT","06105     ","41.771074","-72.697309","N ","B","1","1 ","745 ","Alarm system activation, no fire - unintentional  "
,"2013-01-01T00:00:00.000","13-0001025","07 ","               ","        ","  ","BARBOUR                  ","ST  ","  ","CLEVELAND                ","  ","AV  ","  ","Hartford                 ","CT","06120     ","41.797200","-72.676600","N ","B","1","1 ","622 ","No Incident found on arrival at dispatch address  "
,"2013-01-01T00:00:00.000","13-0001026","11 ","23275          ","14      ","  ","DOROTHY                  ","ST  ","  ","                         ","  ","    ","  ","Hartford                 ","CT","06106     ","41.756709","-72.712291","N ","B","1","1 ","300 ","Rescue, EMS incident, other                       "
,"2013-01-01T00:00:00.000","13-0001027","10 ","40163          ","61      ","  ","WHITMORE                 ","ST  ","  ","                         ","  ","    ","  ","Hartford                 ","CT","06114     ","41.744993","-72.679944","N ","B","1","1 ","300 ","Rescue, EMS incident, other                       "
,"2013-01-01T00:00:00.000","13-0001028","10 ","30818          ","174     ","  ","ROOSEVELT                ","ST  ","  ","                         ","  ","    ","  ","Hartford                 ","CT","06114     ","41.733762","-72.678785","N ","B","1","1 ","321 ","EMS call, excluding vehicle accident with injury  "
,"2013-01-01T00:00:00.000","13-0001029","15 ","33460          ","359     ","  ","WEST PRESTON             ","ST  ","  ","                         ","  ","    ","  ","Hartford                 ","CT","06114     ","41.737881","-72.688430","N ","B","1","1 ","324 ","Motor Vehicle Accident with no injuries           "
,"2013-01-01T00:00:00.000","13-0001030","10 ","30813          ","178     ","  ","ROOSEVELT                ","ST  ","  ","                         ","  ","    ","  ","Hartford                 ","CT","06114     ","41.733746","-72.678938","N ","B","1","1 ","622 ","No Incident found on arrival at dispatch address  "
,"2013-01-01T00:00:00.000","13-0001031","15 ","27220          ","390     ","  ","HILLSIDE                 ","AV  ","  ","                         ","  ","    ","  ","Hartford                 ","CT","06106     ","41.740496","-72.697743","N ","B","1","1 ","321 ","EMS call, excluding vehicle accident with injury  "
,"2013-01-01T00:00:00.000","13-0001032","02 ","18073          ","1670    ","  ","MAIN                     ","ST  ","  ","                         ","  ","    ","  ","Hartford                 ","CT","06120     ","41.777188","-72.677048","N ","B","1","1 ","321 ","EMS call, excluding vehicle accident with injury  "
,"2013-01-01T00:00:00.000","13-0001033","15 ","33094          ","40      ","  ","KENNETH                  ","ST  ","  ","                         ","  ","    ","  ","Hartford                 ","CT","06114     ","41.741037","-72.686200","N ","B","1","1 ","324 ","Motor Vehicle Accident with no injuries           "
,"2013-01-01T00:00:00.000","13-0001034","07 ","7328           ","294     ","  ","VINE                     ","ST  ","  ","                         ","  ","    ","  ","Hartford                 ","CT","06112     ","41.788967","-72.687533","N ","B","1","1 ","321 ","EMS call, excluding vehicle accident with injury  "
,"2013-01-01T00:00:00.000","13-0001035","05 ","11038          ","34      ","  ","WILLARD                  ","ST  ","  ","                         ","  ","    ","  ","Hartford                 ","CT","06105     ","41.771535","-72.695122","N ","B","1","1 ","622 ","No Incident found on arrival at dispatch address  "
,"2013-01-01T00:00:00.000","13-0001036","07 ","16963          ","50      ","  ","JENNINGS                 ","RD  ","  ","                         ","  ","    ","  ","Hartford                 ","CT","06120     ","41.787136","-72.657518","N ","B","1","1 ","300 ","Rescue, EMS incident, other                       "
,"2013-01-01T00:00:00.000","13-0001037","15 ","28235          ","151     ","  ","HILLSIDE                 ","AV  ","  ","                         ","  ","    ","  ","Hartford                 ","CT","06106     ","41.748438","-72.698723","N ","C","1","1 ","321 ","EMS call, excluding vehicle accident with injury  "
,"2013-01-01T00:00:00.000","13-0001038","16 ","1301           ","328     ","  ","CORNWALL                 ","ST  ","  ","                         ","  ","    ","  ","Hartford                 ","CT","06112     ","41.798133","-72.698567","N ","A","1","1 ","300 ","Rescue, EMS incident, other                       "
,"2013-01-01T00:00:00.000","13-0001039","01 ","40420          ","101     ","  ","BENTON                   ","ST  ","  ","                         ","  ","    ","  ","Hartford                 ","CT","06114     ","41.746881","-72.679206","N ","C","1","1 ","300 ","Rescue, EMS incident, other                       "
,"2013-01-01T00:00:00.000","13-0001040","14 ","13617          ","63      ","  ","OAKLAND                  ","TER ","  ","                         ","  ","    ","  ","Hartford                 ","CT","06112     ","41.780357","-72.695183","N ","A","1","1 ","300 ","Rescue, EMS incident, other                       "
,"2013-01-01T00:00:00.000","13-0001041","08 ","15504          ","71      ","  ","MADISON                  ","ST  ","  ","                         ","  ","    ","  ","Hartford                 ","CT","06106     ","41.754268","-72.686040","N ","A","1","1 ","311 ","Medical assist, assist EMS crew                   "
,"2013-01-01T00:00:00.000","13-0001042","11 ","               ","36      ","  ","DOROTHY                  ","ST  ","  ","                         ","  ","    ","  ","Hartford                 ","CT","06106     ","41.757550","-72.712150","N ","A","1","1 ","300 ","Rescue, EMS incident, other                       "
,"2013-01-01T00:00:00.000","13-0001043","07 ","6964           ","75      ","  ","BARBOUR                  ","ST  ","  ","                         ","  ","    ","  ","Hartford                 ","CT","06120     ","41.787281","-72.679383","N ","A","1","1 ","300 ","Rescue, EMS incident, other                       "
,"2013-01-01T00:00:00.000","13-0001044","15 ","37558          ","275     ","  ","FAIRFIELD                ","AV  ","  ","                         ","  ","    ","  ","Hartford                 ","CT","06114     ","41.733140","-72.692587","N ","A","1","1 ","500 ","Service Call, other                               "
,"2013-01-01T00:00:00.000","13-0001045","02 ","18547          ","27      ","  ","FLORENCE                 ","ST  ","  ","                         ","  ","    ","  ","Hartford                 ","CT","06120     ","41.776711","-72.679016","N ","A","1","1 ","311 ","Medical assist, assist EMS crew                   "
,"2013-01-01T00:00:00.000","13-0001046","01 ","32315          ","44      ","  ","CAPITOL                  ","AV  ","  ","                         ","  ","    ","  ","Hartford                 ","CT","06106     ","41.761050","-72.676625","N ","A","1","1 ","400 ","Hazardous condition, Other                        "
,"2013-01-01T00:00:00.000","13-0001047","07 ","50053          ","42      ","  ","MONTVILLE                ","ST  ","  ","                         ","  ","    ","  ","Hartford                 ","CT","06120     ","41.794683","-72.665496","N ","A","1","1 ","300 ","Rescue, EMS incident, other                       "
,"2013-01-01T00:00:00.000","13-0001048","02 ","18742          ","10      ","  ","WINTER                   ","ST  ","  ","                         ","  ","    ","  ","Hartford                 ","CT","06120     ","41.778743","-72.681971","N ","A","1","1 ","311 ","Medical assist, assist EMS crew                   "
,"2013-01-01T00:00:00.000","13-0001049","14 ","3224           ","111     ","  ","PEMBROKE                 ","ST  ","  ","                         ","  ","    ","  ","Hartford                 ","CT","06112     ","41.793886","-72.699086","N ","A","1","1 ","300 ","Rescue, EMS incident, other                       "
,"2013-01-01T00:00:00.000","13-0001050","02 ","1032           ","555     ","  ","ASYLUM                   ","ST  ","  ","                         ","  ","    ","  ","Hartford                 ","CT","06105     ","41.767929","-72.684186","N ","A","1","1 ","300 ","Rescue, EMS incident, other                       "
,"2013-01-01T00:00:00.000","13-0001051","10 ","               ","        ","  ","BALDWIN                  ","ST  ","  ","SOUTH                    ","  ","ST  ","  ","Hartford                 ","CT","06114     ","41.735000","-72.678600","N ","A","1","1 ","300 ","Rescue, EMS incident, other                       "
,"2013-01-01T00:00:00.000","13-0001052","05 ","11261          ","57      ","  ","HUNTINGTON               ","ST  ","  ","                         ","  ","    ","  ","Hartford                 ","CT","06105     ","41.770342","-72.691837","N ","A","1","1 ","715 ","Local alarm system, malicious false alarm         "
,"2013-01-01T00:00:00.000","13-0001053","08 ","34046          ","53      ","  ","ALLEN                    ","PL  ","  ","                         ","  ","    ","  ","Hartford                 ","CT","06106     ","41.752182","-72.685882","N ","A","1","1 ","520 ","Water problem, Other                              "
,"2013-01-01T00:00:00.000","13-0001054","07 ","6916           ","150     ","  ","CAPEN                    ","ST  ","  ","                         ","  ","    ","  ","Hartford                 ","CT","06120     ","41.785433","-72.680933","N ","A","1","1 ","300 ","Rescue, EMS incident, other                       "
,"2013-01-01T00:00:00.000","13-0001055","01 ","24485          ","29      ","  ","MORRIS                   ","ST  ","  ","                         ","  ","    ","  ","Hartford                 ","CT","06114     ","41.752553","-72.675905","N ","A","1","1 ","321 ","EMS call, excluding vehicle accident with injury  "
,"2013-01-01T00:00:00.000","13-0001056","10 ","25575          ","165     ","  ","BRAINARD                 ","RD  ","  ","                         ","  ","    ","  ","Hartford                 ","CT","06114     ","41.735332","-72.659945","N ","A","1","1 ","300 ","Rescue, EMS incident, other                       "
,"2013-01-01T00:00:00.000","13-0001057","07 ","8665           ","109     ","  ","CHARLOTTE                ","ST  ","  ","                         ","  ","    ","  ","Hartford                 ","CT","06112     ","41.794367","-72.681600","N ","A","1","1 ","300 ","Rescue, EMS incident, other                       "
,"2013-01-01T00:00:00.000","13-0001058","15 ","33752          ","145     ","  ","NEW BRITAIN              ","AV  ","  ","                         ","  ","    ","  ","Hartford                 ","CT","06106     ","41.744958","-72.688153","N ","A","1","1 ","552 ","Police matter                                     "
,"2013-01-01T00:00:00.000","13-0001059","10 ","30418          ","25      ","  ","BARKER                   ","ST  ","  ","                         ","  ","    ","  ","Hartford                 ","CT","06114     ","41.743800","-72.674600","N ","A","1","1 ","300 ","Rescue, EMS incident, other                       "
,"2013-01-01T00:00:00.000","13-0001060","01 ","               ","        ","  ","HENDRICXSEN              ","AV  ","  ","WAWARME                  ","  ","AV  ","  ","Hartford                 ","CT","06106     ","41.750600","-72.661900","N ","A","1","4 ","322 ","Motor vehicle accident with injuries              "
,"2013-01-01T00:00:00.000","13-0001061","10 ","40166          ","65      ","  ","WHITMORE                 ","ST  ","  ","                         ","  ","    ","  ","Hartford                 ","CT","06114     ","41.744966","-72.680120","N ","A","1","1 ","552 ","Police matter                                     "
,"2013-01-01T00:00:00.000","13-0001062","11 ","22231          ","54      ","  ","SOUTH WHITNEY            ","ST  ","  ","                         ","  ","    ","  ","Hartford                 ","CT","06106     ","41.758476","-72.709390","N ","A","1","1 ","300 ","Rescue, EMS incident, other                       "
,"2013-01-01T00:00:00.000","13-0001063","14 ","2595           ","36      ","  ","CHATHAM                  ","ST  ","  ","                         ","  ","    ","  ","Hartford                 ","CT","06112     ","41.791200","-72.698100","N ","A","1","1 ","300 ","Rescue, EMS incident, other                       "
,"2013-01-01T00:00:00.000","13-0001064","01 ","               ","        ","  ","MAIN                     ","ST  ","  ","PEARL                    ","  ","ST  ","  ","Hartford                 ","CT","06103     ","41.765500","-72.674300","N ","A","1","1 ","622 ","No Incident found on arrival at dispatch address  "
,"2013-01-01T00:00:00.000","13-0001065","01 ","               ","100     ","  ","HENDRICXSEN              ","AV  ","  ","                         ","  ","    ","  ","Hartford                 ","CT","06106     ","41.750600","-72.661900","N ","A","1","1 ","622 ","No Incident found on arrival at dispatch address  "
,"2013-01-01T00:00:00.000","13-0001066","08 ","15234          ","555     ","  ","ZION                     ","ST  ","  ","                         ","  ","    ","  ","Hartford                 ","CT","06106     ","41.756211","-72.692467","N ","A","1","1 ","321 ","EMS call, excluding vehicle accident with injury  "
,"2013-01-01T00:00:00.000","13-0001067","10 ","31475          ","60      ","  ","STANDISH                 ","ST  ","  ","                         ","  ","    ","  ","Hartford                 ","CT","06114     ","41.736485","-72.674111","N ","A","1","1 ","300 ","Rescue, EMS incident, other                       "
,"2013-01-01T00:00:00.000","13-0001068","01 ","50208          ","90      ","  ","RETREAT                  ","AV  ","  ","                         ","  ","    ","  ","Hartford                 ","CT","06106     ","41.753216","-72.679153","N ","A","1","1 ","321 ","EMS call, excluding vehicle accident with injury  "
,"2013-01-01T00:00:00.000","13-0001069","05 ","14356          ","360     ","  ","SIGOURNEY                ","ST  ","  ","                         ","  ","    ","  ","Hartford                 ","CT","06112     ","41.777457","-72.691329","N ","A","1","1 ","300 ","Rescue, EMS incident, other                       "
,"2013-01-01T00:00:00.000","13-0001070","01 ","24845          ","12      ","  ","GROTON                   ","ST  ","  ","                         ","  ","    ","  ","Hartford                 ","CT","06106     ","41.754746","-72.673615","N ","A","1","3 ","730 ","System malfunction, Other                         "
,"2013-01-01T00:00:00.000","13-0001071","15 ","27400          ","267     ","  ","HILLSIDE                 ","AV  ","  ","                         ","  ","    ","  ","Hartford                 ","CT","06106     ","41.744723","-72.698600","N ","A","1","1 ","311 ","Medical assist, assist EMS crew                   "
,"2013-01-01T00:00:00.000","13-0001072","07 ","50052          ","40      ","  ","MONTVILLE                ","ST  ","  ","                         ","  ","    ","  ","Hartford                 ","CT","06120     ","41.794664","-72.665466","N ","A","1","1 ","300 ","Rescue, EMS incident, other                       "
,"2013-01-01T00:00:00.000","13-0001073","01 ","               ","200     ","  ","RETREAT                  ","AV  ","  ","                         ","  ","    ","  ","Hartford                 ","CT","06106     ","41.751435","-72.682130","N ","A","1","1 ","321 ","EMS call, excluding vehicle accident with injury  "
,"2013-01-01T00:00:00.000","13-0001074","11 ","10247          ","891     ","  ","WEST                     ","BLVD","  ","                         ","  ","    ","  ","Hartford                 ","CT","06105     ","41.761233","-72.709233","N ","A","1","1 ","311 ","Medical assist, assist EMS crew                   "
,"2013-01-02T00:00:00.000","13-0002001","07 ","6773           ","108     ","  ","CLARK                    ","ST  ","  ","                         ","  ","    ","  ","Hartford                 ","CT","06120     ","41.787750","-72.677555","N ","A","1","1 ","300 ","Rescue, EMS incident, other                       "
,"2013-01-02T00:00:00.000","13-0002002","14 ","13952          ","949     ","  ","ALBANY                   ","AV  ","  ","                         ","  ","    ","  ","Hartford                 ","CT","06112     ","41.780460","-72.692180","N ","A","1","1 ","300 ","Rescue, EMS incident, other                       "
,"2013-01-02T00:00:00.000","13-0002003","08 ","               ","        ","  ","HUNGERFORD               ","ST  ","  ","PARK                     ","  ","ST  ","  ","Hartford                 ","CT","06106     ","41.757800","-72.686400","N ","A","1","1 ","322 ","Motor vehicle accident with injuries              "
,"2013-01-02T00:00:00.000","13-0002004","07 ","               ","        ","  ","BARBOUR                  ","ST  ","  ","WESTLAND                 ","  ","ST  ","  ","Hartford                 ","CT","06120     ","41.790400","-72.678500","N ","A","1","1 ","300 ","Rescue, EMS incident, other                       "
,"2013-01-02T00:00:00.000","13-0002005","11 ","46784          ","40      ","  ","OWEN                     ","ST  ","  ","                         ","  ","    ","  ","Hartford                 ","CT","06105     ","41.765314","-72.704800","N ","A","1","1 ","311 ","Medical assist, assist EMS crew                   "
,"2013-01-02T00:00:00.000","13-0002006","11 ","23042          ","5       ","  ","GREENWOOD                ","ST  ","  ","                         ","  ","    ","  ","Hartford                 ","CT","06106     ","41.755033","-72.710100","N ","A","1","1 ","300 ","Rescue, EMS incident, other                       "
,"2013-01-02T00:00:00.000","13-0002007","05 ","20080          ","600     ","  ","ASYLUM                   ","AV  ","  ","                         ","  ","    ","  ","Hartford                 ","CT","06105     ","41.768050","-72.684850","N ","A","1","1 ","311 ","Medical assist, assist EMS crew                   "
,"2013-01-02T00:00:00.000","13-0002008","05 ","11224          ","37      ","  ","HUNTINGTON               ","ST  ","  ","                         ","  ","    ","  ","Hartford                 ","CT","06105     ","41.771184","-72.691574","N ","A","1","1 ","311 ","Medical assist, assist EMS crew                   "
,"2013-01-02T00:00:00.000","13-0002010","08 ","15152          ","107     ","  ","PUTNAM                   ","ST  ","  ","                         ","  ","    ","  ","Hartford                 ","CT","06106     ","41.758638","-72.690700","N ","A","1","1 ","311 ","Medical assist, assist EMS crew                   "
,"2013-01-02T00:00:00.000","13-0002009","08 ","20891          ","176     ","  ","BABCOCK                  ","ST  ","  ","                         ","  ","    ","  ","Hartford                 ","CT","06106     ","41.758604","-72.689800","N ","A","1","2 ","700 ","False alarm or false call, Other                  "
,"2013-01-02T00:00:00.000","13-0002011","11 ","9363           ","530     ","  ","FARMINGTON               ","AV  ","  ","                         ","  ","    ","  ","Hartford                 ","CT","06105     ","41.766200","-72.709500","N ","A","1","1 ","463 ","Vehicle accident, general cleanup                 "
,"2013-01-02T00:00:00.000","13-0002012","15 ","39718          ","73      ","  ","COLONIAL                 ","ST  ","  ","                         ","  ","    ","  ","Hartford                 ","CT","06106     ","41.748285","-72.683892","N ","B","1","1 ","321 ","EMS call, excluding vehicle accident with injury  "
,"2013-01-02T00:00:00.000","13-0002013","07 ","8077           ","3580    ","  ","MAIN                     ","ST  ","  ","                         ","  ","    ","  ","Hartford                 ","CT","06120     ","41.799044","-72.662572","N ","B","1","1 ","323 ","Motor vehicle/pedestrian accident (MV Ped)        "
,"2013-01-02T00:00:00.000","13-0002014","01 ","               ","866     ","  ","MAIN                     ","ST  ","  ","                         ","  ","    ","  ","Hartford                 ","CT","06103     ","41.766875","-72.673525","N ","B","1","1 ","321 ","EMS call, excluding vehicle accident with injury  "
,"2013-01-02T00:00:00.000","13-0002015","15 ","40465          ","45      ","  ","ELLSWORTH                ","ST  ","  ","                         ","  ","    ","  ","Hartford                 ","CT","06114     ","41.744814","-72.685176","N ","B","1","1 ","321 ","EMS call, excluding vehicle accident with injury  "
,"2013-01-02T00:00:00.000","13-0002016","15 ","28235          ","151     ","  ","HILLSIDE                 ","AV  ","  ","                         ","  ","    ","  ","Hartford                 ","CT","06106     ","41.748438","-72.698723","N ","B","1","1 ","321 ","EMS call, excluding vehicle accident with injury  "
,"2013-01-02T00:00:00.000","13-0002017","08 ","               ","210     ","  ","CAPITOL                  ","AV  ","  ","                         ","  ","    ","  ","Hartford                 ","CT","06106     ","41.762521","-72.682679","N ","B","1","1 ","321 ","EMS call, excluding vehicle accident with injury  "
,"2013-01-02T00:00:00.000","13-0002018","16 ","5021           ","24      ","  ","EAST BURNHAM             ","ST  ","  ","                         ","  ","    ","  ","Hartford                 ","CT","06112     ","41.805400","-72.695700","N ","B","1","1 ","311 ","Medical assist, assist EMS crew                   "
,"2013-01-02T00:00:00.000","13-0002019","09 ","29000          ","66      ","  ","CLERMONT                 ","ST  ","  ","                         ","  ","    ","  ","Hartford                 ","CT","06106     ","41.735130","-72.709370","N ","B","1","1 ","321 ","EMS call, excluding vehicle accident with injury  "
,"2013-01-02T00:00:00.000","13-0002020","14 ","12348          ","61      ","  ","LENOX                    ","ST  ","  ","                         ","  ","    ","  ","Hartford                 ","CT","06112     ","41.781818","-72.691912","N ","B","1","1 ","321 ","EMS call, excluding vehicle accident with injury  "
,"2013-01-02T00:00:00.000","13-0002021","01 ","25082          ","65      ","  ","VAN BLOCK                ","AV  ","  ","                         ","  ","    ","  ","Hartford                 ","CT","06106     ","41.754779","-72.665257","N ","B","1","2 ","710 ","Malicious, mischievous false call, Other          "
,"2013-01-02T00:00:00.000","13-0002022","07 ","6954           ","20      ","  ","MARTIN                   ","ST  ","  ","                         ","  ","    ","  ","Hartford                 ","CT","06120     ","41.786100","-72.681440","N ","B","1","1 ","300 ","Rescue, EMS incident, other                       "
,"2013-01-02T00:00:00.000","13-0002023","08 ","15350          ","296     ","  ","PARK                     ","TER ","  ","                         ","  ","    ","  ","Hartford                 ","CT","06106     ","41.753820","-72.696550","N ","B","1","1 ","321 ","EMS call, excluding vehicle accident with injury  "
,"2013-01-02T00:00:00.000","13-0002024","01 ","24459          ","19      ","  ","MORRIS                   ","ST  ","  ","                         ","  ","    ","  ","Hartford                 ","CT","06114     ","41.752605","-72.675511","N ","B","1","1 ","321 ","EMS call, excluding vehicle accident with injury  "
,"2013-01-02T00:00:00.000","13-0002025","11 ","28276          ","44      ","  ","BELMONT                  ","ST  ","  ","                         ","  ","    ","  ","Hartford                 ","CT","06106     ","41.752633","-72.703300","N ","B","1","1 ","321 ","EMS call, excluding vehicle accident with injury  "
,"2013-01-02T00:00:00.000","13-0002026","01 ","34007          ","341     ","  ","WASHINGTON               ","ST  ","  ","                         ","  ","    ","  ","Hartford                 ","CT","06106     ","41.751292","-72.683492","N ","B","1","1 ","321 ","EMS call, excluding vehicle accident with injury  "
,"2013-01-02T00:00:00.000","13-0002027","05 ","20196          ","85      ","  ","SIGOURNEY                ","ST  ","  ","                         ","  ","    ","  ","Hartford                 ","CT","06105     ","41.767093","-72.693800","N ","B","1","1 ","311 ","Medical assist, assist EMS crew                   "
,"2013-01-02T00:00:00.000","13-0002028","10 ","30120          ","554     ","  ","WETHERSFIELD             ","AV  ","  ","                         ","  ","    ","  ","Hartford                 ","CT","06114     ","41.740277","-72.672485","N ","B","1","1 ","132 ","Road freight or transport vehicle fire            "
,"2013-01-02T00:00:00.000","13-0002029","08 ","34253          ","21      ","  ","LINCOLN                  ","ST  ","  ","                         ","  ","    ","  ","Hartford                 ","CT","06106     ","41.753268","-72.684619","N ","B","1","1 ","113 ","Cooking fire, confined to container               "
,"2013-01-02T00:00:00.000","13-0002030","15 ","26719          ","11      ","  ","ARNOLD                   ","ST  ","  ","                         ","  ","    ","  ","Hartford                 ","CT","06106     ","41.747212","-72.694788","N ","B","1","1 ","300 ","Rescue, EMS incident, other                       "
,"2013-01-02T00:00:00.000","13-0002031","14 ","12706          ","98      ","  ","MAGNOLIA                 ","ST  ","  ","                         ","  ","    ","  ","Hartford                 ","CT","06112     ","41.779312","-72.688118","N ","B","1","1 ","321 ","EMS call, excluding vehicle accident with injury  "
,"2013-01-02T00:00:00.000","13-0002032","14 ","19296          ","255     ","  ","HOMESTEAD                ","AV  ","  ","                         ","  ","    ","  ","Hartford                 ","CT","06112     ","41.778406","-72.697419","N ","B","1","1 ","300 ","Rescue, EMS incident, other                       "
,"2013-01-02T00:00:00.000","13-0002033","14 ","2046           ","204     ","  ","PLAINFIELD               ","ST  ","  ","                         ","  ","    ","  ","Hartford                 ","CT","06112     ","41.791877","-72.704500","N ","B","1","3 ","531 ","Smoke or odor removal                             "
,"2013-01-02T00:00:00.000","13-0002034","01 ","25312          ","118     ","  ","MAIN                     ","ST  ","  ","                         ","  ","    ","  ","Hartford                 ","CT","06106     ","41.756801","-72.675720","N ","B","1","1 ","321 ","EMS call, excluding vehicle accident with injury  "
,"2013-01-02T00:00:00.000","13-0002035","09 ","38640          ","94      ","  ","MONTROSE                 ","ST  ","  ","                         ","  ","    ","  ","Hartford                 ","CT","06106     ","41.728792","-72.712000","N ","B","1","1 ","622 ","No Incident found on arrival at dispatch address  "
,"2013-01-02T00:00:00.000","13-0002036","01 ","2318           ","360     ","  ","MAIN                     ","ST  ","  ","                         ","  ","    ","  ","Hartford                 ","CT","06106     ","41.759700","-72.675500","N ","B","1","1 ","511 ","Lock-out                                          "
,"2013-01-02T00:00:00.000","13-0002037","01 ","47863          ","80      ","  ","CHARTER OAK              ","AV  ","  ","                         ","  ","    ","  ","Hartford                 ","CT","06106     ","41.758862","-72.671177","N ","B","1","2 ","531 ","Smoke or odor removal                             "
,"2013-01-02T00:00:00.000","13-0002038","10 ","35647          ","237     ","  ","PRESTON                  ","ST  ","  ","                         ","  ","    ","  ","Hartford                 ","CT","06114     ","41.738480","-72.683160","N ","B","1","1 ","311 ","Medical assist, assist EMS crew                   "
,"2013-01-02T00:00:00.000","13-0002039","01 ","23929          ","456     ","  ","HUDSON                   ","ST  ","  ","                         ","  ","    ","  ","Hartford                 ","CT","06106     ","41.757325","-72.678791","N ","B","1","1 ","321 ","EMS call, excluding vehicle accident with injury  "
,"2013-01-02T00:00:00.000","13-0002040","01 ","54001          ","79      ","  ","RETREAT                  ","AV  ","  ","                         ","  ","    ","  ","Hartford                 ","CT","06106     ","41.753377","-72.678945","N ","B","1","1 ","311 ","Medical assist, assist EMS crew                   "
,"2013-01-02T00:00:00.000","13-0002041","01 ","54420          ","250     ","  ","COLUMBUS                 ","BLVD","  ","                         ","  ","    ","  ","Hartford                 ","CT","06103     ","41.764323","-72.669890","N ","B","1","3 ","442 ","Overheated motor                                  "
,"2013-01-02T00:00:00.000","13-0002042","08 ","               ","        ","  ","PARK                     ","ST  ","  ","ZION                     ","  ","ST  ","  ","Hartford                 ","CT","06106     ","41.757900","-72.690700","N ","B","1","1 ","500 ","Service Call, other                               "
,"2013-01-02T00:00:00.000","13-0002043","07 ","6766           ","142     ","  ","CLARK                    ","ST  ","  ","                         ","  ","    ","  ","Hartford                 ","CT","06120     ","41.788600","-72.677300","N ","B","1","1 ","300 ","Rescue, EMS incident, other                       "
,"2013-01-02T00:00:00.000","13-0002044","10 ","41381          ","23      ","  ","BOND                     ","ST  ","  ","                         ","  ","    ","  ","Hartford                 ","CT","06114     ","41.744703","-72.674147","N ","B","1","1 ","300 ","Rescue, EMS incident, other                       "
,"2013-01-02T00:00:00.000","13-0002045","16 ","5429           ","500     ","  ","BLUE HILLS               ","AV  ","  ","                         ","  ","    ","  ","Hartford                 ","CT","06112     ","41.799418","-72.695573","N ","B","1","1 ","311 ","Medical assist, assist EMS crew                   "
,"2013-01-02T00:00:00.000","13-0002046","01 ","54070          ","1       ","  ","MAIN                     ","ST  ","  ","                         ","  ","    ","  ","Hartford                 ","CT","06106     ","41.755200","-72.676800","N ","B","1","1 ","471 ","Explosive, bomb removal (for bomb scare, use 721) "
,"2013-01-02T00:00:00.000","13-0002047","10 ","               ","        ","  ","I 91N-XT 27 BRAINARD RD  ","    ","  ","                         ","  ","    ","  ","Hartford                 ","CT","00000     ","41.731600","-72.662800","N ","B","1","1 ","352 ","Extrication of victim(s) from vehicle             "
,"2013-01-02T00:00:00.000","13-0002048","08 ","21367          ","18      ","  ","HUNGERFORD               ","ST  ","  ","                         ","  ","    ","  ","Hartford                 ","CT","06106     ","41.762766","-72.685591","N ","B","1","1 ","321 ","EMS call, excluding vehicle accident with injury  "
,"2013-01-02T00:00:00.000","13-0002049","02 ","50680          ","1450    ","  ","MAIN                     ","ST  ","  ","                         ","  ","    ","  ","Hartford                 ","CT","06120     ","41.774089","-72.677100","N ","B","1","1 ","311 ","Medical assist, assist EMS crew                   "
,"2013-01-02T00:00:00.000","13-0002050","14 ","12263          ","205     ","  ","GREENFIELD               ","ST  ","  ","                         ","  ","    ","  ","Hartford                 ","CT","06112     ","41.784227","-72.693036","N ","B","1","1 ","321 ","EMS call, excluding vehicle accident with injury  "
,"2013-01-02T00:00:00.000","13-0002051","14 ","13552          ","388     ","  ","WOODLAND                 ","ST  ","  ","                         ","  ","    ","  ","Hartford                 ","CT","06112     ","41.779568","-72.697548","N ","B","1","1 ","116 ","Fuel burner/boiler malfunction, fire confined     "
,"2013-01-02T00:00:00.000","13-0002052","16 ","3351           ","766     ","  ","TOWER                    ","AV  ","  ","                         ","  ","    ","  ","Hartford                 ","CT","06112     ","41.800800","-72.696900","N ","B","1","1 ","311 ","Medical assist, assist EMS crew                   "
,"2013-01-02T00:00:00.000","13-0002053","08 ","21494          ","129     ","  ","HUNGERFORD               ","ST  ","  ","                         ","  ","    ","  ","Hartford                 ","CT","06106     ","41.759744","-72.686056","N ","B","1","3 ","745 ","Alarm system activation, no fire - unintentional  "
,"2013-01-02T00:00:00.000","13-0002054","08 ","20988          ","519     ","  ","PARK                     ","ST  ","  ","                         ","  ","    ","  ","Hartford                 ","CT","06106     ","41.757800","-72.685600","N ","B","1","1 ","321 ","EMS call, excluding vehicle accident with injury  "
,"2013-01-02T00:00:00.000","13-0002055","05 ","50373          ","188     ","  ","SIGOURNEY                ","ST  ","  ","                         ","  ","    ","  ","Hartford                 ","CT","06105     ","41.771800","-72.693220","N ","B","1","1 ","311 ","Medical assist, assist EMS crew                   "
,"2013-01-02T00:00:00.000","13-0002056","07 ","17003          ","98      ","  ","WESTON                   ","ST  ","  ","                         ","  ","    ","  ","Hartford                 ","CT","06120     ","41.784607","-72.665810","N ","B","1","1 ","300 ","Rescue, EMS incident, other                       "
,"2013-01-02T00:00:00.000","13-0002057","02 ","49953          ","606     ","  ","MARY SHEPARDS PL         ","    ","  ","                         ","  ","    ","  ","Hartford                 ","CT","06120     ","41.779592","-72.673882","N ","B","1","1 ","321 ","EMS call, excluding vehicle accident with injury  "
,"2013-01-02T00:00:00.000","13-0002058","02 ","1032           ","555     ","  ","ASYLUM                   ","ST  ","  ","                         ","  ","    ","  ","Hartford                 ","CT","06105     ","41.767929","-72.684186","N ","B","1","1 ","300 ","Rescue, EMS incident, other                       "
,"2013-01-02T00:00:00.000","13-0002059","11 ","               ","        ","  ","CARPENTER                ","ST  ","  ","MADISON                  ","  ","AV  ","  ","Hartford                 ","CT","06106     ","41.754300","-72.711400","N ","B","1","1 ","300 ","Rescue, EMS incident, other                       "
,"2013-01-03T00:00:00.000","13-0003001","14 ","2364           ","51      ","  ","SHARON                   ","ST  ","  ","                         ","  ","    ","  ","Hartford                 ","CT","06112     ","41.789345","-72.700898","N ","B","1","1 ","622 ","No Incident found on arrival at dispatch address  "
,"2013-01-03T00:00:00.000","13-0003002","07 ","9239           ","151     ","  ","WEST SERVICE             ","RD  ","  ","                         ","  ","    ","  ","Hartford                 ","CT","06120     ","41.787200","-72.660386","N ","B","1","1 ","300 ","Rescue, EMS incident, other                       "
,"2013-01-03T00:00:00.000","13-0003003","07 ","8716           ","267     ","  ","MARTIN                   ","ST  ","  ","                         ","  ","    ","  ","Hartford                 ","CT","06120     ","41.792773","-72.679195","N ","B","1","1 ","311 ","Medical assist, assist EMS crew                   "
,"2013-01-03T00:00:00.000","13-0003004","01 ","23765          ","179     ","  ","BUCKINGHAM               ","ST  ","  ","                         ","  ","    ","  ","Hartford                 ","CT","06106     ","41.760529","-72.678771","N ","B","1","1 ","321 ","EMS call, excluding vehicle accident with injury  "
,"2013-01-03T00:00:00.000","13-0003005","07 ","6883           ","35      ","  ","CLARK                    ","ST  ","  ","                         ","  ","    ","  ","Hartford                 ","CT","06120     ","41.785787","-72.678204","N ","B","1","4 ","300 ","Rescue, EMS incident, other                       "
,"2013-01-03T00:00:00.000","13-0003006","01 ","47863          ","80      ","  ","CHARTER OAK              ","AV  ","  ","                         ","  ","    ","  ","Hartford                 ","CT","06106     ","41.758862","-72.671177","N ","B","1","1 ","321 ","EMS call, excluding vehicle accident with injury  "
,"2013-01-03T00:00:00.000","13-0003007","02 ","18045          ","1630    ","  ","MAIN                     ","ST  ","  ","                         ","  ","    ","  ","Hartford                 ","CT","06120     ","41.776708","-72.676968","N ","B","1","1 ","321 ","EMS call, excluding vehicle accident with injury  "
,"2013-01-03T00:00:00.000","13-0003008","07 ","               ","460     ","  ","BARBOUR                  ","ST  ","  ","                         ","  ","    ","  ","Hartford                 ","CT","06120     ","41.797884","-72.676389","N ","B","1","4 ","444 ","Power line down                                   "
,"2013-01-03T00:00:00.000","13-0003009","07 ","8693           ","265     ","  ","BARBOUR                  ","ST  ","  ","                         ","  ","    ","  ","Hartford                 ","CT","06120     ","41.792491","-72.677882","N ","B","1","1 ","552 ","Police matter                                     "
,"2013-01-03T00:00:00.000","13-0003010","02 ","50563          ","25      ","  ","BELDEN                   ","ST  ","  ","                         ","  ","    ","  ","Hartford                 ","CT","06120     ","41.775633","-72.679300","N ","B","1","1 ","321 ","EMS call, excluding vehicle accident with injury  "
,"2013-01-03T00:00:00.000","13-0003011","16 ","4493           ","641     ","  ","BLUE HILLS               ","AV  ","  ","                         ","  ","    ","  ","Hartford                 ","CT","06112     ","41.804785","-72.695546","N ","B","1","1 ","651 ","Smoke scare, odor of smoke                        "
,"2013-01-03T00:00:00.000","13-0003012","08 ","16085          ","180     ","  ","OAK                      ","ST  ","  ","                         ","  ","    ","  ","Hartford                 ","CT","06106     ","41.757908","-72.685083","N ","B","1","1 ","321 ","EMS call, excluding vehicle accident with injury  "
,"2013-01-03T00:00:00.000","13-0003013","02 ","               ","        ","  ","PEARL                    ","ST  ","  ","TRUMBULL                 ","  ","ST  ","  ","Hartford                 ","CT","06103     ","41.766200","-72.676200","N ","C","1","1 ","321 ","EMS call, excluding vehicle accident with injury  "
,"2013-01-03T00:00:00.000","13-0003014","08 ","27569          ","399     ","  ","ZION                     ","ST  ","  ","                         ","  ","    ","  ","Hartford                 ","CT","06106     ","41.752150","-72.693975","N ","C","1","1 ","300 ","Rescue, EMS incident, other                       "
,"2013-01-03T00:00:00.000","13-0003015","16 ","3805           ","300     ","  ","GRANBY                   ","ST  ","  ","                         ","  ","    ","  ","Hartford                 ","CT","06112     ","41.796027","-72.706818","N ","C","1","1 ","321 ","EMS call, excluding vehicle accident with injury  "
,"2013-01-03T00:00:00.000","13-0003016","01 ","24550          ","43      ","  ","MORRIS                   ","ST  ","  ","                         ","  ","    ","  ","Hartford                 ","CT","06114     ","41.752488","-72.676376","N ","C","1","1 ","311 ","Medical assist, assist EMS crew                   "
,"2013-01-03T00:00:00.000","13-0003017","07 ","8665           ","109     ","  ","CHARLOTTE                ","ST  ","  ","                         ","  ","    ","  ","Hartford                 ","CT","06112     ","41.794367","-72.681600","N ","C","1","1 ","300 ","Rescue, EMS incident, other                       "
,"2013-01-03T00:00:00.000","13-0003018","10 ","               ","        ","  ","CAMPFIELD                ","AV  ","  ","GILMAN                   ","  ","ST  ","  ","Hartford                 ","CT","06114     ","41.736700","-72.682100","N ","C","1","4 ","322 ","Motor vehicle accident with injuries              "
,"2013-01-03T00:00:00.000","13-0003019","05 ","11839          ","408     ","  ","FARMINGTON               ","AV  ","  ","                         ","  ","    ","  ","Hartford                 ","CT","06105     ","41.766900","-72.704200","N ","C","1","1 ","321 ","EMS call, excluding vehicle accident with injury  "
,"2013-01-03T00:00:00.000","13-0003020","08 ","16066          ","161     ","  ","WASHINGTON               ","ST  ","  ","                         ","  ","    ","  ","Hartford                 ","CT","06106     ","41.756225","-72.682988","N ","C","1","1 ","311 ","Medical assist, assist EMS crew                   "
,"2013-01-03T00:00:00.000","13-0003021","01 ","33998          ","34      ","  ","VERNON                   ","ST  ","  ","                         ","  ","    ","  ","Hartford                 ","CT","06106     ","41.751200","-72.683500","N ","C","1","1 ","321 ","EMS call, excluding vehicle accident with injury  "
,"2013-01-03T00:00:00.000","13-0003022","01 ","24175          ","85      ","  ","SEYMOUR                  ","ST  ","  ","                         ","  ","    ","  ","Hartford                 ","CT","06106     ","41.754180","-72.681120","N ","C","1","1 ","311 ","Medical assist, assist EMS crew                   "
,"2013-01-03T00:00:00.000","13-0003023","01 ","25274          ","76      ","  ","MAIN                     ","ST  ","  ","                         ","  ","    ","  ","Hartford                 ","CT","06106     ","41.756403","-72.675641","N ","C","1","3 ","730 ","System malfunction, Other                         "
,"2013-01-03T00:00:00.000","13-0003024","07 ","6330           ","227     ","  ","CAPEN                    ","ST  ","  ","                         ","  ","    ","  ","Hartford                 ","CT","06112     ","41.786091","-72.683755","N ","C","1","1 ","321 ","EMS call, excluding vehicle accident with injury  "
,"2013-01-03T00:00:00.000","13-0003025","08 ","45399          ","7       ","  ","PUTNAM                   ","HTS ","  ","                         ","  ","    ","  ","Hartford                 ","CT","06106     ","41.758788","-72.693150","N ","C","1","1 ","735 ","Alarm system sounded due to malfunction           "
,"2013-01-03T00:00:00.000","13-0003026","15 ","28051          ","102     ","  ","WILSON                   ","ST  ","  ","                         ","  ","    ","  ","Hartford                 ","CT","06106     ","41.749420","-72.698661","N ","C","1","1 ","300 ","Rescue, EMS incident, other                       "
,"2013-01-03T00:00:00.000","13-0003027","02 ","49930          ","503     ","  ","MARY SHEPARDS PL         ","    ","  ","                         ","  ","    ","  ","Hartford                 ","CT","06120     ","41.779357","-72.673851","N ","C","1","1 ","734 ","Heat detector activation due to malfunction       "
,"2013-01-03T00:00:00.000","13-0003028","09 ","53357          ","401     ","  ","FLATBUSH                 ","AV  ","  ","                         ","  ","    ","  ","Hartford                 ","CT","06106     ","41.743104","-72.708340","N ","C","1","1 ","300 ","Rescue, EMS incident, other                       "
,"2013-01-03T00:00:00.000","13-0003029","15 ","               ","        ","  ","FAIRFIELD                ","AV  ","  ","LINNMOORE                ","  ","ST  ","  ","Hartford                 ","CT","06114     ","41.733200","-72.692600","N ","C","1","1 ","324 ","Motor Vehicle Accident with no injuries           "
,"2013-01-03T00:00:00.000","13-0003030","15 ","               ","        ","  ","BROAD                    ","ST  ","  ","CLIFFORD                 ","  ","ST  ","  ","Hartford                 ","CT","06114     ","41.739900","-72.687800","N ","C","1","6 ","552 ","Police matter                                     "
,"2013-01-03T00:00:00.000","13-0003031","01 ","               ","        ","  ","ASYLUM                   ","ST  ","  ","MAIN                     ","  ","ST  ","  ","Hartford                 ","CT","06103     ","41.766300","-72.673600","N ","C","1","1 ","311 ","Medical assist, assist EMS crew                   "
,"2013-01-03T00:00:00.000","13-0003032","15 ","40437          ","470     ","  ","MAPLE                    ","AV  ","  ","                         ","  ","    ","  ","Hartford                 ","CT","06114     ","41.746446","-72.681485","N ","C","1","1 ","652 ","Steam, vapor, fog or dust thought to be smoke     "
,"2013-01-03T00:00:00.000","13-0003033","02 ","17302          ","20      ","  ","HARRIET TUBMAN           ","CT  ","  ","                         ","  ","    ","  ","Hartford                 ","CT","06120     ","41.785100","-72.675075","N ","C","1","1 ","300 ","Rescue, EMS incident, other                       "
,"2013-01-03T00:00:00.000","13-0003034","01 ","47863          ","80      ","  ","CHARTER OAK              ","AV  ","  ","                         ","  ","    ","  ","Hartford                 ","CT","06106     ","41.758862","-72.671177","N ","C","1","2 ","531 ","Smoke or odor removal                             "
,"2013-01-03T00:00:00.000","13-0003035","07 ","54054          ","49      ","  ","TOWER                    ","AV  ","  ","                         ","  ","    ","  ","Hartford                 ","CT","06120     ","41.796883","-72.665800","N ","C","1","1 ","300 ","Rescue, EMS incident, other                       "
,"2013-01-03T00:00:00.000","13-0003036","15 ","32924          ","101     ","  ","GRANDVIEW                ","TER ","  ","                         ","  ","    ","  ","Hartford                 ","CT","06114     ","41.740592","-72.691904","N ","C","1","1 ","300 ","Rescue, EMS incident, other                       "
,"2013-01-03T00:00:00.000","13-0003037","14 ","2277           ","33      ","  ","HEBRON                   ","ST  ","  ","                         ","  ","    ","  ","Hartford                 ","CT","06112     ","41.790398","-72.699728","N ","C","1","1 ","321 ","EMS call, excluding vehicle accident with injury  "
,"2013-01-03T00:00:00.000","13-0003038","14 ","3933           ","206     ","  ","GRANBY                   ","ST  ","  ","                         ","  ","    ","  ","Hartford                 ","CT","06112     ","41.792673","-72.705818","N ","C","1","1 ","321 ","EMS call, excluding vehicle accident with injury  "
,"2013-01-03T00:00:00.000","13-0003039","11 ","9539           ","5       ","  ","CONE                     ","ST  ","  ","                         ","  ","    ","  ","Hartford                 ","CT","06105     ","41.768218","-72.716136","N ","C","1","2 ","735 ","Alarm system sounded due to malfunction           "
,"2013-01-03T00:00:00.000","13-0003040","10 ","               ","        ","  ","AIRPORT                  ","RD  ","  ","LEDYARD                  ","  ","ST  ","  ","Hartford                 ","CT","06114     ","41.738000","-72.669100","N ","C","1","1 ","324 ","Motor Vehicle Accident with no injuries           "
,"2013-01-03T00:00:00.000","13-0003041","14 ","12921          ","160     ","  ","MAGNOLIA                 ","ST  ","  ","                         ","  ","    ","  ","Hartford                 ","CT","06112     ","41.781380","-72.687480","N ","C","1","1 ","321 ","EMS call, excluding vehicle accident with injury  "
,"2013-01-03T00:00:00.000","13-0003042","08 ","34293          ","61      ","  ","LINCOLN                  ","ST  ","  ","                         ","  ","    ","  ","Hartford                 ","CT","06106     ","41.753203","-72.687458","N ","C","1","1 ","321 ","EMS call, excluding vehicle accident with injury  "
,"2013-01-03T00:00:00.000","13-0003043","01 ","2674           ","100     ","  ","WELLS                    ","ST  ","  ","                         ","  ","    ","  ","Hartford                 ","CT","06103     ","41.763444","-72.676278","N ","C","1","2 ","520 ","Water problem, Other                              "
,"2013-01-03T00:00:00.000","13-0003044","01 ","3040           ","500     ","  ","MAIN                     ","ST  ","  ","                         ","  ","    ","  ","Hartford                 ","CT","06103     ","41.761971","-72.674876","N ","C","1","1 ","321 ","EMS call, excluding vehicle accident with injury  "
,"2013-01-03T00:00:00.000","13-0003046","07 ","7487           ","75      ","  ","WINCHESTER               ","ST  ","  ","                         ","  ","    ","  ","Hartford                 ","CT","06112     ","41.790300","-72.684200","N ","C","1","1 ","321 ","EMS call, excluding vehicle accident with injury  "
,"2013-01-03T00:00:00.000","13-0003045","05 ","10801          ","114     ","  ","WOODLAND                 ","ST  ","  ","                         ","  ","    ","  ","Hartford                 ","CT","06105     ","41.775167","-72.699433","N ","C","1","1 ","411 ","Gasoline or other flammable liquid spill          "
,"2013-01-03T00:00:00.000","13-0003047","16 ","50302          ","56      ","  ","COVENTRY                 ","ST  ","  ","                         ","  ","    ","  ","Hartford                 ","CT","06112     ","41.798088","-72.690450","N ","C","1","1 ","321 ","EMS call, excluding vehicle accident with injury  "
,"2013-01-03T00:00:00.000","13-0003048","15 ","               ","        ","  ","NEW BRITAIN              ","AV  ","  ","WASHINGTON               ","  ","ST  ","  ","Hartford                 ","CT","06106     ","41.747300","-72.683800","N ","C","1","1 ","324 ","Motor Vehicle Accident with no injuries           "
,"2013-01-03T00:00:00.000","13-0003049","16 ","3269           ","346     ","  ","CORNWALL                 ","ST  ","  ","                         ","  ","    ","  ","Hartford                 ","CT","06112     ","41.798793","-72.698393","N ","C","1","1 ","311 ","Medical assist, assist EMS crew                   "
,"2013-01-03T00:00:00.000","13-0003050","14 ","12328          ","120     ","  ","OAKLAND                  ","TER ","  ","                         ","  ","    ","  ","Hartford                 ","CT","06112     ","41.783203","-72.693778","N ","C","1","1 ","321 ","EMS call, excluding vehicle accident with injury  "
,"2013-01-03T00:00:00.000","13-0003051","05 ","11076          ","12      ","  ","WILLARD                  ","ST  ","  ","                         ","  ","    ","  ","Hartford                 ","CT","06105     ","41.770961","-72.695313","N ","C","1","1 ","321 ","EMS call, excluding vehicle accident with injury  "
,"2013-01-03T00:00:00.000","13-0003052","05 ","14224          ","377     ","  ","SIGOURNEY                ","ST  ","  ","                         ","  ","    ","  ","Hartford                 ","CT","06112     ","41.778029","-72.691081","N ","C","1","1 ","300 ","Rescue, EMS incident, other                       "
,"2013-01-03T00:00:00.000","13-0003053","14 ","6013           ","135     ","  ","ENFIELD                  ","ST  ","  ","                         ","  ","    ","  ","Hartford                 ","CT","06112     ","41.785000","-72.684700","N ","C","1","1 ","321 ","EMS call, excluding vehicle accident with injury  "
,"2013-01-03T00:00:00.000","13-0003054","16 ","4586           ","687     ","  ","BLUE HILLS               ","AV  ","  ","                         ","  ","    ","  ","Hartford                 ","CT","06112     ","41.806245","-72.695800","N ","C","1","1 ","511 ","Lock-out                                          "
,"2013-01-03T00:00:00.000","13-0003055","01 ","24146          ","80      ","  ","SEYMOUR                  ","ST  ","  ","                         ","  ","    ","  ","Hartford                 ","CT","06106     ","41.754047","-72.681136","N ","C","1","1 ","323 ","Motor vehicle/pedestrian accident (MV Ped)        "
,"2013-01-03T00:00:00.000","13-0003056","02 ","18742          ","10      ","  ","WINTER                   ","ST  ","  ","                         ","  ","    ","  ","Hartford                 ","CT","06120     ","41.778743","-72.681971","N ","C","1","1 ","321 ","EMS call, excluding vehicle accident with injury  "
,"2013-01-03T00:00:00.000","13-0003057","08 ","15777          ","35      ","  ","WOLCOTT                  ","ST  ","  ","                         ","  ","    ","  ","Hartford                 ","CT","06106     ","41.757097","-72.685600","N ","C","1","1 ","321 ","EMS call, excluding vehicle accident with injury  "
,"2013-01-03T00:00:00.000","13-0003058","05 ","11340          ","887     ","  ","ASYLUM                   ","AV  ","  ","                         ","  ","    ","  ","Hartford                 ","CT","06105     ","41.770130","-72.694117","N ","C","1","1 ","321 ","EMS call, excluding vehicle accident with injury  "
,"2013-01-03T00:00:00.000","13-0003059","15 ","32829          ","243     ","  ","NEW BRITAIN              ","AV  ","  ","                         ","  ","    ","  ","Hartford                 ","CT","06106     ","41.743461","-72.690652","N ","C","1","1 ","300 ","Rescue, EMS incident, other                       "
,"2013-01-03T00:00:00.000","13-0003060","11 ","34778          ","100     ","  ","PROSPECT                 ","AV  ","  ","                         ","  ","    ","  ","Hartford                 ","CT","06106     ","41.747900","-72.715100","N ","C","1","3 ","113 ","Cooking fire, confined to container               "
,"2013-01-03T00:00:00.000","13-0003061","10 ","30876          ","170     ","  ","ROOSEVELT                ","ST  ","  ","                         ","  ","    ","  ","Hartford                 ","CT","06114     ","41.733777","-72.678631","N ","C","1","1 ","111 ","Building fire                                     "
,"2013-01-03T00:00:00.000","13-0003062","05 ","11575          ","31      ","  ","GILLETT                  ","ST  ","  ","                         ","  ","    ","  ","Hartford                 ","CT","06105     ","41.768667","-72.700225","N ","C","1","1 ","743 ","Smoke detector activation, no fire - unintentional"
,"2013-01-03T00:00:00.000","13-0003063","02 ","54451          ","241     ","  ","TRUMBULL                 ","ST  ","  ","                         ","  ","    ","  ","Hartford                 ","CT","06103     ","41.768250","-72.675723","N ","C","1","3 ","730 ","System malfunction, Other                         "
,"2013-01-03T00:00:00.000","13-0003064","07 ","49647          ","70      ","  ","HAMPTON                  ","ST  ","  ","                         ","  ","    ","  ","Hartford                 ","CT","06120     ","41.793135","-72.673415","N ","C","1","1 ","321 ","EMS call, excluding vehicle accident with injury  "
,"2013-01-03T00:00:00.000","13-0003065","05 ","11076          ","12      ","  ","WILLARD                  ","ST  ","  ","                         ","  ","    ","  ","Hartford                 ","CT","06105     ","41.770961","-72.695313","N ","C","1","1 ","311 ","Medical assist, assist EMS crew                   "
,"2013-01-03T00:00:00.000","13-0003066","02 ","50563          ","25      ","  ","BELDEN                   ","ST  ","  ","                         ","  ","    ","  ","Hartford                 ","CT","06120     ","41.775633","-72.679300","N ","C","1","1 ","321 ","EMS call, excluding vehicle accident with injury  "
,"2013-01-04T00:00:00.000","13-0004001","07 ","50052          ","40      ","  ","MONTVILLE                ","ST  ","  ","                         ","  ","    ","  ","Hartford                 ","CT","06120     ","41.794664","-72.665466","N ","C","1","1 ","554 ","Assist invalid                                    "
,"2013-01-04T00:00:00.000","13-0004002","02 ","17323          ","1994    ","  ","MAIN                     ","ST  ","  ","                         ","  ","    ","  ","Hartford                 ","CT","06120     ","41.781717","-72.676417","N ","C","1","1 ","552 ","Police matter                                     "
,"2013-01-04T00:00:00.000","13-0004003","07 ","8170           ","3080    ","  ","MAIN                     ","ST  ","  ","                         ","  ","    ","  ","Hartford                 ","CT","06120     ","41.794514","-72.664704","N ","C","1","3 ","730 ","System malfunction, Other                         "
,"2013-01-04T00:00:00.000","13-0004004","11 ","10140          ","145     ","  ","SISSON                   ","AV  ","  ","                         ","  ","    ","  ","Hartford                 ","CT","06105     ","41.762079","-72.706811","N ","C","1","1 ","531 ","Smoke or odor removal                             "
,"2013-01-04T00:00:00.000","13-0004005","02 ","45917          ","1570    ","  ","MAIN                     ","ST  ","  ","                         ","  ","    ","  ","Hartford                 ","CT","06120     ","41.775820","-72.677100","N ","C","1","1 ","311 ","Medical assist, assist EMS crew                   "
,"2013-01-04T00:00:00.000","13-0004006","15 ","27840          ","35      ","  ","WARD                     ","PL  ","  ","                         ","  ","    ","  ","Hartford                 ","CT","06106     ","41.749813","-72.695031","N ","C","1","1 ","321 ","EMS call, excluding vehicle accident with injury  "
,"2013-01-04T00:00:00.000","13-0004007","07 ","17004          ","100     ","  ","WESTON                   ","ST  ","  ","                         ","  ","    ","  ","Hartford                 ","CT","06120     ","41.784652","-72.665828","N ","C","1","2 ","734 ","Heat detector activation due to malfunction       "
,"2013-01-04T00:00:00.000","13-0004008","11 ","22018          ","69      ","  ","JAMES                    ","ST  ","  ","                         ","  ","    ","  ","Hartford                 ","CT","06106     ","41.759250","-72.711993","N ","C","1","1 ","300 ","Rescue, EMS incident, other                       "
,"2013-01-04T00:00:00.000","13-0004009","05 ","11302          ","99      ","  ","HUNTINGTON               ","ST  ","  ","                         ","  ","    ","  ","Hartford                 ","CT","06105     ","41.773500","-72.690967","N ","C","1","1 ","321 ","EMS call, excluding vehicle accident with injury  "
,"2013-01-04T00:00:00.000","13-0004010","05 ","20016          ","98      ","  ","GARDEN                   ","ST  ","  ","                         ","  ","    ","  ","Hartford                 ","CT","06105     ","41.770457","-72.686362","N ","C","1","1 ","321 ","EMS call, excluding vehicle accident with injury  "
,"2013-01-04T00:00:00.000","13-0004011","15 ","39622          ","461     ","  ","WASHINGTON               ","ST  ","  ","                         ","  ","    ","  ","Hartford                 ","CT","06106     ","41.747400","-72.683700","N ","C","1","1 ","300 ","Rescue, EMS incident, other                       "
,"2013-01-04T00:00:00.000","13-0004012","11 ","22195          ","93      ","  ","CHADWICK                 ","AV  ","  ","                         ","  ","    ","  ","Hartford                 ","CT","06106     ","41.759500","-72.708700","N ","C","1","1 ","321 ","EMS call, excluding vehicle accident with injury  "
,"2013-01-04T00:00:00.000","13-0004013","01 ","               ","160     ","  ","HUYSHOPE                 ","AV  ","  ","                         ","  ","    ","  ","Hartford                 ","CT","06106     ","41.754815","-72.663985","N ","C","1","1 ","300 ","Rescue, EMS incident, other                       "
,"2013-01-04T00:00:00.000","13-0004014","08 ","24092          ","194     ","  ","WASHINGTON               ","ST  ","  ","                         ","  ","    ","  ","Hartford                 ","CT","06106     ","41.757800","-72.682900","N ","D","1","1 ","311 ","Medical assist, assist EMS crew                   "
,"2013-01-04T00:00:00.000","13-0004015","01 ","24081          ","85      ","  ","JEFFERSON                ","ST  ","  ","                         ","  ","    ","  ","Hartford                 ","CT","06106     ","41.755200","-72.679300","N ","D","1","1 ","311 ","Medical assist, assist EMS crew                   "
,"2013-01-04T00:00:00.000","13-0004016","01 ","               ","57      ","  ","PROSPECT                 ","ST  ","  ","                         ","  ","    ","  ","Hartford                 ","CT","06103     ","41.764500","-72.672500","N ","D","1","1 ","311 ","Medical assist, assist EMS crew                   "
,"2013-01-04T00:00:00.000","13-0004017","14 ","14000          ","44      ","  ","STERLING                 ","ST  ","  ","                         ","  ","    ","  ","Hartford                 ","CT","06112     ","41.779031","-72.694567","N ","D","1","1 ","311 ","Medical assist, assist EMS crew                   "
,"2013-01-04T00:00:00.000","13-0004018","05 ","19902          ","136     ","  ","COLLINS                  ","ST  ","  ","                         ","  ","    ","  ","Hartford                 ","CT","06105     ","41.772500","-72.690000","N ","D","1","1 ","321 ","EMS call, excluding vehicle accident with injury  "
,"2013-01-04T00:00:00.000","13-0004019","01 ","               ","200     ","  ","RETREAT                  ","AV  ","  ","                         ","  ","    ","  ","Hartford                 ","CT","06106     ","41.751435","-72.682130","N ","D","1","1 ","300 ","Rescue, EMS incident, other                       "
,"2013-01-04T00:00:00.000","13-0004020","05 ","19663          ","15      ","  ","WOODLAND                 ","ST  ","  ","                         ","  ","    ","  ","Hartford                 ","CT","06105     ","41.768272","-72.702389","N ","D","1","1 ","321 ","EMS call, excluding vehicle accident with injury  "
,"2013-01-04T00:00:00.000","13-0004021","15 ","33260          ","59      ","  ","KENNETH                  ","ST  ","  ","                         ","  ","    ","  ","Hartford                 ","CT","06114     ","41.740951","-72.687200","N ","D","1","1 ","300 ","Rescue, EMS incident, other                       "
,"2013-01-04T00:00:00.000","13-0004022","01 ","24383          ","109     ","  ","WETHERSFIELD             ","AV  ","  ","                         ","  ","    ","  ","Hartford                 ","CT","06114     ","41.752647","-72.674784","N ","D","1","1 ","521 ","Water evacuation                                  "
,"2013-01-04T00:00:00.000","13-0004023","15 ","33175          ","1898    ","  ","BROAD                    ","ST  ","  ","                         ","  ","    ","  ","Hartford                 ","CT","06114     ","41.740817","-72.687617","N ","D","1","1 ","300 ","Rescue, EMS incident, other                       "
,"2013-01-04T00:00:00.000","13-0004024","15 ","26617          ","43      ","  ","BONNER                   ","ST  ","  ","                         ","  ","    ","  ","Hartford                 ","CT","06106     ","41.748137","-72.696300","N ","D","1","1 ","661 ","EMS call, party transported by non-fire agency    "
,"2013-01-04T00:00:00.000","13-0004025","07 ","8029           ","3545    ","  ","MAIN                     ","ST  ","  ","                         ","  ","    ","  ","Hartford                 ","CT","06120     ","41.799703","-72.662161","N ","D","1","1 ","300 ","Rescue, EMS incident, other                       "
,"2013-01-04T00:00:00.000","13-0004026","05 ","               ","        ","  ","ATWOOD                   ","ST  ","  ","COLLINS                  ","  ","ST  ","  ","Hartford                 ","CT","06105     ","41.773600","-72.696900","N ","D","1","1 ","622 ","No Incident found on arrival at dispatch address  "
,"2013-01-04T00:00:00.000","13-0004027","07 ","7909           ","37      ","  ","MARTIN                   ","ST  ","  ","                         ","  ","    ","  ","Hartford                 ","CT","06120     ","41.787475","-72.681000","N ","D","1","1 ","321 ","EMS call, excluding vehicle accident with injury  "
,"2013-01-04T00:00:00.000","13-0004028","10 ","               ","        ","  ","BROWN                    ","ST  ","  ","FRANKLIN                 ","  ","AV  ","  ","Hartford                 ","CT","06114     ","41.737100","-72.675800","N ","D","1","6 ","300 ","Rescue, EMS incident, other                       "
,"2013-01-04T00:00:00.000","13-0004029","02 ","               ","        ","  ","ALBANY                   ","AV  ","  ","MAIN                     ","  ","ST  ","  ","Hartford                 ","CT","06103     ","41.773700","-72.678000","N ","D","1","1 ","324 ","Motor Vehicle Accident with no injuries           "
,"2013-01-04T00:00:00.000","13-0004030","02 ","19040          ","27      ","  ","WILLIAMS                 ","ST  ","  ","                         ","  ","    ","  ","Hartford                 ","CT","06120     ","41.774450","-72.683994","N ","D","1","1 ","116 ","Fuel burner/boiler malfunction, fire confined     "
,"2013-01-04T00:00:00.000","13-0004031","11 ","43276          ","150     ","  ","NEW PARK                 ","AV  ","  ","                         ","  ","    ","  ","Hartford                 ","CT","06106     ","41.752367","-72.709600","N ","D","1","4 ","300 ","Rescue, EMS incident, other                       "
,"2013-01-04T00:00:00.000","13-0004032","05 ","19663          ","15      ","  ","WOODLAND                 ","ST  ","  ","                         ","  ","    ","  ","Hartford                 ","CT","06105     ","41.768272","-72.702389","N ","D","1","1 ","321 ","EMS call, excluding vehicle accident with injury  "
,"2013-01-04T00:00:00.000","13-0004033","11 ","19549          ","170     ","  ","SISSON                   ","AV  ","  ","                         ","  ","    ","  ","Hartford                 ","CT","06105     ","41.763408","-72.707046","N ","D","1","1 ","622 ","No Incident found on arrival at dispatch address  "
,"2013-01-04T00:00:00.000","13-0004034","10 ","42043          ","300     ","  ","MAXIM                    ","RD  ","  ","                         ","  ","    ","  ","Hartford                 ","CT","06114     ","41.746300","-72.648300","N ","D","1","2 ","735 ","Alarm system sounded due to malfunction           "
,"2013-01-04T00:00:00.000","13-0004035","11 ","19549          ","170     ","  ","SISSON                   ","AV  ","  ","                         ","  ","    ","  ","Hartford                 ","CT","06105     ","41.763408","-72.707046","N ","D","1","1 ","311 ","Medical assist, assist EMS crew                   "
,"2013-01-04T00:00:00.000","13-0004036","08 ","15362          ","2       ","  ","HILLSIDE                 ","AV  ","  ","                         ","  ","    ","  ","Hartford                 ","CT","06106     ","41.752500","-72.697400","N ","D","1","1 ","300 ","Rescue, EMS incident, other                       "
,"2013-01-04T00:00:00.000","13-0004037","07 ","53247          ","147     ","  ","ENFIELD                  ","ST  ","  ","                         ","  ","    ","  ","Hartford                 ","CT","06112     ","41.785400","-72.684567","N ","D","1","1 ","321 ","EMS call, excluding vehicle accident with injury  "
,"2013-01-04T00:00:00.000","13-0004038","10 ","40380          ","44      ","  ","WHITMORE                 ","ST  ","  ","                         ","  ","    ","  ","Hartford                 ","CT","06114     ","41.745115","-72.679151","N ","D","1","1 ","300 ","Rescue, EMS incident, other                       "
,"2013-01-04T00:00:00.000","13-0004039","14 ","13613          ","57      ","  ","OAKLAND                  ","TER ","  ","                         ","  ","    ","  ","Hartford                 ","CT","06112     ","41.780148","-72.695339","N ","D","1","1 ","311 ","Medical assist, assist EMS crew                   "
,"2013-01-04T00:00:00.000","13-0004040","02 ","               ","        ","  ","ALBANY                   ","AV  ","  ","MAIN                     ","  ","ST  ","  ","Hartford                 ","CT","06103     ","41.773700","-72.678000","N ","D","1","4 ","321 ","EMS call, excluding vehicle accident with injury  "
,"2013-01-04T00:00:00.000","13-0004041","07 ","54052          ","45      ","  ","TOWER                    ","AV  ","  ","                         ","  ","    ","  ","Hartford                 ","CT","06120     ","41.796850","-72.665600","N ","D","1","1 ","300 ","Rescue, EMS incident, other                       "
,"2013-01-04T00:00:00.000","13-0004042","14 ","14445          ","66      ","  ","ADAMS                    ","ST  ","  ","                         ","  ","    ","  ","Hartford                 ","CT","06112     ","41.782410","-72.699681","N ","D","1","1 ","311 ","Medical assist, assist EMS crew                   "
,"2013-01-04T00:00:00.000","13-0004043","14 ","12833          ","26      ","  ","VINE                     ","ST  ","  ","                         ","  ","    ","  ","Hartford                 ","CT","06112     ","41.779810","-72.689017","N ","D","1","1 ","300 ","Rescue, EMS incident, other                       "
,"2013-01-04T00:00:00.000","13-0004044","02 ","1244           ","280     ","  ","TRUMBULL                 ","ST  ","  ","                         ","  ","    ","  ","Hartford                 ","CT","06103     ","41.768453","-72.675668","N ","D","1","1 ","321 ","EMS call, excluding vehicle accident with injury  "
,"2013-01-04T00:00:00.000","13-0004045","15 ","33174          ","1896    ","  ","BROAD                    ","ST  ","  ","                         ","  ","    ","  ","Hartford                 ","CT","06114     ","41.740900","-72.687600","N ","D","1","1 ","500 ","Service Call, other                               "
,"2013-01-04T00:00:00.000","13-0004046","11 ","12177          ","25      ","  ","DENISON                  ","ST  ","  ","                         ","  ","    ","  ","Hartford                 ","CT","06105     ","41.765860","-72.706180","N ","D","1","1 ","300 ","Rescue, EMS incident, other                       "
,"2013-01-04T00:00:00.000","13-0004047","02 ","               ","        ","  ","I 84W-XT 45 FLATBUSH AV  ","    ","  ","                         ","  ","    ","  ","Hartford                 ","CT","00000     ","41.750000","-72.705500","N ","D","1","1 ","324 ","Motor Vehicle Accident with no injuries           "
,"2013-01-04T00:00:00.000","13-0004048","07 ","6470           ","171     ","  ","CAPEN                    ","ST  ","  ","                         ","  ","    ","  ","Hartford                 ","CT","06120     ","41.785600","-72.681600","N ","D","1","1 ","311 ","Medical assist, assist EMS crew                   "
,"2013-01-04T00:00:00.000","13-0004049","01 ","               ","        ","  ","PARK                     ","ST  ","  ","SEYMOUR                  ","  ","ST  ","  ","Hartford                 ","CT","06106     ","41.757500","-72.680800","N ","D","1","1 ","311 ","Medical assist, assist EMS crew                   "
,"2013-01-04T00:00:00.000","13-0004050","08 ","21517          ","22      ","  ","GRAND                    ","ST  ","  ","                         ","  ","    ","  ","Hartford                 ","CT","06106     ","41.759214","-72.685586","N ","D","1","1 ","300 ","Rescue, EMS incident, other                       "
,"2013-01-04T00:00:00.000","13-0004051","05 ","32267          ","285     ","  ","BROAD                    ","ST  ","  ","                         ","  ","    ","  ","Hartford                 ","CT","06103     ","41.765500","-72.687000","N ","D","1","1 ","353 ","Removal of victim(s) from stalled elevator        "
,"2013-01-04T00:00:00.000","13-0004052","10 ","30418          ","25      ","  ","BARKER                   ","ST  ","  ","                         ","  ","    ","  ","Hartford                 ","CT","06114     ","41.743800","-72.674600","N ","D","1","1 ","300 ","Rescue, EMS incident, other                       "
,"2013-01-04T00:00:00.000","13-0004053","02 ","17849          ","402     ","  ","ALBANY                   ","AV  ","  ","                         ","  ","    ","  ","Hartford                 ","CT","06120     ","41.777053","-72.683871","N ","D","1","1 ","321 ","EMS call, excluding vehicle accident with injury  "
,"2013-01-04T00:00:00.000","13-0004054","07 ","6612           ","2347    ","  ","MAIN                     ","ST  ","  ","                         ","  ","    ","  ","Hartford                 ","CT","06120     ","41.786547","-72.674288","N ","D","1","1 ","311 ","Medical assist, assist EMS crew                   "
,"2013-01-04T00:00:00.000","13-0004055","07 ","               ","        ","  ","CAPEN                    ","ST  ","  ","GARDEN                   ","  ","ST  ","  ","Hartford                 ","CT","06112     ","41.786000","-72.683300","N ","D","1","1 ","322 ","Motor vehicle accident with injuries              "
,"2013-01-04T00:00:00.000","13-0004056","09 ","36946          ","105     ","  ","SALEM                    ","ST  ","  ","                         ","  ","    ","  ","Hartford                 ","CT","06114     ","41.729026","-72.694474","N ","D","1","1 ","321 ","EMS call, excluding vehicle accident with injury  "
,"2013-01-04T00:00:00.000","13-0004057","05 ","19779          ","47      ","  ","SUMNER                   ","ST  ","  ","                         ","  ","    ","  ","Hartford                 ","CT","06105     ","41.769943","-72.690594","N ","D","1","1 ","531 ","Smoke or odor removal                             "
,"2013-01-04T00:00:00.000","13-0004058","02 ","17766          ","62      ","  ","ENFIELD                  ","ST  ","  ","                         ","  ","    ","  ","Hartford                 ","CT","06112     ","41.782575","-72.685650","N ","D","1","1 ","321 ","EMS call, excluding vehicle accident with injury  "
,"2013-01-04T00:00:00.000","13-0004059","02 ","1981           ","113     ","  ","ALLYN                    ","ST  ","  ","                         ","  ","    ","  ","Hartford                 ","CT","06103     ","41.768302","-72.679752","N ","D","1","1 ","321 ","EMS call, excluding vehicle accident with injury  "
,"2013-01-04T00:00:00.000","13-0004060","02 ","52860          ","128     ","  ","WOOSTER                  ","ST  ","  ","                         ","  ","    ","  ","Hartford                 ","CT","06120     ","41.781485","-72.675248","N ","D","1","1 ","300 ","Rescue, EMS incident, other                       "
,"2013-01-04T00:00:00.000","13-0004061","01 ","50260          ","140     ","  ","HUYSHOPE                 ","AV  ","  ","                         ","  ","    ","  ","Hartford                 ","CT","06106     ","41.755231","-72.664450","N ","D","1","3 ","745 ","Alarm system activation, no fire - unintentional  "
,"2013-01-04T00:00:00.000","13-0004062","10 ","36314          ","175     ","  ","ADELAIDE                 ","ST  ","  ","                         ","  ","    ","  ","Hartford                 ","CT","06114     ","41.741571","-72.680041","N ","D","1","1 ","300 ","Rescue, EMS incident, other                       "
,"2013-01-04T00:00:00.000","13-0004063","05 ","20574          ","218     ","  ","LAUREL                   ","ST  ","  ","                         ","  ","    ","  ","Hartford                 ","CT","06105     ","41.765344","-72.697324","N ","D","1","1 ","300 ","Rescue, EMS incident, other                       "
,"2013-01-04T00:00:00.000","13-0004064","14 ","               ","67      ","  ","ADAMS                    ","ST  ","  ","                         ","  ","    ","  ","Hartford                 ","CT","06112     ","41.782479","-72.699643","N ","D","1","1 ","300 ","Rescue, EMS incident, other                       "
,"2013-01-04T00:00:00.000","13-0004065","14 ","12833          ","26      ","  ","VINE                     ","ST  ","  ","                         ","  ","    ","  ","Hartford                 ","CT","06112     ","41.779810","-72.689017","N ","D","1","1 ","311 ","Medical assist, assist EMS crew                   "
,"2013-01-04T00:00:00.000","13-0004066","08 ","21153          ","164     ","  ","LAWRENCE                 ","ST  ","  ","                         ","  ","    ","  ","Hartford                 ","CT","06106     ","41.760350","-72.688400","N ","D","1","1 ","300 ","Rescue, EMS incident, other                       "
,"2013-01-04T00:00:00.000","13-0004067","02 ","30055          ","942     ","  ","MAIN                     ","ST  ","  ","                         ","  ","    ","  ","Hartford                 ","CT","06103     ","41.767995","-72.673538","N ","D","1","3 ","745 ","Alarm system activation, no fire - unintentional  "
,"2013-01-04T00:00:00.000","13-0004068","02 ","18667          ","33      ","  ","CENTER                   ","ST  ","  ","                         ","  ","    ","  ","Hartford                 ","CT","06120     ","41.776933","-72.681167","N ","D","1","1 ","321 ","EMS call, excluding vehicle accident with injury  "
,"2013-01-04T00:00:00.000","13-0004069","07 ","6928           ","45      ","  ","BARBOUR                  ","ST  ","  ","                         ","  ","    ","  ","Hartford                 ","CT","06120     ","41.786437","-72.679633","N ","D","1","1 ","300 ","Rescue, EMS incident, other                       "
,"2013-01-04T00:00:00.000","13-0004070","15 ","27311          ","375     ","  ","HILLSIDE                 ","AV  ","  ","                         ","  ","    ","  ","Hartford                 ","CT","06106     ","41.741043","-72.697865","N ","D","1","1 ","552 ","Police matter                                     "
,"2013-01-04T00:00:00.000","13-0004071","02 ","               ","59      ","  ","BELDEN                   ","ST  ","  ","                         ","  ","    ","  ","Hartford                 ","CT","06120     ","41.775800","-72.680400","N ","D","1","1 ","321 ","EMS call, excluding vehicle accident with injury  "
,"2013-01-04T00:00:00.000","13-0004072","16 ","4572           ","98      ","  ","EUCLID                   ","ST  ","WE","                         ","  ","    ","  ","Hartford                 ","CT","06112     ","41.806000","-72.697900","N ","D","1","1 ","520 ","Water problem, Other                              "
,"2013-01-05T00:00:00.000","13-0005001","14 ","14461          ","18      ","  ","ADAMS                    ","ST  ","  ","                         ","  ","    ","  ","Hartford                 ","CT","06112     ","41.780752","-72.700595","N ","D","1","1 ","552 ","Police matter                                     "
,"2013-01-05T00:00:00.000","13-0005002","10 ","25545          ","207     ","  ","BRAINARD                 ","RD  ","  ","                         ","  ","    ","  ","Hartford                 ","CT","06114     ","41.734256","-72.659868","N ","D","1","1 ","552 ","Police matter                                     "
,"2013-01-05T00:00:00.000","13-0005003","10 ","31427          ","46      ","  ","SOUTH                    ","ST  ","  ","                         ","  ","    ","  ","Hartford                 ","CT","06114     ","41.735700","-72.673400","N ","D","1","4 ","622 ","No Incident found on arrival at dispatch address  "
,"2013-01-05T00:00:00.000","13-0005004","10 ","31427          ","46      ","  ","SOUTH                    ","ST  ","  ","                         ","  ","    ","  ","Hartford                 ","CT","06114     ","41.735700","-72.673400","N ","D","1","4 ","552 ","Police matter                                     "
,"2013-01-05T00:00:00.000","13-0005005","11 ","10332          ","31      ","  ","EVERGREEN                ","AV  ","  ","                         ","  ","    ","  ","Hartford                 ","CT","06105     ","41.764800","-72.709200","N ","D","1","1 ","552 ","Police matter                                     "
,"2013-01-05T00:00:00.000","13-0005006","10 ","               ","217     ","  ","FRANKLIN                 ","AV  ","  ","                         ","  ","    ","  ","Hartford                 ","CT","06114     ","41.745092","-72.677208","N ","D","1","1 ","736 ","CO detector activation due to malfunction         "
,"2013-01-05T00:00:00.000","13-0005007","01 ","               ","466     ","  ","HUDSON                   ","ST  ","  ","                         ","  ","    ","  ","Hartford                 ","CT","06106     ","41.757202","-72.678823","N ","D","1","1 ","311 ","Medical assist, assist EMS crew                   "
,"2013-01-05T00:00:00.000","13-0005008","05 ","21187          ","24      ","  ","PARK                     ","TER ","  ","                         ","  ","    ","  ","Hartford                 ","CT","06106     ","41.763108","-72.692800","N ","D","1","1 ","412 ","Gas leak (natural gas or LPG)                     "
,"2013-01-05T00:00:00.000","13-0005009","05 ","11582          ","10      ","  ","MARSHALL                 ","ST  ","  ","                         ","  ","    ","  ","Hartford                 ","CT","06105     ","41.768111","-72.698733","N ","D","1","1 ","521 ","Water evacuation                                  "
,"2013-01-05T00:00:00.000","13-0005010","02 ","17849          ","402     ","  ","ALBANY                   ","AV  ","  ","                         ","  ","    ","  ","Hartford                 ","CT","06120     ","41.777053","-72.683871","N ","D","1","1 ","321 ","EMS call, excluding vehicle accident with injury  "
,"2013-01-05T00:00:00.000","13-0005011","07 ","6939           ","91      ","  ","BARBOUR                  ","ST  ","  ","                         ","  ","    ","  ","Hartford                 ","CT","06120     ","41.787731","-72.679250","N ","D","1","1 ","100 ","Fire, Other                                       "
,"2013-01-05T00:00:00.000","13-0005012","05 ","               ","        ","  ","FARMINGTON               ","AV  ","  ","IMLAY                    ","  ","ST  ","  ","Hartford                 ","CT","06105     ","41.767600","-72.695700","N ","D","1","1 ","622 ","No Incident found on arrival at dispatch address  "
,"2013-01-05T00:00:00.000","13-0005013","05 ","11582          ","10      ","  ","MARSHALL                 ","ST  ","  ","                         ","  ","    ","  ","Hartford                 ","CT","06105     ","41.768111","-72.698733","N ","D","1","1 ","520 ","Water problem, Other                              "
,"2013-01-05T00:00:00.000","13-0005014","16 ","53197          ","100     ","  ","COVENTRY                 ","ST  ","  ","                         ","  ","    ","  ","Hartford                 ","CT","06112     ","41.799344","-72.690200","N ","D","1","1 ","311 ","Medical assist, assist EMS crew                   "
,"2013-01-05T00:00:00.000","13-0005015","08 ","21125          ","25      ","  ","LAUREL                   ","ST  ","  ","                         ","  ","    ","  ","Hartford                 ","CT","06106     ","41.759500","-72.697000","N ","D","1","1 ","300 ","Rescue, EMS incident, other                       "
,"2013-01-05T00:00:00.000","13-0005016","02 ","               ","        ","  ","CHAPEL                   ","ST  ","SO","TRUMBULL                 ","  ","ST  ","  ","Hartford                 ","CT","06103     ","41.769613","-72.675769","N ","D","1","1 ","322 ","Motor vehicle accident with injuries              "
,"2013-01-05T00:00:00.000","13-0005017","01 ","54425          ","19      ","  ","NORWICH                  ","ST  ","  ","                         ","  ","    ","  ","Hartford                 ","CT","06106     ","41.756321","-72.671207","N ","A","1","1 ","321 ","EMS call, excluding vehicle accident with injury  "
,"2013-01-05T00:00:00.000","13-0005018","14 ","13642          ","1229    ","  ","ALBANY                   ","AV  ","  ","                         ","  ","    ","  ","Hartford                 ","CT","06112     ","41.782317","-72.696897","N ","A","1","1 ","300 ","Rescue, EMS incident, other                       "
,"2013-01-05T00:00:00.000","13-0005019","05 ","19663          ","15      ","  ","WOODLAND                 ","ST  ","  ","                         ","  ","    ","  ","Hartford                 ","CT","06105     ","41.768272","-72.702389","N ","A","1","1 ","311 ","Medical assist, assist EMS crew                   "
,"2013-01-05T00:00:00.000","13-0005020","01 ","               ","100     ","  ","CONSTITUTION PLAZA       ","    ","  ","                         ","  ","    ","  ","Hartford                 ","CT","06103     ","41.767400","-72.671200","N ","A","1","1 ","321 ","EMS call, excluding vehicle accident with injury  "
,"2013-01-05T00:00:00.000","13-0005021","10 ","31477          ","54      ","  ","STANDISH                 ","ST  ","  ","                         ","  ","    ","  ","Hartford                 ","CT","06114     ","41.736517","-72.673830","N ","A","1","1 ","311 ","Medical assist, assist EMS crew                   "
,"2013-01-05T00:00:00.000","13-0005022","16 ","5426           ","675     ","  ","TOWER                    ","AV  ","  ","                         ","  ","    ","  ","Hartford                 ","CT","06112     ","41.800719","-72.693681","N ","A","1","1 ","311 ","Medical assist, assist EMS crew                   "
,"2013-01-05T00:00:00.000","13-0005024","16 ","1300           ","326     ","  ","CORNWALL                 ","ST  ","  ","                         ","  ","    ","  ","Hartford                 ","CT","06112     ","41.798044","-72.698589","N ","A","1","1 ","311 ","Medical assist, assist EMS crew                   "
,"2013-01-05T00:00:00.000","13-0005023","08 ","15440          ","58      ","  ","HAMILTON                 ","ST  ","  ","                         ","  ","    ","  ","Hartford                 ","CT","06106     ","41.752734","-72.696151","N ","A","1","1 ","311 ","Medical assist, assist EMS crew                   "
,"2013-01-05T00:00:00.000","13-0005025","15 ","27351          ","133     ","  ","FLATBUSH                 ","AV  ","  ","                         ","  ","    ","  ","Hartford                 ","CT","06106     ","41.744253","-72.699611","N ","A","1","1 ","300 ","Rescue, EMS incident, other                       "
,"2013-01-05T00:00:00.000","13-0005026","07 ","7066           ","94      ","  ","WESTLAND                 ","ST  ","  ","                         ","  ","    ","  ","Hartford                 ","CT","06120     ","41.790183","-72.677150","N ","A","1","1 ","300 ","Rescue, EMS incident, other                       "
,"2013-01-05T00:00:00.000","13-0005027","05 ","11322          ","82      ","  ","GILLETT                  ","ST  ","  ","                         ","  ","    ","  ","Hartford                 ","CT","06105     ","41.770470","-72.699596","N ","A","1","1 ","736 ","CO detector activation due to malfunction         "
,"2013-01-05T00:00:00.000","13-0005028","08 ","               ","        ","  ","HUNGERFORD               ","ST  ","  ","PARK                     ","  ","ST  ","  ","Hartford                 ","CT","06106     ","41.757800","-72.686400","N ","A","1","1 ","321 ","EMS call, excluding vehicle accident with injury  "
,"2013-01-05T00:00:00.000","13-0005029","02 ","               ","200     ","  ","ASYLUM                   ","ST  ","  ","                         ","  ","    ","  ","Hartford                 ","CT","06103     ","41.767106","-72.677461","N ","A","1","2 ","741 ","Sprinkler activation, no fire - unintentional     "
,"2013-01-05T00:00:00.000","13-0005030","05 ","11137          ","199     ","  ","SIGOURNEY                ","ST  ","  ","                         ","  ","    ","  ","Hartford                 ","CT","06105     ","41.772400","-72.693060","N ","A","1","1 ","300 ","Rescue, EMS incident, other                       "
,"2013-01-05T00:00:00.000","13-0005031","15 ","33219          ","1914    ","  ","BROAD                    ","ST  ","  ","                         ","  ","    ","  ","Hartford                 ","CT","06114     ","41.740150","-72.687750","N ","A","1","1 ","520 ","Water problem, Other                              "
,"2013-01-05T00:00:00.000","13-0005032","11 ","               ","        ","  ","CAPITOL                  ","AV  ","  ","NEWTON                   ","  ","ST  ","  ","Hartford                 ","CT","06106     ","41.760500","-72.707700","N ","A","1","1 ","300 ","Rescue, EMS incident, other                       "
,"2013-01-05T00:00:00.000","13-0005033","07 ","50053          ","42      ","  ","MONTVILLE                ","ST  ","  ","                         ","  ","    ","  ","Hartford                 ","CT","06120     ","41.794683","-72.665496","N ","A","1","1 ","300 ","Rescue, EMS incident, other                       "
,"2013-01-05T00:00:00.000","13-0005034","08 ","               ","        ","  ","HUNGERFORD               ","ST  ","  ","PARK                     ","  ","ST  ","  ","Hartford                 ","CT","06106     ","41.757800","-72.686400","N ","A","1","1 ","200 ","Overpressure rupture, explosion, overheat other   "
,"2013-01-05T00:00:00.000","13-0005035","07 ","7260           ","314     ","  ","CAPEN                    ","ST  ","  ","                         ","  ","    ","  ","Hartford                 ","CT","06112     ","41.786702","-72.686808","N ","A","1","1 ","300 ","Rescue, EMS incident, other                       "
,"2013-01-05T00:00:00.000","13-0005036","07 ","               ","        ","  ","BARBOUR                  ","ST  ","  ","JUDSON                   ","  ","ST  ","  ","Hartford                 ","CT","06120     ","41.788900","-72.678900","N ","A","1","1 ","300 ","Rescue, EMS incident, other                       "
,"2013-01-05T00:00:00.000","13-0005037","11 ","43276          ","150     ","  ","NEW PARK                 ","AV  ","  ","                         ","  ","    ","  ","Hartford                 ","CT","06106     ","41.752367","-72.709600","N ","A","1","1 ","300 ","Rescue, EMS incident, other                       "
,"2013-01-05T00:00:00.000","13-0005038","16 ","4906           ","122     ","  ","HAROLD                   ","ST  ","  ","                         ","  ","    ","  ","Hartford                 ","CT","06112     ","41.804400","-72.700100","N ","A","1","1 ","311 ","Medical assist, assist EMS crew                   "
,"2013-01-05T00:00:00.000","13-0005039","11 ","22690          ","92      ","  ","CHADWICK                 ","AV  ","  ","                         ","  ","    ","  ","Hartford                 ","CT","06106     ","41.759500","-72.708700","N ","A","1","1 ","300 ","Rescue, EMS incident, other                       "
,"2013-01-05T00:00:00.000","13-0005040","05 ","20538          ","224     ","  ","SOUTH MARSHALL           ","ST  ","  ","                         ","  ","    ","  ","Hartford                 ","CT","06105     ","41.766020","-72.698991","N ","A","1","1 ","300 ","Rescue, EMS incident, other                       "
,"2013-01-05T00:00:00.000","13-0005041","05 ","54801          ","114     ","  ","ASHLEY                   ","ST  ","  ","                         ","  ","    ","  ","Hartford                 ","CT","06105     ","41.774233","-72.692317","N ","A","1","1 ","714 ","Central station, malicious false alarm            "
,"2013-01-05T00:00:00.000","13-0005042","10 ","35681          ","17      ","  ","BUSHNELL                 ","ST  ","  ","                         ","  ","    ","  ","Hartford                 ","CT","06114     ","41.740896","-72.677354","N ","A","1","1 ","311 ","Medical assist, assist EMS crew                   "
,"2013-01-05T00:00:00.000","13-0005043","11 ","21845          ","85      ","  ","HEATH                    ","ST  ","  ","                         ","  ","    ","  ","Hartford                 ","CT","06106     ","41.757964","-72.711064","N ","A","1","1 ","300 ","Rescue, EMS incident, other                       "
,"2013-01-05T00:00:00.000","13-0005044","08 ","14673          ","18      ","  ","COLUMBIA                 ","ST  ","  ","                         ","  ","    ","  ","Hartford                 ","CT","06106     ","41.763133","-72.691717","N ","A","1","1 ","321 ","EMS call, excluding vehicle accident with injury  "
,"2013-01-05T00:00:00.000","13-0005045","05 ","11322          ","82      ","  ","GILLETT                  ","ST  ","  ","                         ","  ","    ","  ","Hartford                 ","CT","06105     ","41.770470","-72.699596","N ","A","1","1 ","736 ","CO detector activation due to malfunction         "
,"2013-01-05T00:00:00.000","13-0005046","05 ","20080          ","600     ","  ","ASYLUM                   ","AV  ","  ","                         ","  ","    ","  ","Hartford                 ","CT","06105     ","41.768050","-72.684850","N ","A","1","1 ","622 ","No Incident found on arrival at dispatch address  "
