"objectid","alm_time","alm_date","inci_no","station","occup_id","number","st_prefix","street","st_type","st_suffix","xstreet","xst_prefix","xst_type","xst_suffix","city","state","zip","latitude","longitude","mutl_aid","shift","alarms","alm_type","inci_type","descript","geom"
"36485",,"2013-08-16T00:00:00.000Z","13-0228045","8","15982","596",,"ZION","ST",,,,,,"Hartford","CT","6106","41.757216","-72.692189","N","D","1","4","552","Police matter",
"29143",,"2013-05-01T00:00:00.000Z","13-0121010","2",,,,"MARKET","ST",,"PEQUOT",,"ST",,"Hartford","CT","6103","41.7736","-72.671","N","D","1","1","151","Outside rubbish, trash or waste fire",
"22041",,"2013-01-03T00:00:00.000Z","13-0003008","7",,"460",,"BARBOUR","ST",,,,,,"Hartford","CT","6120","41.797884","-72.676389","N","B","1","4","444","Power line down",
"15346",,"2012-09-13T00:00:00.000Z","12-0257014","1","25274","76",,"MAIN","ST",,,,,,"Hartford","CT","6106","41.756403","-72.675641","N","B","1","1","552","Police matter",
"24824",,"2013-02-14T00:00:00.000Z","13-0045021","2",,"132",,"WOOSTER","ST",,,,,,"Hartford","CT","6120","41.781595","-72.675233","N","A","1","1","300","Rescue, EMS incident, other",
"44459",,"2013-12-23T00:00:00.000Z","13-0357049","16","5426","675",,"TOWER","AV",,,,,,"Hartford","CT","6112","41.800719","-72.693681","N","A","1","1","311","Medical assist, assist EMS crew",
"30426",,"2013-05-20T00:00:00.000Z","13-0140048","15",,"24",,"CATHERINE","ST",,,,,,"Hartford","CT","6106","41.7463","-72.6986","N","D","1","1",,"Shutoff Open Hydrant",
"12034",,"2012-07-19T00:00:00.000Z","12-0201044","1","23617","322",,"HUDSON","ST",,,,,,"Hartford","CT","6106","41.759","-72.678155","N","C","1","1","520","Water problem, Other",
"24138",,"2013-02-04T00:00:00.000Z","13-0035054","7",,"273",,"BELLEVUE","ST",,,,,,"Hartford","CT","6120","41.783917","-72.673462","N","C","1","1","552","Police matter",
"6196",,"2012-04-18T00:00:00.000Z","12-0109003","8","15301","268",,"PARK","TER",,,,,,"Hartford","CT","6106","41.7541","-72.6948","N","B","1","1","444","Power line down",
"17253",,"2012-10-13T00:00:00.000Z","12-0287045","14","19272","1011",,"ALBANY","AV",,,,,,"Hartford","CT","6112","41.7809","-72.693067","N","A","1","6","500","Service Call, other",
"4142",,"2012-03-12T00:00:00.000Z","12-0072059","14","47065","20",,"DILLON","RD",,,,,,"Hartford","CT","6112","41.7862","-72.7059","N","B","1","4","444","Power line down",
"40158",,"2013-10-11T00:00:00.000Z","13-0284058","8",,,,"GRAND","ST",,"LAWRENCE",,"ST",,"Hartford","CT","6106","41.7594","-72.6874","N","D","1","1","552","Police matter",
"38144",,"2013-09-10T00:00:00.000Z","13-0253070","1","25278","60",,"MAIN","ST",,,,,,"Hartford","CT","6106","41.756251","-72.67561","N","A","1","1","552","Police matter",
"32728",,"2013-06-23T00:00:00.000Z","13-0174015","7","7802","166",,"WESTLAND","ST",,,,,,"Hartford","CT","6120","41.790729","-72.68","N","B","1","1","444","Power line down",
"33335",,"2013-07-01T00:00:00.000Z","13-0182048","11","19549","170",,"SISSON","AV",,,,,,"Hartford","CT","6105","41.763408","-72.707046","N","B","1","1","553","Public service",
"21199",,"2012-12-19T00:00:00.000Z","12-0354009","16","4985","40",,"EAST BURNHAM","ST",,,,,,"Hartford","CT","6112","41.8054","-72.694","N","C","1","1","553","Public service",
"35781",,"2013-08-05T00:00:00.000Z","13-0217020","1",,,,"ELM","ST",,"TRINITY",,"ST",,"Hartford","CT","6106","41.7638","-72.6809","N","A","1","6","511","Lock-out",
"33907",,"2013-07-09T00:00:00.000Z","13-0190002","7","7516","12",,"ROCKVILLE","ST",,,,,,"Hartford","CT","6112","41.789492","-72.684274","N","A","1","1","531","Smoke or odor removal",
"27819",,"2013-04-09T00:00:00.000Z","13-0099007","11","9274","31",,"WHITNEY","ST",,,,,,"Hartford","CT","6105","41.767135","-72.711403","N","B","1","1","300","Rescue, EMS incident, other",
"38340",,"2013-09-13T00:00:00.000Z","13-0256021","2","50635","444",,"ALBANY","AV",,,,,,"Hartford","CT","6120","41.777278","-72.6846","N","D","1","1","552","Police matter",
"39473",,"2013-10-01T00:00:00.000Z","13-0274017","10","30251","853",,"WETHERSFIELD","AV",,,,,,"Hartford","CT","6114","41.732733","-72.670467","N","B","1","1","111","Building fire",
"3",,"2012-01-01T00:00:00.000Z","12-0001003","7","8313","40",,"SANFORD","ST",,,,,,"Hartford","CT","6120","41.7868","-72.6727","N","B","1","1","552","Police matter",
"14099",,"2012-08-22T00:00:00.000Z","12-0236001","7",,,,"ENFIELD","ST",,"NELSON",,"ST",,"Hartford","CT","6112","41.7889","-72.6838","N","A","1","1","552","Police matter",
"16536",,"2012-10-02T00:00:00.000Z","12-0276005","14","14410","1331",,"ALBANY","AV",,,,,,"Hartford","CT","6112","41.78285","-72.69855","N","A","1","1","300","Rescue, EMS incident, other",
"20449",,"2012-12-06T00:00:00.000Z","12-0341023",,,"235",,"MAIN","ST",,,,,,"East Hartford","CT","0","0","0","3","C","1","6","531","Smoke or odor removal",
"7236",,"2012-05-07T00:00:00.000Z","12-0128027","8","15970","9",,"PUTNAM","ST",,,,,,"Hartford","CT","6106","41.7561","-72.6907","N","B","1","1","311","Medical assist, assist EMS crew",
"29710",,"2013-05-09T00:00:00.000Z","13-0129051","15","32799","67",,"NEWBURY","ST",,,,,,"Hartford","CT","6114","41.740639","-72.691112","N","A","1","1","552","Police matter",
"7240",,"2012-05-07T00:00:00.000Z","12-0128031","2","18852","179",,"MATHER","ST",,,,,,"Hartford","CT","6120","41.780114","-72.684729","N","B","1","1","443","Breakdown of light ballast",
"678",,"2012-01-12T00:00:00.000Z","12-0012054","8","15234","555",,"ZION","ST",,,,,,"Hartford","CT","6106","41.756211","-72.692467","N","B","1","1","552","Police matter",
"35613",,"2013-08-02T00:00:00.000Z","13-0214048","1","40801","137",,"FRANKLIN","AV",,,,,,"Hartford","CT","6114","41.7476","-72.67755","N","B","1","1","300","Rescue, EMS incident, other",
"40814",,"2013-10-21T00:00:00.000Z","13-0294064","1",,"20",,"RESERVE","RD",,,,,,"Hartford","CT","6114","41.744971","-72.654","N","B","1","1","300","Rescue, EMS incident, other",
"12185",,"2012-07-21T00:00:00.000Z","12-0203061","7","7487","75",,"WINCHESTER","ST",,,,,,"Hartford","CT","6112","41.7903","-72.6842","N","A","1","6","531","Smoke or odor removal",
"42581",,"2013-11-20T00:00:00.000Z","13-0324044","14","14003","42",,"STERLING","ST",,,,,,"Hartford","CT","6112","41.778977","-72.694631","N","D","1","1","553","Public service",
"1345",,"2012-01-24T00:00:00.000Z","12-0024038","14","2858","260",,"HOLCOMB","ST",,,,,,"Hartford","CT","6112","41.795729","-72.7004","N","B","1","1","552","Police matter",
"6299",,"2012-04-20T00:00:00.000Z","12-0111048","15","34340","1861",,"PARK","ST",,,,,,"Hartford","CT","6106","41.756448","-72.709872","N","A","1","1","300","Rescue, EMS incident, other",
"44295",,"2013-12-20T00:00:00.000Z","13-0354025","11","34772","7",,"KANE","ST",,,,,,"Hartford","CT","6106","41.751367","-72.710767","N","B","1","1","511","Lock-out",
"280",,"2012-01-06T00:00:00.000Z","12-0006007","16",,"258",,"NAHUM","DR",,,,,,"Hartford","CT","6112","41.8059","-72.7086","N","C","1","4","131","Passenger vehicle fire",
"17732",,"2012-10-21T00:00:00.000Z","12-0295042","9","28861","147",,"COOLIDGE","ST",,,,,,"Hartford","CT","6106","41.7386","-72.7039","N","A","1","1","442","Overheated motor",
"8453",,"2012-05-26T00:00:00.000Z","12-0147063","2",,"1",,"PEQUOT","ST",,,,,,"Hartford","CT","6120","41.7736","-72.671","N","A","1","6","300","Rescue, EMS incident, other",
"8218",,"2012-05-22T00:00:00.000Z","12-0143066","14","12816","46",,"VINE","ST",,,,,,"Hartford","CT","6112","41.780569","-72.688948","N","A","1","1","300","Rescue, EMS incident, other",
"21921",,"2013-01-01T00:00:00.000Z","13-0001021","5","11329","60",,"NILES","ST",,,,,,"Hartford","CT","6105","41.769957","-72.698671","N","B","1","1","552","Police matter",
"40261","2023-06-16T00:00:00.000Z","2013-10-12T00:00:00.000Z","13-0285090","8",,,,"LAUREL","ST",,"PARK",,"ST",,"Hartford","CT","6106","41.7576","-72.697","N","A","1","1","552","Police matter",
"28548",,"2013-04-20T00:00:00.000Z","13-0110042","10","30885","156",,"GEORGE ST",,,,,,,"Hartford","CT","6114","41.733562","-72.679385","N","B","1","1","511","Lock-out",
"2536",,"2012-02-14T00:00:00.000Z","12-0045021","11","21125","25",,"LAUREL","ST",,,,,,"Hartford","CT","6106","41.7595","-72.697","N","C","1","1","300","Rescue, EMS incident, other",
"26630",,"2013-03-18T00:00:00.000Z","13-0077046","8","20784","744",,"PARK","ST",,,,,,"Hartford","CT","6106","41.7579","-72.6898","N","A","1","1","520","Water problem, Other",
"21193",,"2012-12-19T00:00:00.000Z","12-0354003","15","27033","62",,"HUGHES","ST",,,,,,"Hartford","CT","6106","41.742445","-72.696762","N","C","1","1","300","Rescue, EMS incident, other",
"31731",,"2013-06-08T00:00:00.000Z","13-0159066","7","17003","98",,"WESTON","ST",,,,,,"Hartford","CT","6120","41.784607","-72.66581","N","C","1","1","311","Medical assist, assist EMS crew",
"19499",,"2012-11-19T00:00:00.000Z","12-0324045","15","39773","20",,"SCHOOL","ST",,,,,,"Hartford","CT","6106","41.7475","-72.6874","N","B","1","1","311","Medical assist, assist EMS crew",
"13183",,"2012-08-08T00:00:00.000Z","12-0221024","11","9416","28",,"WHITNEY","ST",,,,,,"Hartford","CT","6105","41.767213","-72.711417","N","C","1","1","300","Rescue, EMS incident, other",
"29455",,"2013-05-05T00:00:00.000Z","13-0125058","11","34778","100",,"PROSPECT","AV",,,,,,"Hartford","CT","6106","41.7479","-72.7151","N","A","1","3","531","Smoke or odor removal",
"35053",,"2013-07-25T00:00:00.000Z","13-0206016","15","26375","257",,"SAYBROOKE","ST",,,,,,"Hartford","CT","6106","41.746506","-72.702945","N","B","1","3","531","Smoke or odor removal",
"17382",,"2012-10-15T00:00:00.000Z","12-0289051","5",,,,"COLLINS","ST",,"WILLARD",,"ST",,"Hartford","CT","6105","41.7732","-72.6943","N","C","1","1","324","Motor Vehicle Accident with no injuries",
"42723",,"2013-11-23T00:00:00.000Z","13-0327008","2","2062","241",,"ASYLUM","ST",,,,,,"Hartford","CT","6103","41.767163","-72.67803","N","B","1","3","531","Smoke or odor removal",
"3559",,"2012-03-03T00:00:00.000Z","12-0063009","14","13455","1132",,"ALBANY","AV",,,,,,"Hartford","CT","6112","41.781695","-72.695202","N","D","1","1","311","Medical assist, assist EMS crew",
"24844",,"2013-02-14T00:00:00.000Z","13-0045041","16",,,,"HAROLD","ST",,"HARTLAND",,"ST",,"Hartford","CT","6112","41.8044","-72.7001","N","A","1","1","552","Police matter",
"14969",,"2012-09-07T00:00:00.000Z","12-0251017","8","50643","34",,"PUTNAM","ST",,,,,,"Hartford","CT","6106","41.7567","-72.6907","N","A","1","6","900","Special type of incident, Other",
"27123",,"2013-03-27T00:00:00.000Z","13-0086044","5","14114","80",,"EDGEWOOD","ST",,,,,,"Hartford","CT","6112","41.779773","-72.69134","N","B","1","1","621","Wrong location",
"15100",,"2012-09-09T00:00:00.000Z","12-0253023","10","25760","990",,"WETHERSFIELD","AV",,,,,,"Hartford","CT","6114","41.728595","-72.668795","N","C","1","1","554","Assist invalid",
"34106",,"2013-07-12T00:00:00.000Z","13-0193034","9",,,,"BRINLEY","AV",,"DEXTER",,"ST",,"Hartford","CT","6106","41.7344","-72.7122","N","A","1","6","422","Chemical spill or leak",
"111",,"2012-01-02T00:00:00.000Z","12-0002043","14","7579","275",,"WESTLAND","ST",,,,,,"Hartford","CT","6112","41.791967","-72.685133","N","D","1","1","300","Rescue, EMS incident, other",
"1221",,"2012-01-22T00:00:00.000Z","12-0022047","14","48169","141",,"WOODLAND","ST",,,,,,"Hartford","CT","6105","41.77675","-72.6988","N","D","1","1","520","Water problem, Other",
"41063",,"2013-10-25T00:00:00.000Z","13-0298062","8",,"950",,"BROAD","ST",,,,,,"Hartford","CT","6106","41.756188","-72.6875","N","B","1","4","552","Police matter",
"36778",,"2013-08-21T00:00:00.000Z","13-0233040","15","40482","45",,"WEBSTER","ST",,,,,,"Hartford","CT","6114","41.744594","-72.683282","N","A","1","1","554","Assist invalid",
"32532",,"2013-06-20T00:00:00.000Z","13-0171050","15","32830","249",,"NEW BRITAIN","AV",,,,,,"Hartford","CT","6106","41.743388","-72.69077","N","C","1","1","531","Smoke or odor removal",
"36323",,"2013-08-13T00:00:00.000Z","13-0225059","1",,"200",,"RETREAT","AV",,,,,,"Hartford","CT","6106","41.751435","-72.68213","N","A","1","1","900","Special type of incident, Other",
"19453",,"2012-11-18T00:00:00.000Z","12-0323043","7","7579","275",,"WESTLAND","ST",,,,,,"Hartford","CT","6112","41.791967","-72.685133","N","A","1","1","300","Rescue, EMS incident, other",
"2345",,"2012-02-11T00:00:00.000Z","12-0042005","11","19652","64",,"EVERGREEN","AV",,,,,,"Hartford","CT","6105","41.764108","-72.709062","N","C","1","1","311","Medical assist, assist EMS crew",
"26955",,"2013-03-24T00:00:00.000Z","13-0083034","5","11263","63",,"HUNTINGTON","ST",,,,,,"Hartford","CT","6105","41.770089","-72.691916","N","C","1","1","744","Detector activation, no fire - unintentional",
"18564",,"2012-11-03T00:00:00.000Z","12-0308033","14","6031","226",,"VINE","ST",,,,,,"Hartford","CT","6112","41.786673","-72.688409","N","B","1","1","321","EMS call, excluding vehicle accident with injury",
"4033",,"2012-03-10T00:00:00.000Z","12-0070068","14","8506","637",,"GARDEN","ST",,,,,,"Hartford","CT","6112","41.787932","-72.682688","N","D","1","1","300","Rescue, EMS incident, other",
"15030",,"2012-09-08T00:00:00.000Z","12-0252016","8","19518","560",,"PARK","ST",,,,,,"Hartford","CT","6106","41.7578","-72.6864","N","A","1","1","311","Medical assist, assist EMS crew",
"9029",,"2012-06-04T00:00:00.000Z","12-0156019","14","11771","150",,"SCARBOROUGH","ST",,,,,,"Hartford","CT","6105","41.78045","-72.7095","N","B","1","3","746","Carbon monoxide detector activation, no CO",
"30790",,"2013-05-25T00:00:00.000Z","13-0145067","10",,,,"BROWN","ST",,"CAMPFIELD",,"AV",,"Hartford","CT","6114","41.736","-72.6819","N","A","1","1","324","Motor Vehicle Accident with no injuries",
"8599",,"2012-05-28T00:00:00.000Z","12-0149064","5",,"231",,"ASHLEY","ST",,,,,,"Hartford","CT","6105","41.775324","-72.697028","N","C","1","1","331","Lock-in (if lock out , use 511 )",
"16971","2010-08-20T00:00:00.000Z","2012-10-09T00:00:00.000Z","12-0283019","15","36672","742",,"MAPLE","AV",,,,,,"Hartford","CT","6114","41.739892","-72.684885","N","A","1","1","300","Rescue, EMS incident, other",
"7933",,"2012-05-18T00:00:00.000Z","12-0139071","16","3879","37",,"COLEBROOK","ST",,,,,,"Hartford","CT","6112","41.794818","-72.6956","N","A","1","1","321","EMS call, excluding vehicle accident with injury",
"19728",,"2012-11-23T00:00:00.000Z","12-0328052","1","54788","6",,"GROTON","ST",,,,,,"Hartford","CT","6106","41.754538","-72.673546","N","B","1","1","321","EMS call, excluding vehicle accident with injury",
"12387",,"2012-07-25T00:00:00.000Z","12-0207010","1","50260","140",,"HUYSHOPE","AV",,,,,,"Hartford","CT","6106","41.755231","-72.66445","N","D","1","1","311","Medical assist, assist EMS crew",
"29549",,"2013-05-07T00:00:00.000Z","13-0127013","2",,,,"BELDEN","ST",,"MAIN",,"ST",,"Hartford","CT","6120","41.7753","-72.6771","N","B","1","1","324","Motor Vehicle Accident with no injuries",
"23911",,"2013-02-01T00:00:00.000Z","13-0032025","1","23953","510",,"HUDSON","ST",,,,,,"Hartford","CT","6106","41.75648","-72.678995","N","D","1","2","745","Alarm system activation, no fire - unintentional",
"10864","2015-12-15T00:00:00.000Z","2012-07-01T00:00:00.000Z","12-0183025","8","16230","99",,"BABCOCK","ST",,,,,,"Hartford","CT","6106","41.760745","-72.6898","N","A","1","1","322","Motor vehicle accident with injuries",
"43224",,"2013-12-01T00:00:00.000Z","13-0335050","14","46925","360",,"WOODLAND","ST",,,,,,"Hartford","CT","6112","41.778952","-72.697772","N","C","1","1","300","Rescue, EMS incident, other",
"4131",,"2012-03-12T00:00:00.000Z","12-0072048","5","18868","357",,"GARDEN","ST",,,,,,"Hartford","CT","6112","41.778435","-72.685862","N","B","1","1","321","EMS call, excluding vehicle accident with injury",
"2529",,"2012-02-14T00:00:00.000Z","12-0045014","1","15797","920",,"BROAD","ST",,,,,,"Hartford","CT","6106","41.75662","-72.6875","N","C","1","1","321","EMS call, excluding vehicle accident with injury",
"3728",,"2012-03-05T00:00:00.000Z","12-0065066","15","39644","44",,"NEW BRITAIN","AV",,,,,,"Hartford","CT","6106","41.746274","-72.685368","N","C","1","1","311","Medical assist, assist EMS crew",
"41716",,"2013-11-06T00:00:00.000Z","13-0310003","8","21125","25",,"LAUREL","ST",,,,,,"Hartford","CT","6106","41.7595","-72.697","N","A","1","1","300","Rescue, EMS incident, other",
"18226",,"2012-10-29T00:00:00.000Z","12-0303046","1","24845","12",,"GROTON","ST",,,,,,"Hartford","CT","6106","41.754746","-72.673615","N","A","1","1","553","Public service",
"23880",,"2013-01-31T00:00:00.000Z","13-0031086","10","31780","45",,"ADELAIDE","ST",,,,,,"Hartford","CT","6114","41.742203","-72.675222","N","C","1","1","311","Medical assist, assist EMS crew",
"32927",,"2013-06-25T00:00:00.000Z","13-0176027","8","21399","470",,"BROAD","ST",,,,,,"Hartford","CT","6106","41.762887","-72.687228","N","D","1","1","300","Rescue, EMS incident, other",
"28433",,"2013-04-18T00:00:00.000Z","13-0108056","1","47863","80",,"CHARTER OAK","AV",,,,,,"Hartford","CT","6106","41.758862","-72.671177","N","D","1","1","321","EMS call, excluding vehicle accident with injury",
"1134",,"2012-01-20T00:00:00.000Z","12-0020054","16","3482","357",,"HOLCOMB","ST",,,,,,"Hartford","CT","6112","41.795362","-72.704809","N","B","1","1","311","Medical assist, assist EMS crew",
"31434",,"2013-06-04T00:00:00.000Z","13-0155045","1",,"10",,"STATE","ST",,,,,,"Hartford","CT","6103","41.76643","-72.673426","N","C","1","2","745","Alarm system activation, no fire - unintentional",
"3504",,"2012-03-02T00:00:00.000Z","12-0062009","15","33912","215",,"GRANDVIEW","TER",,,,,,"Hartford","CT","6114","41.736655","-72.691827","N","C","1","6","300","Rescue, EMS incident, other",
"25061",,"2013-02-18T00:00:00.000Z","13-0049004","7","7181","99",,"EARLE","ST",,,,,,"Hartford","CT","6120","41.79142","-72.674371","N","D","1","1","131","Passenger vehicle fire",
"26850",,"2013-03-22T00:00:00.000Z","13-0081055","10","40163","61",,"WHITMORE","ST",,,,,,"Hartford","CT","6114","41.744993","-72.679944","N","A","1","1","311","Medical assist, assist EMS crew",
"39800",,"2013-10-06T00:00:00.000Z","13-0279015","8","21013","753",,"PARK","ST",,,,,,"Hartford","CT","6106","41.7579","-72.6898","N","B","1","1","552","Police matter",
"32047",,"2013-06-13T00:00:00.000Z","13-0164013","10","25461","70",,"MURPHY","RD",,,,,,"Hartford","CT","6114","41.735729","-72.656167","N","D","1","1","321","EMS call, excluding vehicle accident with injury",
"3553",,"2012-03-03T00:00:00.000Z","12-0063003","1","41200","22",,"ELLIOTT","ST",,,,,,"Hartford","CT","6114","41.746424","-72.674894","N","D","1","1","300","Rescue, EMS incident, other",
"2018",,"2012-02-05T00:00:00.000Z","12-0036004","7","8272","2604",,"MAIN","ST",,,,,,"Hartford","CT","6120","41.789567","-72.671867","N","A","1","1","321","EMS call, excluding vehicle accident with injury",
"6839",,"2012-04-30T00:00:00.000Z","12-0121036","11","19471","580",,"FARMINGTON","AV",,,,,,"Hartford","CT","6105","41.765914","-72.712314","N","C","1","1","300","Rescue, EMS incident, other",
"11152",,"2012-07-05T00:00:00.000Z","12-0187069","10","36110","16",,"GILMAN","ST",,,,,,"Hartford","CT","6114","41.737509","-72.6786","N","A","1","1","510","Person in distress, Other",
"44235",,"2013-12-19T00:00:00.000Z","13-0353036","15","36643","53",,"CAMPFIELD","AV",,,,,,"Hartford","CT","6114","41.741567","-72.683033","N","A","1","1","321","EMS call, excluding vehicle accident with injury",
"238",,"2012-01-05T00:00:00.000Z","12-0005029","1","41150","182",,"FRANKLIN","AV",,,,,,"Hartford","CT","6114","41.7463","-72.67735","N","C","1","1","531","Smoke or odor removal",
"16831","2008-10-04T00:00:00.000Z","2012-10-07T00:00:00.000Z","12-0281015","14","12402","26",,"DEERFIELD","AV",,,,,,"Hartford","CT","6112","41.783325","-72.692625","N","C","1","1","111","Building fire",
"18093",,"2012-10-27T00:00:00.000Z","12-0301044","10","25569","100",,"BRAINARD","RD",,,,,,"Hartford","CT","6114","41.736665","-72.660006","N","C","1","1","322","Motor vehicle accident with injuries",
"10032",,"2012-06-20T00:00:00.000Z","12-0172019","7","6569","2311",,"MAIN","ST",,,,,,"Hartford","CT","6120","41.786235","-72.674388","N","B","1","1","300","Rescue, EMS incident, other",
"18098",,"2012-10-27T00:00:00.000Z","12-0301049","1","24831","17",,"NORWICH","ST",,,,,,"Hartford","CT","6106","41.756386","-72.671229","N","C","1","1","321","EMS call, excluding vehicle accident with injury",
"3034","2012-01-30T00:00:00.000Z","2012-02-23T00:00:00.000Z","12-0054019","1",,,,"PARK","ST",,"WASHINGTON",,"ST",,"Hartford","CT","6106","41.7578","-72.6829","N","D","1","1","321","EMS call, excluding vehicle accident with injury",
"2737","2020-08-02T00:00:00.000Z","2012-02-17T00:00:00.000Z","12-0048045","10","36536","58",,"CAMPFIELD","AV",,,,,,"Hartford","CT","6114","41.741418","-72.683023","N","B","1","1","552","Police matter",
"34668",,"2013-07-19T00:00:00.000Z","13-0200083","7",,,,"GARDEN","ST",,"NELSON",,"ST",,"Hartford","CT","6112","41.7887","-72.6824","N","D","1","1","622","No Incident found on arrival at dispatch address",
"10043",,"2012-06-20T00:00:00.000Z","12-0172030","1",,"474",,"HUDSON","ST",,,,,,"Hartford","CT","6106","41.75707","-72.678855","N","B","1","1","321","EMS call, excluding vehicle accident with injury",
"32302",,"2013-06-16T00:00:00.000Z","13-0167054","10","41561","360",,"WETHERSFIELD","AV",,,,,,"Hartford","CT","6114","41.746133","-72.6736","N","C","1","1","321","EMS call, excluding vehicle accident with injury",
"10516",,"2012-06-25T00:00:00.000Z","12-0177064","2","55078","222",,"BELLEVUE","ST",,,,,,"Hartford","CT","6120","41.782846","-72.673631","N","C","1","1","531","Smoke or odor removal",
"36532",,"2013-08-17T00:00:00.000Z","13-0229038","1","25296","250",,"MAIN","ST",,,,,,"Hartford","CT","6106","41.758352","-72.675643","N","A","1","1","353","Removal of victim(s) from stalled elevator",
"3168",,"2012-02-25T00:00:00.000Z","12-0056042","11",,,,"NEW PARK","AV",,"PARK",,"ST",,"Hartford","CT","6106","41.7571","-72.7063","N","B","1","1","300","Rescue, EMS incident, other",
"9018","2008-10-14T00:00:00.000Z","2012-06-04T00:00:00.000Z","12-0156008","2","17849","402",,"ALBANY","AV",,,,,,"Hartford","CT","6120","41.777053","-72.683871","N","B","1","1","735","Alarm system sounded due to malfunction",
"33765",,"2013-07-07T00:00:00.000Z","13-0188054","10","41266","359",,"WETHERSFIELD","AV",,,,,,"Hartford","CT","6114","41.745713","-72.673591","N","D","1","1","300","Rescue, EMS incident, other",
"8752",,"2012-05-31T00:00:00.000Z","12-0152032","5","19663","15",,"WOODLAND","ST",,,,,,"Hartford","CT","6105","41.768272","-72.702389","N","B","1","1","321","EMS call, excluding vehicle accident with injury",
"42902",,"2013-11-26T00:00:00.000Z","13-0330024","14","14000","44",,"STERLING","ST",,,,,,"Hartford","CT","6112","41.779031","-72.694567","N","B","1","1","321","EMS call, excluding vehicle accident with injury",
"39910",,"2013-10-07T00:00:00.000Z","13-0280052","11","21982","37",,"DOROTHY","ST",,,,,,"Hartford","CT","6106","41.7576","-72.7121","N","D","1","1","300","Rescue, EMS incident, other",
"27775","2012-01-30T00:00:00.000Z","2013-04-08T00:00:00.000Z","13-0098022","16","5429","500",,"BLUE HILLS","AV",,,,,,"Hartford","CT","6112","41.799418","-72.695573","N","B","1","1","311","Medical assist, assist EMS crew",
"22",,"2012-01-01T00:00:00.000Z","12-0001022","15","29258","217",,"NEWBURY","ST",,,,,,"Hartford","CT","6114","41.735383","-72.690483","N","B","1","1","622","No Incident found on arrival at dispatch address",
"6236",,"2012-04-19T00:00:00.000Z","12-0110013","7","7974","2909",,"MAIN","ST",,,,,,"Hartford","CT","6120","41.792194","-72.668735","N","D","1","1","322","Motor vehicle accident with injuries",
"28400",,"2013-04-18T00:00:00.000Z","13-0108023","1","24935","10",,"COLUMBUS","BLVD",,,,,,"Hartford","CT","6106","41.760841","-72.670772","N","D","1","1","650","Steam, Other gas mistaken for smoke, Other",
"13063",,"2012-08-06T00:00:00.000Z","12-0219006","16","47373","41",,"BERKELEY","DR",,,,,,"Hartford","CT","6112","41.804485","-72.708405","N","D","1","1","321","EMS call, excluding vehicle accident with injury",
"17249",,"2012-10-13T00:00:00.000Z","12-0287041","11","23042","5",,"GREENWOOD","ST",,,,,,"Hartford","CT","6106","41.755033","-72.7101","N","A","1","1","300","Rescue, EMS incident, other",
"5358",,"2012-04-04T00:00:00.000Z","12-0095022","11","9601","70",,"TREMONT","ST",,,,,,"Hartford","CT","6105","41.7648","-72.712333","N","A","1","3","735","Alarm system sounded due to malfunction",
"19182",,"2012-11-14T00:00:00.000Z","12-0319001","7","9200","141",,"WESTON","ST",,,,,,"Hartford","CT","6120","41.788007","-72.664576","N","D","1","1","321","EMS call, excluding vehicle accident with injury",
"27955",,"2013-04-11T00:00:00.000Z","13-0101012","1",,,,"GOLD","ST",,"LEWIS",,"ST",,"Hartford","CT","6103","41.764367","-72.6755","N","A","1","1","322","Motor vehicle accident with injuries",
"26549",,"2013-03-17T00:00:00.000Z","13-0076014","2","20100","95",,"SPRING","ST",,,,,,"Hartford","CT","6105","41.76899","-72.683996","N","C","1","1","321","EMS call, excluding vehicle accident with injury",
"10358",,"2012-06-23T00:00:00.000Z","12-0175036","15",,,,"HILLSIDE","AV",,"WARD",,"PL",,"Hartford","CT","6106","41.7502","-72.698","N","A","1","1","522","Water or steam leak",
"11373",,"2012-07-09T00:00:00.000Z","12-0191010","5","19261","20",,"SARGEANT","ST",,,,,,"Hartford","CT","6105","41.774419","-72.68786","N","A","1","1","311","Medical assist, assist EMS crew",
"43732",,"2013-12-11T00:00:00.000Z","13-0345016","10","41406","55",,"BOND","ST",,,,,,"Hartford","CT","6114","41.744562","-72.675088","N","A","1","1","321","EMS call, excluding vehicle accident with injury",
"24352",,"2013-02-08T00:00:00.000Z","13-0039018","8",,,,"BABCOCK","ST",,"RUSS",,"ST",,"Hartford","CT","6106","41.7614","-72.6898","N","C","1","4","300","Rescue, EMS incident, other",
"2331","2021-08-22T00:00:00.000Z","2012-02-10T00:00:00.000Z","12-0041040","8","14695","245",,"PUTNAM","ST",,,,,,"Hartford","CT","6106","41.76223","-72.6907","N","C","1","1","321","EMS call, excluding vehicle accident with injury",
"40196",,"2013-10-12T00:00:00.000Z","13-0285025","14","12649","116",,"EDGEWOOD","ST",,,,,,"Hartford","CT","6112","41.78092","-72.691","N","A","1","1","311","Medical assist, assist EMS crew",
"10647",,"2012-06-28T00:00:00.000Z","12-0180002","8","14950","85",,"WARD","ST",,,,,,"Hartford","CT","6106","41.755941","-72.686676","N","A","1","1","300","Rescue, EMS incident, other",
"8101",,"2012-05-21T00:00:00.000Z","12-0142016","1","23422","47",,"HUYSHOPE","AV",,,,,,"Hartford","CT","6106","41.757145","-72.666518","N","D","1","1","321","EMS call, excluding vehicle accident with injury",
"41203",,"2013-10-28T00:00:00.000Z","13-0301020","16","5429","500",,"BLUE HILLS","AV",,,,,,"Hartford","CT","6112","41.799418","-72.695573","N","A","1","1","321","EMS call, excluding vehicle accident with injury",
"38163",,"2013-09-10T00:00:00.000Z","13-0253089","7","8029","3545",,"MAIN","ST",,,,,,"Hartford","CT","6120","41.799703","-72.662161","N","A","1","1","311","Medical assist, assist EMS crew",
"35397",,"2013-07-30T00:00:00.000Z","13-0211024","14",,"40",,"BLUE HILLS","AV",,,,,,"Hartford","CT","6112","41.784204","-72.698348","N","C","1","6","324","Motor Vehicle Accident with no injuries",
"42642",,"2013-11-21T00:00:00.000Z","13-0325045","5","10474","262",,"SARGEANT","ST",,,,,,"Hartford","CT","6105","41.776114","-72.695338","N","A","1","1","520","Water problem, Other",
"9066",,"2012-06-04T00:00:00.000Z","12-0156056","1",,,,"MAPLE","AV",,"RETREAT",,"AV",,"Hartford","CT","6114","41.754644","-72.677175","N","B","1","1","324","Motor Vehicle Accident with no injuries",
"6330",,"2012-04-21T00:00:00.000Z","12-0112023","10","41389","411",,"WETHERSFIELD","AV",,,,,,"Hartford","CT","6114","41.744571","-72.6735","N","B","1","1","311","Medical assist, assist EMS crew",
"6710",,"2012-04-28T00:00:00.000Z","12-0119019","15","35423","292",,"BROWN","ST",,,,,,"Hartford","CT","6114","41.734975","-72.685792","N","A","1","1","321","EMS call, excluding vehicle accident with injury",
"28972","2023-07-29T00:00:00.000Z","2013-04-27T00:00:00.000Z","13-0117065","5","10566","156",,"SARGEANT","ST",,,,,,"Hartford","CT","6105","41.77541","-72.692345","N","A","1","1","740","Unintentional transmission of alarm, Other",
"36098",,"2013-08-10T00:00:00.000Z","13-0222016","9","28497","88",,"COOLIDGE","ST",,,,,,"Hartford","CT","6106","41.73885","-72.702","N","B","1","1","321","EMS call, excluding vehicle accident with injury",
"27472",,"2013-04-02T00:00:00.000Z","13-0092049","11","23081","29",,"GREENWOOD","ST",,,,,,"Hartford","CT","6106","41.7559","-72.710056","N","D","1","1","300","Rescue, EMS incident, other",
"40131",,"2013-10-11T00:00:00.000Z","13-0284031","2","1550","200",,"CHURCH","ST",,,,,,"Hartford","CT","6103","41.768881","-72.677108","N","D","1","1","500","Service Call, other",
"25090","2022-07-28T00:00:00.000Z","2013-02-18T00:00:00.000Z","13-0049064","15","38983","477",,"HILLSIDE","AV",,,,,,"Hartford","CT","6106","41.737467","-72.697203","N","A","1","1","554","Assist invalid",
"25203",,"2013-02-20T00:00:00.000Z","13-0051041","10","36209","201",,"PRESTON","ST",,,,,,"Hartford","CT","6114","41.73874","-72.68158","N","C","1","1","531","Smoke or odor removal",
"35091",,"2013-07-25T00:00:00.000Z","13-0206054","7","6926","17",,"BARBOUR","ST",,,,,,"Hartford","CT","6120","41.78565","-72.679867","N","B","1","1","321","EMS call, excluding vehicle accident with injury",
"5630",,"2012-04-09T00:00:00.000Z","12-0100028","5",,"1",,"FLOWER","ST",,,,,,"Hartford","CT","6105","41.7636","-72.6883","N","B","1","1","322","Motor vehicle accident with injuries",
"6737",,"2012-04-28T00:00:00.000Z","12-0119046","11",,,,"AMITY","ST",,"PARK",,"ST",,"Hartford","CT","6106","41.7564","-72.71","N","A","1","1","300","Rescue, EMS incident, other",
"15565",,"2012-09-16T00:00:00.000Z","12-0260053","11","49301","21",,"ORANGE","ST",,,,,,"Hartford","CT","6106","41.758262","-72.703795","N","B","1","1","440","Electrical  wiring/equipment problem, Other",
"30763",,"2013-05-25T00:00:00.000Z","13-0145040","1","23962","75",,"MAIN","ST",,,,,,"Hartford","CT","6106","41.756231","-72.676315","N","A","1","1","321","EMS call, excluding vehicle accident with injury",
"29465","2021-10-19T00:00:00.000Z","2013-05-05T00:00:00.000Z","13-0125068","7",,,,"CLEVELAND","AV",,"GARDEN",,"ST",,"Hartford","CT","6112","41.7977","-72.6791","N","A","1","1","300","Rescue, EMS incident, other",
"13747",,"2012-08-17T00:00:00.000Z","12-0230021","10","30448","310",,"FRANKLIN","AV",,,,,,"Hartford","CT","6114","41.74192","-72.67659","N","D","1","1","131","Passenger vehicle fire",
"30082",,"2013-05-15T00:00:00.000Z","13-0135027","5","11828","21",,"WOODLAND","ST",,,,,,"Hartford","CT","6105","41.768689","-72.702256","N","C","1","1","321","EMS call, excluding vehicle accident with injury",
"18671",,"2012-11-05T00:00:00.000Z","12-0310021","8","19518","560",,"PARK","ST",,,,,,"Hartford","CT","6106","41.7578","-72.6864","N","D","1","1","300","Rescue, EMS incident, other",
"18451",,"2012-11-01T00:00:00.000Z","12-0306045","5","10896","28",,"TOWNLEY","ST",,,,,,"Hartford","CT","6105","41.771936","-72.696282","N","D","1","3","531","Smoke or odor removal",
"39487",,"2013-10-01T00:00:00.000Z","13-0274031","8","14921","272",,"JEFFERSON","ST",,,,,,"Hartford","CT","6106","41.755027","-72.686913","N","B","1","1","321","EMS call, excluding vehicle accident with injury",
"26356",,"2013-03-13T00:00:00.000Z","13-0072041","11","23191","21",,"KIBBE","ST",,,,,,"Hartford","CT","6106","41.753237","-72.709826","N","D","1","1","300","Rescue, EMS incident, other",
"15039",,"2012-09-08T00:00:00.000Z","12-0252025","5","11252","1",,"HUNTINGTON","ST",,,,,,"Hartford","CT","6105","41.7727","-72.6911","N","B","1","1","321","EMS call, excluding vehicle accident with injury",
"27094",,"2013-03-27T00:00:00.000Z","13-0086015","10",,,,"AIRPORT","RD",,"LOCUST",,"ST",,"Hartford","CT","6114","41.7383","-72.6669","N","B","1","1","322","Motor vehicle accident with injuries",
"30580",,"2013-05-22T00:00:00.000Z","13-0142056","1","23815","100",,"WASHINGTON","ST",,,,,,"Hartford","CT","6106","41.7609","-72.6824","N","B","1","1","300","Rescue, EMS incident, other",
"1808",,"2012-02-01T00:00:00.000Z","12-0032042","2",,"8",,"AIRWACK","DR",,,,,,"East Hartford","CT","0","0","0","3","B","1","6","321","EMS call, excluding vehicle accident with injury",
"43617",,"2013-12-09T00:00:00.000Z","13-0343002","15","32916","123",,"GRANDVIEW","TER",,,,,,"Hartford","CT","6114","41.739896","-72.691944","N","B","1","1","311","Medical assist, assist EMS crew",
"12737",,"2012-07-31T00:00:00.000Z","12-0213042","10",,,,"PRESTON","ST",,"WINSHIP",,"ST",,"Hartford","CT","6114","41.7392","-72.6782","N","C","1","1","555","Defective elevator, no occupants",
"40356",,"2013-10-14T00:00:00.000Z","13-0287028","7","5723","55",,"WAVERLY","ST",,,,,,"Hartford","CT","6112","41.79463","-72.682213","N","C","1","1","321","EMS call, excluding vehicle accident with injury",
"9645","2010-07-03T00:00:00.000Z","2012-06-14T00:00:00.000Z","12-0166014","5","20638","61",,"IMLAY","ST",,,,,,"Hartford","CT","6105","41.766398","-72.695661","N","D","1","1","311","Medical assist, assist EMS crew",
"31617",,"2013-06-07T00:00:00.000Z","13-0158034","11","21754","60",,"BEACON","ST",,,,,,"Hartford","CT","6105","41.759288","-72.714271","N","B","1","1","300","Rescue, EMS incident, other",
"16169",,"2012-09-26T00:00:00.000Z","12-0270014","5","14050","15",,"CABOT","ST",,,,,,"Hartford","CT","6112","41.777657","-72.693714","N","C","1","1","311","Medical assist, assist EMS crew",
"30494",,"2013-05-21T00:00:00.000Z","13-0141048","7","7157","2621",,"MAIN","ST",,,,,,"Hartford","CT","6120","41.7898","-72.6716","N","A","1","1",,"Shutoff Open Hydrant",
"22393",,"2013-01-08T00:00:00.000Z","13-0008032","2","49310","31",,"CAPEN","ST",,,,,,"Hartford","CT","6120","41.784539","-72.676952","N","D","1","1","321","EMS call, excluding vehicle accident with injury",
"43592",,"2013-12-08T00:00:00.000Z","13-0342034","5","19822","57",,"SUMNER","ST",,,,,,"Hartford","CT","6105","41.7698","-72.690614","N","B","1","1","300","Rescue, EMS incident, other",
"36717",,"2013-08-20T00:00:00.000Z","13-0232040","15","28045","144",,"WILSON","ST",,,,,,"Hartford","CT","6106","41.749557","-72.700487","N","D","1","1","321","EMS call, excluding vehicle accident with injury",
"3035",,"2012-02-23T00:00:00.000Z","12-0054020","15","27985","161",,"WILSON","ST",,,,,,"Hartford","CT","6106","41.749615","-72.70127","N","D","1","1","321","EMS call, excluding vehicle accident with injury",
"41560",,"2013-11-03T00:00:00.000Z","13-0307006","11","10378","33",,"GRAY","ST",,,,,,"Hartford","CT","6105","41.763978","-72.707311","N","B","1","1","321","EMS call, excluding vehicle accident with injury",
"2062",,"2012-02-06T00:00:00.000Z","12-0037004","9","50317","705",,"NEW BRITAIN","AV",,,,,,"Hartford","CT","6106","41.733167","-72.705433","N","B","1","1","321","EMS call, excluding vehicle accident with injury",
"3389",,"2012-02-29T00:00:00.000Z","12-0060014","8","21399","470",,"BROAD","ST",,,,,,"Hartford","CT","6106","41.762887","-72.687228","N","B","1","1","300","Rescue, EMS incident, other",
"30837",,"2013-05-26T00:00:00.000Z","13-0146046","14",,"85",,"KENT","ST",,,,,,"Hartford","CT","6112","41.783722","-72.700333","N","B","1","1","300","Rescue, EMS incident, other",
"13870",,"2012-08-19T00:00:00.000Z","12-0232004","2","30075","990",,"MAIN","ST",,,,,,"Hartford","CT","6103","41.768586","-72.673471","N","A","1","1","300","Rescue, EMS incident, other",
"5125",,"2012-03-30T00:00:00.000Z","12-0090054","5","20692","225",,"SOUTH MARSHALL","ST",,,,,,"Hartford","CT","6105","41.766618","-72.698951","N","D","1","1","311","Medical assist, assist EMS crew",
"12562","2015-07-23T00:00:00.000Z","2012-07-28T00:00:00.000Z","12-0210033","11","12132","25",,"LORRAINE","ST",,,,,,"Hartford","CT","6105","41.7684","-72.70602","N","D","1","2","500","Service Call, other",
"41987",,"2013-11-10T00:00:00.000Z","13-0314025","7","55016","1",,"NORTH BOAT LANDING",,,,,,,"Hartford","CT","6120","41.7757","-72.6657","N","B","1","1","321","EMS call, excluding vehicle accident with injury",
"26211",,"2013-03-11T00:00:00.000Z","13-0070006","1","24967","34",,"HUYSHOPE","AV",,,,,,"Hartford","CT","6106","41.757459","-72.666856","N","A","1","1","300","Rescue, EMS incident, other",
"40242",,"2013-10-12T00:00:00.000Z","13-0285071","15","29172","475",,"FLATBUSH","AV",,,,,,"Hartford","CT","6106","41.742644","-72.711967","N","A","1","1","311","Medical assist, assist EMS crew",
"3841",,"2012-03-07T00:00:00.000Z","12-0067042","8","16085","180",,"OAK","ST",,,,,,"Hartford","CT","6106","41.757908","-72.685083","N","A","1","1","311","Medical assist, assist EMS crew",
"25457",,"2013-02-25T00:00:00.000Z","13-0056019","10",,,,"AIRPORT","RD",,"BRAINARD",,"RD",,"Hartford","CT","6114","41.739","-72.6605","N","D","1","1","463","Vehicle accident, general cleanup",
"2224",,"2012-02-08T00:00:00.000Z","12-0039048","5",,,,"COLLINS","ST",,"MAY",,"ST",,"Hartford","CT","6105","41.7732","-72.6943","N","A","1","1","300","Rescue, EMS incident, other",
"11225",,"2012-07-06T00:00:00.000Z","12-0188065","7","3105","447",,"BARBOUR","ST",,,,,,"Hartford","CT","6120","41.797525","-72.6765","N","B","1","1","321","EMS call, excluding vehicle accident with injury",
"15231",,"2012-09-11T00:00:00.000Z","12-0255036","8","14750","69",,"BABCOCK","ST",,,,,,"Hartford","CT","6106","41.761632","-72.689789","N","A","1","1","321","EMS call, excluding vehicle accident with injury",
"22985",,"2013-01-18T00:00:00.000Z","13-0018006","5","50373","188",,"SIGOURNEY","ST",,,,,,"Hartford","CT","6105","41.7718","-72.69322","N","A","1","1","300","Rescue, EMS incident, other",
"37937",,"2013-09-07T00:00:00.000Z","13-0250055","5","20016","98",,"GARDEN","ST",,,,,,"Hartford","CT","6105","41.770457","-72.686362","N","B","1","1","321","EMS call, excluding vehicle accident with injury",
"29044",,"2013-04-29T00:00:00.000Z","13-0119024","1","25208","19",,"CHARTER OAK","PL",,,,,,"Hartford","CT","6106","41.758914","-72.673671","N","C","1","6","531","Smoke or odor removal",
"31030",,"2013-05-30T00:00:00.000Z","13-0150023","5","19899","152",,"COLLINS","ST",,,,,,"Hartford","CT","6105","41.772559","-72.690326","N","B","1","6","412","Gas leak (natural gas or LPG)",
"24234",,"2013-02-06T00:00:00.000Z","13-0037012","2","30073","950",,"MAIN","ST",,,,,,"Hartford","CT","6103","41.768148","-72.673519","N","A","1","1","321","EMS call, excluding vehicle accident with injury",
"985",,"2012-01-18T00:00:00.000Z","12-0018019","2","18127","555",,"WINDSOR","ST",,,,,,"Hartford","CT","6120","41.781092","-72.672144","N","D","1","1","321","EMS call, excluding vehicle accident with injury",
"11972",,"2012-07-18T00:00:00.000Z","12-0200035","11","34472","250",,"HAMILTON","ST",,,,,,"Hartford","CT","6106","41.7537","-72.703533","N","B","1","1","311","Medical assist, assist EMS crew",
"13839",,"2012-08-18T00:00:00.000Z","12-0231048","1",,,,"MAIN","ST",,"PARK",,"ST",,"Hartford","CT","6106","41.756858","-72.675732","N","A","1","6","321","EMS call, excluding vehicle accident with injury",
"17503",,"2012-10-18T00:00:00.000Z","12-0292011","7","8029","3545",,"MAIN","ST",,,,,,"Hartford","CT","6120","41.799703","-72.662161","N","B","1","1","740","Unintentional transmission of alarm, Other",
"3387",,"2012-02-14T00:00:00.000Z","12-0045020","8","15577","99",,"LINCOLN","ST",,,,,,"Hartford","CT","6106","41.753152","-72.688608","N","C","1","1","142","Brush or brush-and-grass mixture fire",
"36925",,"2013-08-23T00:00:00.000Z","13-0235055","2","17888","90",,"IRVING","ST",,,,,,"Hartford","CT","6112","41.778654","-72.687038","N","C","1","1","321","EMS call, excluding vehicle accident with injury",
"14870",,"2012-09-05T00:00:00.000Z","12-0249042","5","11828","21",,"WOODLAND","ST",,,,,,"Hartford","CT","6105","41.768689","-72.702256","N","C","1","1","321","EMS call, excluding vehicle accident with injury",
"20641",,"2012-12-09T00:00:00.000Z","12-0344026","8","15372","76",,"HAMILTON","ST",,,,,,"Hartford","CT","6106","41.752602","-72.696854","N","B","1","1","661","EMS call, party transported by non-fire agency",
"30409",,"2013-05-20T00:00:00.000Z","13-0140031","1","34007","341",,"WASHINGTON","ST",,,,,,"Hartford","CT","6106","41.751292","-72.683492","N","D","1","1","321","EMS call, excluding vehicle accident with injury",
"10041",,"2012-06-20T00:00:00.000Z","12-0172028","1",,,,"GOLD","ST",,"MAIN",,"ST",,"Hartford","CT","6103","41.7641","-72.6743","N","B","1","1","321","EMS call, excluding vehicle accident with injury",
"15270",,"2012-09-12T00:00:00.000Z","12-0256012","2","18045","1630",,"MAIN","ST",,,,,,"Hartford","CT","6120","41.776708","-72.676968","N","A","1","1","321","EMS call, excluding vehicle accident with injury",
"41240",,"2013-10-28T00:00:00.000Z","13-0301057","2","18694","57",,"CENTER","ST",,,,,,"Hartford","CT","6120","41.777418","-72.680891","N","A","1","1","311","Medical assist, assist EMS crew",
"30830",,"2013-05-26T00:00:00.000Z","13-0146039","14","12948","200",,"MAGNOLIA","ST",,,,,,"Hartford","CT","6112","41.78283","-72.68718","N","B","1","1","300","Rescue, EMS incident, other",
"20061",,"2012-11-30T00:00:00.000Z","12-0335019","1","40949","286",,"MAPLE","AV",,,,,,"Hartford","CT","6114","41.750363","-72.679339","N","A","1","1","322","Motor vehicle accident with injuries",
"9498",,"2012-06-12T00:00:00.000Z","12-0164013","7","5873","46",,"CLEVELAND","AV",,,,,,"Hartford","CT","6120","41.79439","-72.667972","N","A","1","1","321","EMS call, excluding vehicle accident with injury",
"3957",,"2012-03-09T00:00:00.000Z","12-0069045","9","28665","25",,"DART","ST",,,,,,"Hartford","CT","6106","41.7371","-72.6996","N","C","1","1","651","Smoke scare, odor of smoke",
"30701",,"2013-05-24T00:00:00.000Z","13-0144045","8",,,,"PARK","ST",,"SQUIRE",,"ST",,"Hartford","CT","6106","41.7578","-72.6844","N","D","1","1","322","Motor vehicle accident with injuries",
"20510",,"2012-12-07T00:00:00.000Z","12-0342023","1","25353","151",,"SHELDON","ST",,,,,,"Hartford","CT","6106","41.761053","-72.672167","N","D","1","1","311","Medical assist, assist EMS crew",
"27353",,"2013-03-31T00:00:00.000Z","13-0090040","7","6983","149",,"BARBOUR","ST",,,,,,"Hartford","CT","6120","41.78925","-72.678807","N","B","1","1","321","EMS call, excluding vehicle accident with injury",
"15445",,"2012-09-14T00:00:00.000Z","12-0258045","15","26820","86",,"FLATBUSH","AV",,,,,,"Hartford","CT","6106","41.74435","-72.69805","N","D","1","1","321","EMS call, excluding vehicle accident with injury",
"22856",,"2013-01-15T00:00:00.000Z","13-0015043","10","30152","600",,"WETHERSFIELD","AV",,,,,,"Hartford","CT","6114","41.739571","-72.672229","N","C","1","1","311","Medical assist, assist EMS crew",
"39990",,"2013-10-08T00:00:00.000Z","13-0281060","7","8617","717",,"GARDEN","ST",,,,,,"Hartford","CT","6112","41.790575","-72.6818","N","A","1","1","733","Smoke detector activation due to malfunction",
"32831",,"2013-06-24T00:00:00.000Z","13-0175055","2","50387","4",,"MARY SHEPARDS PL",,,,,,,"Hartford","CT","6120","41.778205","-72.673701","N","C","1","1","321","EMS call, excluding vehicle accident with injury",
"19370",,"2012-11-17T00:00:00.000Z","12-0322007","15","49641","55",,"GRAFTON","ST",,,,,,"Hartford","CT","6106","41.742525","-72.700075","N","C","1","1","321","EMS call, excluding vehicle accident with injury",
"38579",,"2013-09-17T00:00:00.000Z","13-0260016","2",,"1860",,"MAIN","ST",,,,,,"Hartford","CT","6120","41.779918","-72.676643","N","D","1","1","321","EMS call, excluding vehicle accident with injury",
"24169",,"2013-02-05T00:00:00.000Z","13-0036013","10","25804","261",,"LOCUST","ST",,,,,,"Hartford","CT","6114","41.743037","-72.665737","N","D","1","1","311","Medical assist, assist EMS crew",
"36118","2014-12-12T00:00:00.000Z","2013-08-10T00:00:00.000Z","13-0222037","10","35423","292",,"BROWN","ST",,,,,,"Hartford","CT","6114","41.734975","-72.685792","N","B","1","1","321","EMS call, excluding vehicle accident with injury",
"35002",,"2013-07-24T00:00:00.000Z","13-0205027","11","10374","9",,"GRAY","ST",,,,,,"Hartford","CT","6105","41.763844","-72.708578","N","A","1","1","300","Rescue, EMS incident, other",
"29816",,"2013-05-11T00:00:00.000Z","13-0131028","2","55078","222",,"BELLEVUE","ST",,,,,,"Hartford","CT","6120","41.782846","-72.673631","N","C","1","1","321","EMS call, excluding vehicle accident with injury",
"36155",,"2013-08-11T00:00:00.000Z","13-0223005","14","13691","3",,"HARRISON","ST",,,,,,"Hartford","CT","6112","41.779953","-72.698673","N","B","1","1","321","EMS call, excluding vehicle accident with injury",
"5073",,"2012-03-30T00:00:00.000Z","12-0090002","14","12723","72",,"VINE","ST",,,,,,"Hartford","CT","6112","41.781447","-72.688886","N","C","1","1","321","EMS call, excluding vehicle accident with injury",
"25435","2022-01-14T00:00:00.000Z","2013-02-24T00:00:00.000Z","13-0055046","10","41296","216",,"FRANKLIN","AV",,,,,,"Hartford","CT","6114","41.7454","-72.6773","N","C","1","1","311","Medical assist, assist EMS crew",
"15773","2018-01-25T00:00:00.000Z","2012-09-19T00:00:00.000Z","12-0263067","1",,"10",,"STATE","ST",,,,,,"Hartford","CT","6103","41.76643","-72.673426","N","A","1","2","745","Alarm system activation, no fire - unintentional",
"9028",,"2012-06-04T00:00:00.000Z","12-0156018","1","40985","217",,"WETHERSFIELD","AV",,,,,,"Hartford","CT","6114","41.750133","-72.674333","N","B","1","1","321","EMS call, excluding vehicle accident with injury",
"35340",,"2013-07-29T00:00:00.000Z","13-0210039","1","23767","96",,"WADSWORTH","ST",,,,,,"Hartford","CT","6106","41.759993","-72.67919","N","B","1","4","300","Rescue, EMS incident, other",
"8628","2012-01-09T00:00:00.000Z","2012-05-29T00:00:00.000Z","12-0150024","7","8077","3580",,"MAIN","ST",,,,,,"Hartford","CT","6120","41.799044","-72.662572","N","D","1","1","321","EMS call, excluding vehicle accident with injury",
"9887",,"2012-06-17T00:00:00.000Z","12-0169061","8","21451","688",,"BROAD","ST",,,,,,"Hartford","CT","6106","41.759954","-72.687371","N","C","1","1","321","EMS call, excluding vehicle accident with injury",
"33741","2011-08-02T00:00:00.000Z","2013-07-07T00:00:00.000Z","13-0188030","16","4498","160",,"SALISBURY","ST",,,,,,"Hartford","CT","6112","41.804992","-72.697262","N","D","1","1","552","Police matter",
"40080",,"2013-10-10T00:00:00.000Z","13-0283034","2","17849","402",,"ALBANY","AV",,,,,,"Hartford","CT","6120","41.777053","-72.683871","N","C","1","1","321","EMS call, excluding vehicle accident with injury",
"29565",,"2013-05-07T00:00:00.000Z","13-0127029","8",,"172",,"WASHINGTON","ST",,,,,,"Hartford","CT","6106","41.756635","-72.682965","N","C","1","1","311","Medical assist, assist EMS crew",
"34681",,"2013-07-20T00:00:00.000Z","13-0201007","7",,,,"CLEVELAND","AV",,"MAIN",,"ST",,"Hartford","CT","6120","41.7937","-72.6661","N","D","1","4","321","EMS call, excluding vehicle accident with injury",
"26388",,"2013-03-14T00:00:00.000Z","13-0073019","8","20991","577",,"PARK","ST",,,,,,"Hartford","CT","6106","41.7578","-72.6864","N","A","1","1","321","EMS call, excluding vehicle accident with injury",
"41166",,"2013-10-27T00:00:00.000Z","13-0300039","2","50376","9",,"MARY SHEPARDS PL",,,,,,,"Hartford","CT","6120","41.778218","-72.673702","N","D","1","1","321","EMS call, excluding vehicle accident with injury",
"40085",,"2013-10-10T00:00:00.000Z","13-0283039","1","24146","80",,"SEYMOUR","ST",,,,,,"Hartford","CT","6106","41.754047","-72.681136","N","C","1","1","321","EMS call, excluding vehicle accident with injury",
"1802",,"2012-02-01T00:00:00.000Z","12-0032036","14","13455","1132",,"ALBANY","AV",,,,,,"Hartford","CT","6112","41.781695","-72.695202","N","B","1","1","321","EMS call, excluding vehicle accident with injury",
"12618",,"2012-07-29T00:00:00.000Z","12-0211035","1","2208","457",,"MAIN","ST",,,,,,"Hartford","CT","6103","41.761425","-72.675017","N","A","1","1","321","EMS call, excluding vehicle accident with injury",
"21708",,"2012-12-28T00:00:00.000Z","12-0363046","1","40985","217",,"WETHERSFIELD","AV",,,,,,"Hartford","CT","6114","41.750133","-72.674333","N","A","1","1","321","EMS call, excluding vehicle accident with injury",
"3095",,"2012-02-24T00:00:00.000Z","12-0055030","2","23444","295",,"GARDEN","ST",,,,,,"Hartford","CT","6112","41.77567","-72.68677","N","A","1","1","321","EMS call, excluding vehicle accident with injury",
"28348",,"2013-04-17T00:00:00.000Z","13-0107046","2","18045","1630",,"MAIN","ST",,,,,,"Hartford","CT","6120","41.776708","-72.676968","N","C","1","1","321","EMS call, excluding vehicle accident with injury",
"36950",,"2013-08-24T00:00:00.000Z","13-0236014","7","7579","275",,"WESTLAND","ST",,,,,,"Hartford","CT","6112","41.791967","-72.685133","N","C","1","1","440","Electrical  wiring/equipment problem, Other",
"23501",,"2013-01-26T00:00:00.000Z","13-0026032","14",,,,"HOMESTEAD","AV",,"KENT",,"ST",,"Hartford","CT","6112","41.7808","-72.7016","N","B","1","4","324","Motor Vehicle Accident with no injuries",
"43070",,"2013-11-29T00:00:00.000Z","13-0333021","11",,,,"I 84E-FROM ANN UCCELLO","ST",,,,,,"Hartford","CT","0","41.7705","-72.6778","N","A","1","1","322","Motor vehicle accident with injuries",
"23111",,"2013-01-20T00:00:00.000Z","13-0020003","15","39722","60",,"SCHOOL","ST",,,,,,"Hartford","CT","6106","41.7475","-72.6874","N","C","1","1","300","Rescue, EMS incident, other",
"4821",,"2012-03-25T00:00:00.000Z","12-0085022","7","7579","275",,"WESTLAND","ST",,,,,,"Hartford","CT","6112","41.791967","-72.685133","N","C","1","1","321","EMS call, excluding vehicle accident with injury",
"43886",,"2013-12-14T00:00:00.000Z","13-0348008","14","13122","1440",,"ALBANY","AV",,,,,,"Hartford","CT","6112","41.783469","-72.700646","N","C","1","4","300","Rescue, EMS incident, other",
"19488",,"2012-11-19T00:00:00.000Z","12-0324034","1",,,,"FRANKLIN","AV",,"PAWTUCKET",,"ST",,"Hartford","CT","6114","41.7491","-72.6777","N","B","1","1","322","Motor vehicle accident with injuries",
"8203","2018-06-10T00:00:00.000Z","2012-05-22T00:00:00.000Z","12-0143051","15","28235","151",,"HILLSIDE","AV",,,,,,"Hartford","CT","6106","41.748438","-72.698723","N","A","1","1","321","EMS call, excluding vehicle accident with injury",
"8610",,"2012-05-29T00:00:00.000Z","12-0150006","7","6632","2495",,"MAIN","ST",,,,,,"Hartford","CT","6120","41.787973","-72.673527","N","C","1","1","321","EMS call, excluding vehicle accident with injury",
"39973",,"2013-10-08T00:00:00.000Z","13-0281043","10","30179","834",,"WETHERSFIELD","AV",,,,,,"Hartford","CT","6114","41.732877","-72.670508","N","A","1","1","311","Medical assist, assist EMS crew",
"1773",,"2012-02-01T00:00:00.000Z","12-0032007","14","12588","816",,"ALBANY","AV",,,,,,"Hartford","CT","6112","41.7797","-72.690517","N","A","1","1","154","Dumpster or other outside trash receptacle fire",
"37513",,"2013-09-01T00:00:00.000Z","13-0244056","2",,,,"ALBANY","AV",,"GARDEN",,"ST",,"Hartford","CT","6120","41.7778","-72.6861","N","D","1","1","322","Motor vehicle accident with injuries",
"2378",,"2012-02-11T00:00:00.000Z","12-0042038","1","23617","322",,"HUDSON","ST",,,,,,"Hartford","CT","6106","41.759","-72.678155","N","D","1","1","531","Smoke or odor removal",
"44375",,"2013-12-22T00:00:00.000Z","13-0356011","5","14047","186",,"HOMESTEAD","AV",,,,,,"Hartford","CT","6112","41.777391","-72.694518","N","D","1","1","531","Smoke or odor removal",
"3204",,"2012-02-26T00:00:00.000Z","12-0057026","10",,,,"BOLTON","ST",,"WETHERSFIELD",,"AV",,"Hartford","CT","6114","41.7304","-72.67","N","C","1","1","300","Rescue, EMS incident, other",
"33842",,"2013-07-08T00:00:00.000Z","13-0189054","14","42062","1680",,"ALBANY","AV",,,,,,"Hartford","CT","6112","41.784687","-72.708847","N","A","1","1","300","Rescue, EMS incident, other",
"10607",,"2012-06-27T00:00:00.000Z","12-0179029","15",,,,"MAPLE","AV",,"WHITE",,"ST",,"Hartford","CT","6114","41.7366","-72.6865","N","A","1","1","323","Motor vehicle/pedestrian accident (MV Ped)",
"15894",,"2012-09-21T00:00:00.000Z","12-0265035","11","9632","243",,"SOUTH WHITNEY","ST",,,,,,"Hartford","CT","6105","41.764485","-72.710649","N","C","1","1","311","Medical assist, assist EMS crew",
"6316",,"2012-04-21T00:00:00.000Z","12-0112009","2","18790","106",,"FAIRMOUNT","ST",,,,,,"Hartford","CT","6120","41.77775","-72.68326","N","A","1","1","321","EMS call, excluding vehicle accident with injury",
"15628",,"2012-09-18T00:00:00.000Z","12-0262006","1","24429","25",,"WETHERSFIELD","AV",,,,,,"Hartford","CT","6114","41.755076","-72.675356","N","C","1","1","311","Medical assist, assist EMS crew",
"17262",,"2012-10-13T00:00:00.000Z","12-0287054","5","13925","15",,"EDGEWOOD","ST",,,,,,"Hartford","CT","6112","41.777498","-72.69262","N","A","1","1","622","No Incident found on arrival at dispatch address",
"21683",,"2012-12-28T00:00:00.000Z","12-0363021","16","45452","11",,"HAROLD","ST",,,,,,"Hartford","CT","6112","41.804528","-72.695972","N","A","1","1","311","Medical assist, assist EMS crew",
"32310",,"2013-06-17T00:00:00.000Z","13-0168008","10",,"201",,"LOCUST","ST",,,,,,"Hartford","CT","6114","41.744153","-72.665353","N","C","1","1","300","Rescue, EMS incident, other",
"3997",,"2012-03-10T00:00:00.000Z","12-0070032","2","18915","27",,"CHESTNUT","ST",,,,,,"Hartford","CT","6120","41.773174","-72.681115","N","D","1","1","321","EMS call, excluding vehicle accident with injury",
"2822",,"2012-02-19T00:00:00.000Z","12-0050020","10","41341","258",,"FRANKLIN","AV",,,,,,"Hartford","CT","6114","41.743567","-72.676833","N","D","1","1","321","EMS call, excluding vehicle accident with injury",
"7990",,"2012-05-19T00:00:00.000Z","12-0140054","2","18695","59",,"CENTER","ST",,,,,,"Hartford","CT","6120","41.777491","-72.680855","N","B","1","1","321","EMS call, excluding vehicle accident with injury",
"10710","2010-07-20T00:00:00.000Z","2012-06-29T00:00:00.000Z","12-0181014","1","47863","80",,"CHARTER OAK","AV",,,,,,"Hartford","CT","6106","41.758862","-72.671177","N","C","1","1","321","EMS call, excluding vehicle accident with injury",
"5298",,"2012-04-03T00:00:00.000Z","12-0094011","1","24775","101",,"WYLLYS","ST",,,,,,"Hartford","CT","6106","41.756743","-72.672436","N","D","1","1","321","EMS call, excluding vehicle accident with injury",
"25372",,"2013-02-23T00:00:00.000Z","13-0054032","14","48169","141",,"WOODLAND","ST",,,,,,"Hartford","CT","6105","41.77675","-72.6988","N","B","1","1","321","EMS call, excluding vehicle accident with injury",
"41279",,"2013-10-29T00:00:00.000Z","13-0302033","15","36793","700",,"MAPLE","AV",,,,,,"Hartford","CT","6114","41.741141","-72.684324","N","B","1","1","300","Rescue, EMS incident, other",
"30293",,"2013-05-18T00:00:00.000Z","13-0138030","5","14124","44",,"EDGEWOOD","ST",,,,,,"Hartford","CT","6112","41.778493","-72.69206","N","B","1","1","321","EMS call, excluding vehicle accident with injury",
"30821",,"2013-05-26T00:00:00.000Z","13-0146030","5","11902","31",,"WOODLAND","ST",,,,,,"Hartford","CT","6105","41.769383","-72.702033","N","B","1","1","220","Overpressure rupture from air or gas, Other",
"38598",,"2013-09-17T00:00:00.000Z","13-0260035","5","20692","225",,"SOUTH MARSHALL","ST",,,,,,"Hartford","CT","6105","41.766618","-72.698951","N","D","1","2","745","Alarm system activation, no fire - unintentional",
"7911",,"2012-05-18T00:00:00.000Z","12-0139049","15","39622","461",,"WASHINGTON","ST",,,,,,"Hartford","CT","6106","41.7474","-72.6837","N","A","1","1","311","Medical assist, assist EMS crew",
"12969",,"2012-08-04T00:00:00.000Z","12-0217041","16","5429","500",,"BLUE HILLS","AV",,,,,,"Hartford","CT","6112","41.799418","-72.695573","N","C","1","1","311","Medical assist, assist EMS crew",
"18105",,"2012-10-27T00:00:00.000Z","12-0301056","14","13407","69",,"BLUE HILLS","AV",,,,,,"Hartford","CT","6112","41.7845","-72.6984","N","C","1","6","321","EMS call, excluding vehicle accident with injury",
"23966","2005-04-24T00:00:00.000Z","2013-02-02T00:00:00.000Z","13-0033012","2","18642","30",,"CENTER","ST",,,,,,"Hartford","CT","6120","41.777385","-72.680908","N","D","1","1","321","EMS call, excluding vehicle accident with injury",
"14449",,"2012-08-29T00:00:00.000Z","12-0242013","5","20147","135",,"BROAD","ST",,,,,,"Hartford","CT","6105","41.767778","-72.6866","N","D","1","1","300","Rescue, EMS incident, other",
"20273",,"2012-12-03T00:00:00.000Z","12-0338047","5","11582","10",,"MARSHALL","ST",,,,,,"Hartford","CT","6105","41.768111","-72.698733","N","D","1","1","300","Rescue, EMS incident, other",
"16951",,"2012-10-08T00:00:00.000Z","12-0282072","11","10247","891",,"WEST","BLVD",,,,,,"Hartford","CT","6105","41.761233","-72.709233","N","D","1","1","300","Rescue, EMS incident, other",
"28971",,"2013-04-27T00:00:00.000Z","13-0117064","5","19704","46",,"HUNTINGTON","ST",,,,,,"Hartford","CT","6105","41.770847","-72.691679","N","A","1","1","743","Smoke detector activation, no fire - unintentional",
"26682",,"2013-03-19T00:00:00.000Z","13-0078041","8","15458","429",,"SUMMIT","ST",,,,,,"Hartford","CT","6106","41.754445","-72.694229","N","B","1","1","321","EMS call, excluding vehicle accident with injury",
"26339",,"2013-03-13T00:00:00.000Z","13-0072024","7","17011","57",,"WEST SERVICE","RD",,,,,,"Hartford","CT","6120","41.783329","-72.662629","N","D","1","1","321","EMS call, excluding vehicle accident with injury",
"3901","2020-08-24T00:00:00.000Z","2012-03-08T00:00:00.000Z","12-0068051","1","25296","250",,"MAIN","ST",,,,,,"Hartford","CT","6106","41.758352","-72.675643","N","B","1","1","321","EMS call, excluding vehicle accident with injury",
"41584",,"2013-11-03T00:00:00.000Z","13-0307030","14",,,,"ALBANY","AV",,"SIGOURNEY",,"ST",,"Hartford","CT","6112","41.7796","-72.6904","N","C","1","1","552","Police matter",
"19613",,"2012-11-21T00:00:00.000Z","12-0326046","10","30106","458",,"WETHERSFIELD","AV",,,,,,"Hartford","CT","6114","41.743083","-72.673317","N","D","1","3","745","Alarm system activation, no fire - unintentional",
"546",,"2012-01-10T00:00:00.000Z","12-0010033","2",,"40",,"WESTLAND","ST",,,,,,"Hartford","CT","6120","41.78943","-72.673804","N","D","1","1","142","Brush or brush-and-grass mixture fire",
"30710",,"2013-05-24T00:00:00.000Z","13-0144054","2",,,,"MAIN","ST",,"TRUMBULL",,"ST",,"Hartford","CT","6103","41.7704","-72.6747","N","D","1","1","324","Motor Vehicle Accident with no injuries",
"31154",,"2013-05-31T00:00:00.000Z","13-0151076","1","24967","34",,"HUYSHOPE","AV",,,,,,"Hartford","CT","6106","41.757459","-72.666856","N","C","1","1","311","Medical assist, assist EMS crew",
"36249",,"2013-08-12T00:00:00.000Z","13-0224051","1","40804","127",,"FRANKLIN","AV",,,,,,"Hartford","CT","6114","41.747957","-72.677586","N","D","1","1","311","Medical assist, assist EMS crew",
"14848",,"2012-09-05T00:00:00.000Z","12-0249020","1","25361","42",,"CHARTER OAK","AV",,,,,,"Hartford","CT","6106","41.7592","-72.673367","N","C","1","1","321","EMS call, excluding vehicle accident with injury",
"5296",,"2012-04-03T00:00:00.000Z","12-0094009","1",,"57",,"PROSPECT","ST",,,,,,"Hartford","CT","6103","41.7645","-72.6725","N","D","1","1","321","EMS call, excluding vehicle accident with injury",
"18943",,"2012-11-09T00:00:00.000Z","12-0314040","7","8904","143",,"MONTVILLE","ST",,,,,,"Hartford","CT","6120","41.7967","-72.6711","N","D","1","1","311","Medical assist, assist EMS crew",
"29226",,"2013-05-02T00:00:00.000Z","13-0122023","1","24991","76",,"VAN BLOCK","AV",,,,,,"Hartford","CT","6106","41.755475","-72.6659","N","B","1","1","321","EMS call, excluding vehicle accident with injury",
"38797",,"2013-09-20T00:00:00.000Z","13-0263021","8",,,,"PARK","ST",,"PARK",,"TER",,"Hartford","CT","6106","41.7579","-72.6922","N","C","1","1","622","No Incident found on arrival at dispatch address",
"28914",,"2013-04-27T00:00:00.000Z","13-0117007","11","22524","25",,"ORANGE","ST",,,,,,"Hartford","CT","6106","41.758414","-72.703814","N","D","1","1","300","Rescue, EMS incident, other",
"30479",,"2013-05-21T00:00:00.000Z","13-0141032","5","20153","151",,"FARMINGTON","AV",,,,,,"Hartford","CT","6105","41.767781","-72.692363","N","A","1","1","300","Rescue, EMS incident, other",
"10483",,"2012-06-25T00:00:00.000Z","12-0177031","7","6246","515",,"GARDEN","ST",,,,,,"Hartford","CT","6112","41.78374","-72.684029","N","C","1","1","735","Alarm system sounded due to malfunction",
"2124",,"2012-02-07T00:00:00.000Z","12-0038011","11","22839","82",,"FRANCIS","AV",,,,,,"Hartford","CT","6106","41.754945","-72.706209","N","D","1","1","300","Rescue, EMS incident, other",
"15741",,"2012-09-19T00:00:00.000Z","12-0263035","2","52416","330",,"MARKET","ST",,,,,,"Hartford","CT","6103","41.772089","-72.671094","N","A","1","1","323","Motor vehicle/pedestrian accident (MV Ped)",
"17498",,"2012-10-18T00:00:00.000Z","12-0292006","2",,,,"CANTON","ST",,"WINDSOR",,"ST",,"Hartford","CT","6120","41.7781","-72.6729","N","A","1","1","324","Motor Vehicle Accident with no injuries",
"16660",,"2012-10-04T00:00:00.000Z","12-0278020","5","55196","1000",,"ASYLUM","AV",,,,,,"Hartford","CT","6105","41.771339","-72.698117","N","D","1","1","300","Rescue, EMS incident, other",
"968",,"2012-01-18T00:00:00.000Z","12-0018003","11",,"86",,"HEATH","ST",,,,,,"Hartford","CT","6106","41.756913","-72.71095","N","C","1","1","622","No Incident found on arrival at dispatch address",
"25222",,"2013-02-20T00:00:00.000Z","13-0051060","1",,"30",,"STATE","ST",,,,,,"Hartford","CT","6103","41.766257","-72.672991","N","C","1","1","321","EMS call, excluding vehicle accident with injury",
"28588",,"2013-04-21T00:00:00.000Z","13-0111016","15","26319","68",,"ELLINGTON","ST",,,,,,"Hartford","CT","6106","41.7458","-72.70484","N","C","1","1","300","Rescue, EMS incident, other",
"2775",,"2012-02-18T00:00:00.000Z","12-0049028","5",,"17",,"HUNTINGTON","ST",,,,,,"Hartford","CT","6105","41.772026","-72.691311","N","C","1","1","621","Wrong location",
"9898",,"2012-06-18T00:00:00.000Z","12-0170002","15","40476","31",,"WEBSTER","ST",,,,,,"Hartford","CT","6114","41.7441","-72.6832","N","C","1","1","300","Rescue, EMS incident, other",
"34085",,"2013-07-12T00:00:00.000Z","13-0193013","11","10205","87",,"EVERGREEN","AV",,,,,,"Hartford","CT","6105","41.763218","-72.708935","N","D","1","1","300","Rescue, EMS incident, other",
"32211",,"2013-06-15T00:00:00.000Z","13-0166045","2","9211","61",,"SAVITT","WAY",,,,,,"Hartford","CT","6120","41.783906","-72.668312","N","B","1","6","300","Rescue, EMS incident, other",
"17042",,"2012-10-10T00:00:00.000Z","12-0284033","15","39776","453",,"WASHINGTON","ST",,,,,,"Hartford","CT","6106","41.74766","-72.6836","N","B","1","1","300","Rescue, EMS incident, other",
"5104",,"2012-03-30T00:00:00.000Z","12-0090033","14","3187","111",,"THOMASTON","ST",,,,,,"Hartford","CT","6112","41.792837","-72.69962","N","D","1","1","311","Medical assist, assist EMS crew",
"6449",,"2012-04-23T00:00:00.000Z","12-0114045","1",,,,"COLTS PK-WETH & WAWARME",,,,,,,"Hartford","CT","6106","41.7497","-72.6738","N","D","1","1","131","Passenger vehicle fire",
"44681",,"2013-12-27T00:00:00.000Z","13-0361014","5",,,,"COGSWELL","ST",,"GARDEN",,"ST",,"Hartford","CT","6105","41.7701","-72.6866","N","D","1","1","324","Motor Vehicle Accident with no injuries",
"34138",,"2013-07-12T00:00:00.000Z","13-0193066","2","9211","61",,"SAVITT","WAY",,,,,,"Hartford","CT","6120","41.783906","-72.668312","N","A","1","1","300","Rescue, EMS incident, other",
"25603",,"2013-02-28T00:00:00.000Z","13-0059016","1","24008","158",,"SEYMOUR","ST",,,,,,"Hartford","CT","6106","41.756289","-72.680905","N","C","1","1","311","Medical assist, assist EMS crew",
"40973",,"2013-10-24T00:00:00.000Z","13-0297012","5","11389","7",,"MARSHALL","ST",,,,,,"Hartford","CT","6105","41.767983","-72.69875","N","A","1","1","710","Malicious, mischievous false call, Other",
"5973","2009-09-08T00:00:00.000Z","2012-04-15T00:00:00.000Z","12-0106021","5","11374","30",,"GILLETT","ST",,,,,,"Hartford","CT","6105","41.768589","-72.70025","N","D","1","1","311","Medical assist, assist EMS crew",
"31903",,"2013-06-10T00:00:00.000Z","13-0161065","14","13711","62",,"MILFORD","ST",,,,,,"Hartford","CT","6112","41.781736","-72.699014","N","A","1","1","321","EMS call, excluding vehicle accident with injury",
"23287",,"2013-01-23T00:00:00.000Z","13-0023009","1","24778","99",,"WYLLYS","ST",,,,,,"Hartford","CT","6106","41.756714","-72.672529","N","B","1","1","321","EMS call, excluding vehicle accident with injury",
"26237","2016-04-12T00:00:00.000Z","2013-03-11T00:00:00.000Z","13-0070032","9",,,,"GRANT","ST",,"NEW BRITAIN",,"AV",,"Hartford","CT","6106","41.7317","-72.7133","N","B","1","1","323","Motor vehicle/pedestrian accident (MV Ped)",
"14460",,"2012-08-29T00:00:00.000Z","12-0242024","1",,,,"HUDSON","ST",,"PARK",,"ST",,"Hartford","CT","6106","41.757504","-72.678723","N","D","1","1","322","Motor vehicle accident with injuries",
"42939","2021-03-12T00:00:00.000Z","2013-11-26T00:00:00.000Z","13-0330061","8","16085","180",,"OAK","ST",,,,,,"Hartford","CT","6106","41.757908","-72.685083","N","B","1","1","531","Smoke or odor removal",
"11018",,"2012-07-04T00:00:00.000Z","12-0186002","1","47863","80",,"CHARTER OAK","AV",,,,,,"Hartford","CT","6106","41.758862","-72.671177","N","C","1","2","531","Smoke or odor removal",
"2676",,"2012-02-16T00:00:00.000Z","12-0047055","1","50208","90",,"RETREAT","AV",,,,,,"Hartford","CT","6106","41.753216","-72.679153","N","A","1","1","321","EMS call, excluding vehicle accident with injury",
"13590",,"2012-08-14T00:00:00.000Z","12-0227036","8","21025","851",,"PARK","ST",,,,,,"Hartford","CT","6106","41.7579","-72.6907","N","A","1","1","321","EMS call, excluding vehicle accident with injury",
"12333",,"2012-07-24T00:00:00.000Z","12-0206027","2","18045","1630",,"MAIN","ST",,,,,,"Hartford","CT","6120","41.776708","-72.676968","N","D","1","1","321","EMS call, excluding vehicle accident with injury",
"18616",,"2012-11-04T00:00:00.000Z","12-0309021","1","24354","54",,"ANNAWAN","ST",,,,,,"Hartford","CT","6114","41.749983","-72.677167","N","C","1","1","300","Rescue, EMS incident, other",
"12220",,"2012-07-22T00:00:00.000Z","12-0204035","1","24775","101",,"WYLLYS","ST",,,,,,"Hartford","CT","6106","41.756743","-72.672436","N","B","1","1","311","Medical assist, assist EMS crew",
"40101","2000-06-08T00:00:00.000Z","2013-10-11T00:00:00.000Z","13-0284001","11","19549","170",,"SISSON","AV",,,,,,"Hartford","CT","6105","41.763408","-72.707046","N","C","1","1","300","Rescue, EMS incident, other",
"14867",,"2012-09-05T00:00:00.000Z","12-0249039","2","18045","1630",,"MAIN","ST",,,,,,"Hartford","CT","6120","41.776708","-72.676968","N","C","1","1","321","EMS call, excluding vehicle accident with injury",
"26695",,"2013-03-20T00:00:00.000Z","13-0079005","8","20813","700",,"PARK","ST",,,,,,"Hartford","CT","6106","41.7579","-72.6885","N","B","1","1","321","EMS call, excluding vehicle accident with injury",
"24280",,"2013-02-07T00:00:00.000Z","13-0038006","11","22577","64",,"NEWTON","ST",,,,,,"Hartford","CT","6106","41.759214","-72.70759","N","A","1","1","311","Medical assist, assist EMS crew",
"34631",,"2013-07-19T00:00:00.000Z","13-0200046","2",,,,"MARKET","ST",,"TRUMBULL",,"ST",,"Hartford","CT","6120","41.7704","-72.6712","N","D","1","1","300","Rescue, EMS incident, other",
"28670",,"2013-04-22T00:00:00.000Z","13-0112051","11","19549","170",,"SISSON","AV",,,,,,"Hartford","CT","6105","41.763408","-72.707046","N","D","1","1","300","Rescue, EMS incident, other",
"11600",,"2012-07-12T00:00:00.000Z","12-0194060","15","40588","90",,"WEBSTER","ST",,,,,,"Hartford","CT","6114","41.746167","-72.683544","N","D","1","1","321","EMS call, excluding vehicle accident with injury",
"32457",,"2013-06-19T00:00:00.000Z","13-0170023","1","24845","12",,"GROTON","ST",,,,,,"Hartford","CT","6106","41.754746","-72.673615","N","B","1","3","743","Smoke detector activation, no fire - unintentional",
"43586",,"2013-12-08T00:00:00.000Z","13-0342028","8","50926","168",,"HUNGERFORD","ST",,,,,,"Hartford","CT","6106","41.75864","-72.686232","N","B","1","1","321","EMS call, excluding vehicle accident with injury",
"34754",,"2013-07-21T00:00:00.000Z","13-0202011","10","30284","755",,"WETHERSFIELD","AV",,,,,,"Hartford","CT","6114","41.735709","-72.671173","N","A","1","1","321","EMS call, excluding vehicle accident with injury",
"25734",,"2013-03-02T00:00:00.000Z","13-0061029","7","17004","100",,"WESTON","ST",,,,,,"Hartford","CT","6120","41.784652","-72.665828","N","A","1","1","300","Rescue, EMS incident, other",
"18789",,"2012-11-07T00:00:00.000Z","12-0312014","10","30927","29",,"COWLES","ST",,,,,,"Hartford","CT","6114","41.7329","-72.6783","N","B","1","1","300","Rescue, EMS incident, other",
"24539","2011-12-10T00:00:00.000Z","2013-02-10T00:00:00.000Z","13-0041031","15","39533","160",,"NEW BRITAIN","AV",,,,,,"Hartford","CT","6106","41.7447","-72.688569","N","A","1","1","300","Rescue, EMS incident, other",
"22542",,"2013-01-10T00:00:00.000Z","13-0010042","5","11828","21",,"WOODLAND","ST",,,,,,"Hartford","CT","6105","41.768689","-72.702256","N","B","1","1","311","Medical assist, assist EMS crew",
"5569",,"2012-04-08T00:00:00.000Z","12-0099020","11","27585","35",,"HAMILTON","ST",,,,,,"Hartford","CT","6106","41.7531","-72.6935","N","A","1","1","552","Police matter",
"39928",,"2013-10-07T00:00:00.000Z","13-0280070","9","50317","705",,"NEW BRITAIN","AV",,,,,,"Hartford","CT","6106","41.733167","-72.705433","N","D","1","1","622","No Incident found on arrival at dispatch address",
"17211",,"2012-10-13T00:00:00.000Z","12-0287003","11","19644","221",,"SISSON","AV",,,,,,"Hartford","CT","6105","41.764692","-72.707177","N","D","1","1","324","Motor Vehicle Accident with no injuries",
"41520",,"2013-11-02T00:00:00.000Z","13-0306025","11","23042","5",,"GREENWOOD","ST",,,,,,"Hartford","CT","6106","41.755033","-72.7101","N","B","1","1","321","EMS call, excluding vehicle accident with injury",
"42166",,"2013-11-13T00:00:00.000Z","13-0317043","5","10564","162",,"SARGEANT","ST",,,,,,"Hartford","CT","6105","41.775441","-72.692479","N","A","1","1","300","Rescue, EMS incident, other",
"16093",,"2012-09-25T00:00:00.000Z","12-0269002","10","36056","103",,"OTIS","ST",,,,,,"Hartford","CT","6114","41.739684","-72.680139","N","B","1","1","321","EMS call, excluding vehicle accident with injury",
"3047",,"2012-02-23T00:00:00.000Z","12-0054032","7",,,,"ACTON","ST",,"WESTLAND",,"ST",,"Hartford","CT","6120","41.7886","-72.676","N","D","1","1","142","Brush or brush-and-grass mixture fire",
"4711",,"2012-03-23T00:00:00.000Z","12-0083014","5","11252","1",,"HUNTINGTON","ST",,,,,,"Hartford","CT","6105","41.7727","-72.6911","N","A","1","1","300","Rescue, EMS incident, other",
"29910","2020-12-01T00:00:00.000Z","2013-05-12T00:00:00.000Z","13-0132048","11","22813","801",,"CAPITOL","AV",,,,,,"Hartford","CT","6106","41.760779","-72.703236","N","D","1","1","321","EMS call, excluding vehicle accident with injury",
"6177",,"2012-04-18T00:00:00.000Z","12-0109045","14","52315","474",,"WOODLAND","ST",,,,,,"Hartford","CT","6112","41.782812","-72.695971","N","C","1","3","745","Alarm system activation, no fire - unintentional",
"21288",,"2012-12-20T00:00:00.000Z","12-0355041","1",,,,"GROTON","ST",,"WYLLYS",,"ST",,"Hartford","CT","6106","41.7544","-72.6735","N","A","1","1","622","No Incident found on arrival at dispatch address",
"8940",,"2012-06-03T00:00:00.000Z","12-0155018","2","17679","179",,"BROOK","ST",,,,,,"Hartford","CT","6120","41.781025","-72.682725","N","A","1","1","550","Public service assistance, Other",
"9632",,"2012-06-14T00:00:00.000Z","12-0166001","2",,,,"EDWARDS","ST",,"MYRTLE",,"ST",,"Hartford","CT","6105","41.7711","-72.6839","N","C","1","1","311","Medical assist, assist EMS crew",
"31348",,"2013-06-03T00:00:00.000Z","13-0154039","1","41000","45",,"ANNAWAN","ST",,,,,,"Hartford","CT","6114","41.749967","-72.677233","N","B","1","1","441","Heat from short circuit (wiring), defective/worn",
"24841",,"2013-02-14T00:00:00.000Z","13-0045038","1","24002","231",,"PARK","ST",,,,,,"Hartford","CT","6106","41.757461","-72.680487","N","A","1","1","321","EMS call, excluding vehicle accident with injury",
"31595",,"2013-06-07T00:00:00.000Z","13-0158012","11","23175","68",,"MADISON","AV",,,,,,"Hartford","CT","6106","41.753391","-72.7114","N","A","1","1","300","Rescue, EMS incident, other",
"18450",,"2012-11-01T00:00:00.000Z","12-0306044","8","19538","461",,"PARK","ST",,,,,,"Hartford","CT","6106","41.757762","-72.684831","N","D","1","1","745","Alarm system activation, no fire - unintentional",
"22136",,"2013-01-04T00:00:00.000Z","13-0004037","7","53247","147",,"ENFIELD","ST",,,,,,"Hartford","CT","6112","41.7854","-72.684567","N","D","1","1","321","EMS call, excluding vehicle accident with injury",
"32032",,"2013-06-12T00:00:00.000Z","13-0163056","2","41619","253",,"HIGH","ST",,,,,,"Hartford","CT","6103","41.771989","-72.678329","N","C","1","1","321","EMS call, excluding vehicle accident with injury",
"30620",,"2013-05-23T00:00:00.000Z","13-0143022","8","21024","833",,"PARK","ST",,,,,,"Hartford","CT","6106","41.7579","-72.6907","N","C","1","1","321","EMS call, excluding vehicle accident with injury",
"3214",,"2012-02-26T00:00:00.000Z","12-0057036","2","50563","25",,"BELDEN","ST",,,,,,"Hartford","CT","6120","41.775633","-72.6793","N","C","1","1","321","EMS call, excluding vehicle accident with injury",
"20373","2001-05-07T00:00:00.000Z","2012-12-05T00:00:00.000Z","12-0340004","2","18905","62",,"CHESTNUT","ST",,,,,,"Hartford","CT","6120","41.774056","-72.680611","N","A","1","4","552","Police matter",
"37021",,"2013-08-25T00:00:00.000Z","13-0237015","10","31725","51",,"BODWELL","ST",,,,,,"Hartford","CT","6114","41.739205","-72.673465","N","D","1","1","300","Rescue, EMS incident, other",
"41927",,"2013-11-09T00:00:00.000Z","13-0313007","14","12235","63",,"DEERFIELD","AV",,,,,,"Hartford","CT","6112","41.782139","-72.692969","N","D","1","1","300","Rescue, EMS incident, other",
"21820",,"2012-12-30T00:00:00.000Z","12-0365045","10",,,,"BOLTON","ST",,"WETHERSFIELD",,"AV",,"Hartford","CT","6114","41.7304","-72.67","N","C","1","1","622","No Incident found on arrival at dispatch address",
"20952",,"2012-12-14T00:00:00.000Z","12-0349066","9","28625","614",,"NEW BRITAIN","AV",,,,,,"Hartford","CT","6106","41.734155","-72.701645","N","C","1","1","311","Medical assist, assist EMS crew",
"3543",,"2012-03-02T00:00:00.000Z","12-0062048","15","33109","8",,"KENNETH","ST",,,,,,"Hartford","CT","6114","41.741174","-72.6846","N","D","1","1","311","Medical assist, assist EMS crew",
"1568",,"2012-01-28T00:00:00.000Z","12-0028028","14","19195","629",,"ALBANY","AV",,,,,,"Hartford","CT","6112","41.778284","-72.687751","N","B","1","1","321","EMS call, excluding vehicle accident with injury",
"32693",,"2013-06-22T00:00:00.000Z","13-0173053","15","27413","100",,"SHERBROOKE","AV",,,,,,"Hartford","CT","6106","41.741086","-72.6987","N","A","1","1","550","Public service assistance, Other",
"31947",,"2013-06-11T00:00:00.000Z","13-0162042","7","7889","624",,"GARDEN","ST",,,,,,"Hartford","CT","6112","41.787448","-72.68287","N","B","1","1","113","Cooking fire, confined to container",
"30215","2011-11-05T00:00:00.000Z","2013-05-17T00:00:00.000Z","13-0137023","9","37629","377",,"LINNMOORE","ST",,,,,,"Hartford","CT","6106","41.731559","-72.704059","N","A","1","3","531","Smoke or odor removal",
"35277",,"2013-07-28T00:00:00.000Z","13-0209042","8","21013","753",,"PARK","ST",,,,,,"Hartford","CT","6106","41.7579","-72.6898","N","A","1","1","321","EMS call, excluding vehicle accident with injury",
"20391",,"2012-12-05T00:00:00.000Z","12-0340022","15","28235","151",,"HILLSIDE","AV",,,,,,"Hartford","CT","6106","41.748438","-72.698723","N","B","1","1","321","EMS call, excluding vehicle accident with injury",
"44260",,"2013-12-19T00:00:00.000Z","13-0353061","14","12816","46",,"VINE","ST",,,,,,"Hartford","CT","6112","41.780569","-72.688948","N","A","1","1","300","Rescue, EMS incident, other",
"11886",,"2012-07-17T00:00:00.000Z","12-0199014","1","34902","400",,"WASHINGTON","ST",,,,,,"Hartford","CT","6106","41.749226","-72.6836","N","A","1","1","311","Medical assist, assist EMS crew",
"29484",,"2013-05-06T00:00:00.000Z","13-0126011","5","10823","7",,"MAY","ST",,,,,,"Hartford","CT","6105","41.773433","-72.694233","N","A","1","1","311","Medical assist, assist EMS crew",
"44027",,"2013-12-16T00:00:00.000Z","13-0350033","15","33631","33",,"ROXBURY","ST",,,,,,"Hartford","CT","6114","41.739438","-72.689454","N","B","1","1","311","Medical assist, assist EMS crew",
"6702",,"2012-04-28T00:00:00.000Z","12-0119011","7","50060",,,"MONTVILLE","ST",,,,,,"Hartford","CT","6120","41.794836","-72.665734","N","A","1","1","321","EMS call, excluding vehicle accident with injury",
"22900",,"2013-01-16T00:00:00.000Z","13-0016027","11","21900","1069",,"CAPITOL","AV",,,,,,"Hartford","CT","6106","41.759862","-72.712862","N","D","1","1","300","Rescue, EMS incident, other",
"29868",,"2013-05-12T00:00:00.000Z","13-0132011","8","27683","45",,"HARBISON","AV",,,,,,"Hartford","CT","6106","41.7515","-72.69595","N","C","1","4","311","Medical assist, assist EMS crew",
"10656",,"2012-06-28T00:00:00.000Z","12-0180011","2","17744","58",,"PLINY","ST",,,,,,"Hartford","CT","6120","41.78046","-72.682713","N","A","1","1","311","Medical assist, assist EMS crew",
"196",,"2012-01-04T00:00:00.000Z","12-0004039","2","54010","21",,"TEMPLE","ST",,,,,,"Hartford","CT","6103","41.76745","-72.673075","N","B","1","1","353","Removal of victim(s) from stalled elevator",
"22190",,"2013-01-05T00:00:00.000Z","13-0005019","5","19663","15",,"WOODLAND","ST",,,,,,"Hartford","CT","6105","41.768272","-72.702389","N","A","1","1","311","Medical assist, assist EMS crew",
"44134",,"2013-12-18T00:00:00.000Z","13-0352010","14","12658","190",,"EDGEWOOD","ST",,,,,,"Hartford","CT","6112","41.783342","-72.690664","N","C","2","1","111","Building fire",
"39190",,"2013-09-26T00:00:00.000Z","13-0269032","5","11357","999",,"ASYLUM","AV",,,,,,"Hartford","CT","6105","41.77138","-72.69824","N","A","1","1","300","Rescue, EMS incident, other",
"30960",,"2013-05-29T00:00:00.000Z","13-0149004","15",,,,"CATHERINE","ST",,"ZION",,"ST",,"Hartford","CT","6106","41.7465","-72.6942","N","D","1","1","352","Extrication of victim(s) from vehicle",
"16979",,"2012-10-09T00:00:00.000Z","12-0283027","10","31361","46",,"ROOSEVELT","ST",,,,,,"Hartford","CT","6114","41.734414","-72.673057","N","A","1","1","321","EMS call, excluding vehicle accident with injury",
"30926",,"2013-05-28T00:00:00.000Z","13-0148036","9","37868","225",,"WHITE","ST",,,,,,"Hartford","CT","6106","41.734577","-72.696438","N","D","1","1","221","Overpressure rupture of air or gas pipe/pipeline",
"12318",,"2012-07-24T00:00:00.000Z","12-0206012","7","8401","181",,"CLARK","ST",,,,,,"Hartford","CT","6120","41.790035","-72.676917","N","D","1","1","321","EMS call, excluding vehicle accident with injury",
"29104",,"2013-04-30T00:00:00.000Z","13-0120015","2",,,,"ALBANY","AV",,"MAIN",,"ST",,"Hartford","CT","6103","41.7737","-72.678","N","D","1","6","324","Motor Vehicle Accident with no injuries",
"39100",,"2013-09-25T00:00:00.000Z","13-0268012","14","19336","333",,"HOMESTEAD","AV",,,,,,"Hartford","CT","6112","41.779927","-72.700518","N","D","1","1","300","Rescue, EMS incident, other",
"28910",,"2013-04-27T00:00:00.000Z","13-0117003","2","55001","960",,"MAIN","ST",,,,,,"Hartford","CT","6103","41.7683","-72.6734","N","D","1","1","552","Police matter",
"28351",,"2013-04-17T00:00:00.000Z","13-0107049","8","19518","560",,"PARK","ST",,,,,,"Hartford","CT","6106","41.7578","-72.6864","N","C","1","1","321","EMS call, excluding vehicle accident with injury",
"13275",,"2012-08-10T00:00:00.000Z","12-0223023","7","9247","55",,"FISHFRY","ST",,,,,,"Hartford","CT","6120","41.793567","-72.659975","N","A","1","1","321","EMS call, excluding vehicle accident with injury",
"12442",,"2012-07-26T00:00:00.000Z","12-0208013","8","15720","227",,"JEFFERSON","ST",,,,,,"Hartford","CT","6106","41.755102","-72.685263","N","B","1","1","321","EMS call, excluding vehicle accident with injury",
"16313",,"2012-09-28T00:00:00.000Z","12-0272033","10","30894","210",,"GEORGE ST",,,,,,,"Hartford","CT","6114","41.73166","-72.67894","N","B","1","1","321","EMS call, excluding vehicle accident with injury",
"15560","2020-02-21T00:00:00.000Z","2012-09-16T00:00:00.000Z","12-0260048","8","21018","827",,"PARK","ST",,,,,,"Hartford","CT","6106","41.7579","-72.6907","N","B","1","1","321","EMS call, excluding vehicle accident with injury",
"30745",,"2013-05-25T00:00:00.000Z","13-0145022","15","27905","17",,"WILSON","ST",,,,,,"Hartford","CT","6106","41.74907","-72.695013","N","A","1","1","552","Police matter",
"40987",,"2013-10-24T00:00:00.000Z","13-0297026","11","12177","25",,"DENISON","ST",,,,,,"Hartford","CT","6105","41.76586","-72.70618","N","A","1","1","311","Medical assist, assist EMS crew",
"2839",,"2012-02-19T00:00:00.000Z","12-0050037","7","8717","269",,"MARTIN","ST",,,,,,"Hartford","CT","6120","41.792836","-72.679173","N","D","1","1","321","EMS call, excluding vehicle accident with injury",
"14352",,"2012-08-27T00:00:00.000Z","12-0240017","1","23429","111",,"CHARTER OAK","AV",,,,,,"Hartford","CT","6106","41.758464","-72.668418","N","B","1","1","321","EMS call, excluding vehicle accident with injury",
"21470",,"2012-12-24T00:00:00.000Z","12-0359006","5","19663","15",,"WOODLAND","ST",,,,,,"Hartford","CT","6105","41.768272","-72.702389","N","D","1","1","311","Medical assist, assist EMS crew",
"35260",,"2013-07-28T00:00:00.000Z","13-0209025","7","8029","3545",,"MAIN","ST",,,,,,"Hartford","CT","6120","41.799703","-72.662161","N","A","1","1","300","Rescue, EMS incident, other",
"14666",,"2012-09-01T00:00:00.000Z","12-0245057","2","18847","135",,"BEDFORD","ST",,,,,,"Hartford","CT","6120","41.77925","-72.6844","N","C","1","1","321","EMS call, excluding vehicle accident with injury",
"10328",,"2012-06-23T00:00:00.000Z","12-0175006","1","47863","80",,"CHARTER OAK","AV",,,,,,"Hartford","CT","6106","41.758862","-72.671177","N","D","1","1","353","Removal of victim(s) from stalled elevator",
"30536",,"2013-05-22T00:00:00.000Z","13-0142011","11",,"6",,"GRAY","ST",,,,,,"Hartford","CT","6105","41.763822","-72.708789","N","A","1","1","311","Medical assist, assist EMS crew",
"44470",,"2013-12-23T00:00:00.000Z","13-0357060","1","23927","452",,"HUDSON","ST",,,,,,"Hartford","CT","6106","41.757375","-72.678772","N","A","1","1","300","Rescue, EMS incident, other",
"27008","2018-10-24T00:00:00.000Z","2013-03-25T00:00:00.000Z","13-0084046","9","38920","546",,"HILLSIDE","AV",,,,,,"Hartford","CT","6106","41.735394","-72.696969","N","D","1","1","552","Police matter",
"4547",,"2012-03-20T00:00:00.000Z","12-0080015","15","28235","151",,"HILLSIDE","AV",,,,,,"Hartford","CT","6106","41.748438","-72.698723","N","B","1","1","321","EMS call, excluding vehicle accident with injury",
"16560",,"2012-10-02T00:00:00.000Z","12-0276029","11","50471","33",,"DOROTHY","ST",,,,,,"Hartford","CT","6106","41.7575","-72.7122","N","B","1","1","300","Rescue, EMS incident, other",
"36743",,"2013-08-21T00:00:00.000Z","13-0233005","7","6928","45",,"BARBOUR","ST",,,,,,"Hartford","CT","6120","41.786437","-72.679633","N","D","1","1","321","EMS call, excluding vehicle accident with injury",
"30732",,"2013-05-25T00:00:00.000Z","13-0145009","16","3926","225",,"COLEBROOK","ST",,,,,,"Hartford","CT","6112","41.794441","-72.70423","N","D","1","1","321","EMS call, excluding vehicle accident with injury",
"9236",,"2012-06-08T00:00:00.000Z","12-0160009","1",,,,"CAPITOL","AV",,"HUDSON",,"ST",,"Hartford","CT","6106","41.7612","-72.6773","N","A","1","1","520","Water problem, Other",
"38876",,"2013-09-21T00:00:00.000Z","13-0264027","7","4045","60",,"WAVERLY","ST",,,,,,"Hartford","CT","6112","41.7946","-72.68221","N","D","1","1","311","Medical assist, assist EMS crew",
"34592",,"2013-07-19T00:00:00.000Z","13-0200007","1","2312","345",,"MAIN","ST",,,,,,"Hartford","CT","6106","41.75995","-72.675425","N","C","1","1","321","EMS call, excluding vehicle accident with injury",
"6113",,"2012-04-17T00:00:00.000Z","12-0108044","1","24857","40",,"GROTON","ST",,,,,,"Hartford","CT","6106","41.755715","-72.673938","N","B","1","1","311","Medical assist, assist EMS crew",
"1789",,"2012-02-01T00:00:00.000Z","12-0032023","11","9632","243",,"SOUTH WHITNEY","ST",,,,,,"Hartford","CT","6105","41.764485","-72.710649","N","B","1","1","300","Rescue, EMS incident, other",
"32192",,"2013-06-15T00:00:00.000Z","13-0166026","7","45650","81",,"HAMPTON","ST",,,,,,"Hartford","CT","6120","41.793515","-72.673185","N","B","1","1","321","EMS call, excluding vehicle accident with injury",
"3677","2009-01-22T00:00:00.000Z","2012-03-05T00:00:00.000Z","12-0065015","2",,,,"CHAPEL","ST","SO","TRUMBULL",,"ST",,"Hartford","CT","6103","41.769613","-72.675769","N","C","1","1","324","Motor Vehicle Accident with no injuries",
"21053",,"2012-12-16T00:00:00.000Z","12-0351039","1","24866","54",,"STONINGTON","ST",,,,,,"Hartford","CT","6106","41.7544","-72.6735","N","A","1","1","321","EMS call, excluding vehicle accident with injury",
"18738",,"2012-11-06T00:00:00.000Z","12-0311021","1","24146","80",,"SEYMOUR","ST",,,,,,"Hartford","CT","6106","41.754047","-72.681136","N","A","1","2","743","Smoke detector activation, no fire - unintentional",
"2397",,"2012-02-11T00:00:00.000Z","12-0042057","2","18774","67",,"GREEN","ST",,,,,,"Hartford","CT","6120","41.77845","-72.681475","N","D","1","1","311","Medical assist, assist EMS crew",
"30898",,"2013-05-28T00:00:00.000Z","13-0148008","8",,"101",,"LAFAYETTE","ST",,,,,,"Hartford","CT","6106","41.760459","-72.683162","N","C","1","1","321","EMS call, excluding vehicle accident with injury",
"8212",,"2012-05-22T00:00:00.000Z","12-0143060","14","19336","333",,"HOMESTEAD","AV",,,,,,"Hartford","CT","6112","41.779927","-72.700518","N","A","1","1","322","Motor vehicle accident with injuries",
"28336",,"2013-04-17T00:00:00.000Z","13-0107034","9",,,,"FORSTER","ST",,"LINNMOORE",,"ST",,"Hartford","CT","6106","41.7317","-72.7034","N","C","1","1","622","No Incident found on arrival at dispatch address",
"26215",,"2013-03-11T00:00:00.000Z","13-0070010","8","15139","868",,"PARK","ST",,,,,,"Hartford","CT","6106","41.7579","-72.6907","N","A","1","1","321","EMS call, excluding vehicle accident with injury",
"18784",,"2012-11-07T00:00:00.000Z","12-0312009","7",,"2447",,"MAIN","ST",,,,,,"Hartford","CT","6120","41.787364","-72.674045","N","B","1","1","321","EMS call, excluding vehicle accident with injury",
"32100",,"2013-06-14T00:00:00.000Z","13-0165020","16","5701","500",,"VINE","ST",,,,,,"Hartford","CT","6112","41.794","-72.687","N","A","1","1","321","EMS call, excluding vehicle accident with injury",
"9556",,"2012-06-12T00:00:00.000Z","12-0164071","5","11575","31",,"GILLETT","ST",,,,,,"Hartford","CT","6105","41.768667","-72.700225","N","B","1","1","321","EMS call, excluding vehicle accident with injury",
"32539",,"2013-06-20T00:00:00.000Z","13-0171057","15","40623","120",,"WEBSTER","ST",,,,,,"Hartford","CT","6114","41.747014","-72.683729","N","C","1","1","311","Medical assist, assist EMS crew",
"29983",,"2013-05-14T00:00:00.000Z","13-0134010","7","6470","171",,"CAPEN","ST",,,,,,"Hartford","CT","6120","41.7856","-72.6816","N","A","1","1","321","EMS call, excluding vehicle accident with injury",
"7122",,"2012-05-05T00:00:00.000Z","12-0126042","2","23513","310",,"GARDEN","ST",,,,,,"Hartford","CT","6112","41.776717","-72.686389","N","D","1","1","321","EMS call, excluding vehicle accident with injury",
"20007",,"2012-11-29T00:00:00.000Z","12-0334002","5","10823","7",,"MAY","ST",,,,,,"Hartford","CT","6105","41.773433","-72.694233","N","C","1","1","353","Removal of victim(s) from stalled elevator",
"29376","2019-07-26T00:00:00.000Z","2013-05-04T00:00:00.000Z","13-0124044","14",,,,"KENEY PK-SO PLAYGROUND",,,,,,,"Hartford","CT","6112","41.7849","-72.6922","N","D","1","1","150","Outside rubbish fire, Other",
"8406",,"2012-05-26T00:00:00.000Z","12-0147016","2",,"225",,"ASYLUM","ST",,,,,,"Hartford","CT","6103","41.767133","-72.677733","N","D","1","3","735","Alarm system sounded due to malfunction",
"4152",,"2012-03-12T00:00:00.000Z","12-0072069","10","30494","450",,"FRANKLIN","AV",,,,,,"Hartford","CT","6114","41.7371","-72.6758","N","B","1","1","300","Rescue, EMS incident, other",
"26291",,"2013-03-12T00:00:00.000Z","13-0071028","14","47258","88",,"OGILBY","DR",,,,,,"Hartford","CT","6112","41.78962","-72.707115","N","C","1","1","440","Electrical  wiring/equipment problem, Other",
"9188",,"2012-06-07T00:00:00.000Z","12-0159018","1","24550","43",,"MORRIS","ST",,,,,,"Hartford","CT","6114","41.752488","-72.676376","N","A","1","1","311","Medical assist, assist EMS crew",
"24946",,"2013-02-16T00:00:00.000Z","13-0047039","1","24857","40",,"GROTON","ST",,,,,,"Hartford","CT","6106","41.755715","-72.673938","N","C","1","1","321","EMS call, excluding vehicle accident with injury",
"24446",,"2013-02-09T00:00:00.000Z","13-0040048","1","40794","100",,"BENTON","ST",,,,,,"Hartford","CT","6114","41.746888","-72.679155","N","D","1","1","311","Medical assist, assist EMS crew",
"1500",,"2012-01-27T00:00:00.000Z","12-0027007","4","23888","286",,"PARK","ST",,,,,,"Hartford","CT","6106","41.75756","-72.68146","N","D","1","1","321","EMS call, excluding vehicle accident with injury",
"34243",,"2013-07-14T00:00:00.000Z","13-0195038","7","6528","17",,"ELMER","ST",,,,,,"Hartford","CT","6120","41.785533","-72.675433","N","C","1","1","622","No Incident found on arrival at dispatch address",
"2375",,"2012-02-11T00:00:00.000Z","12-0042034","14","13449","1154",,"ALBANY","AV",,,,,,"Hartford","CT","6112","41.781816","-72.695528","N","D","1","1","321","EMS call, excluding vehicle accident with injury",
"20772",,"2012-12-11T00:00:00.000Z","12-0346044","1","50272","200",,"COLUMBUS","BLVD",,,,,,"Hartford","CT","6103","41.763669","-72.670056","N","D","1","1","321","EMS call, excluding vehicle accident with injury",
"3852","2001-01-18T00:00:00.000Z","2012-03-08T00:00:00.000Z","12-0068002","8","15980","47",,"PUTNAM","ST",,,,,,"Hartford","CT","6106","41.75705","-72.6907","N","A","1","1","311","Medical assist, assist EMS crew",
"4844",,"2012-03-25T00:00:00.000Z","12-0085045","7","6326","221",,"CAPEN","ST",,,,,,"Hartford","CT","6112","41.786036","-72.683482","N","C","1","1","622","No Incident found on arrival at dispatch address",
"41563",,"2013-11-03T00:00:00.000Z","13-0307009","10","30735","61",,"MONTOWESE","ST",,,,,,"Hartford","CT","6114","41.728281","-72.677121","N","B","1","1","300","Rescue, EMS incident, other",
"7333",,"2012-05-09T00:00:00.000Z","12-0130015","1","24268","100",,"RETREAT","AV",,,,,,"Hartford","CT","6106","41.753036","-72.679387","N","D","1","1","311","Medical assist, assist EMS crew",
"23102",,"2013-01-19T00:00:00.000Z","13-0019054","11",,"990",,"CAPITOL","AV",,,,,,"Hartford","CT","6106","41.760264","-72.709864","N","C","1","1","311","Medical assist, assist EMS crew",
"22857",,"2013-01-15T00:00:00.000Z","13-0015044","11","19549","170",,"SISSON","AV",,,,,,"Hartford","CT","6105","41.763408","-72.707046","N","C","1","1","311","Medical assist, assist EMS crew",
"18623",,"2012-11-04T00:00:00.000Z","12-0309028","8","19518","560",,"PARK","ST",,,,,,"Hartford","CT","6106","41.7578","-72.6864","N","C","1","1","321","EMS call, excluding vehicle accident with injury",
"37253",,"2013-08-29T00:00:00.000Z","13-0241002","2","2408","249",,"PEARL","ST",,,,,,"Hartford","CT","6103","41.7663","-72.6779","N","D","1","1","300","Rescue, EMS incident, other",
"30344",,"2013-05-19T00:00:00.000Z","13-0139020","5","19732","814",,"ASYLUM","AV",,,,,,"Hartford","CT","6105","41.769457","-72.6919","N","C","1","1","300","Rescue, EMS incident, other",
"39933",,"2013-10-08T00:00:00.000Z","13-0281003","9","50317","705",,"NEW BRITAIN","AV",,,,,,"Hartford","CT","6106","41.733167","-72.705433","N","D","1","1","311","Medical assist, assist EMS crew",
"41728",,"2013-11-06T00:00:00.000Z","13-0310015","2","41619","253",,"HIGH","ST",,,,,,"Hartford","CT","6103","41.771989","-72.678329","N","A","1","1","300","Rescue, EMS incident, other",
"14869",,"2012-09-05T00:00:00.000Z","12-0249041","2","30073","950",,"MAIN","ST",,,,,,"Hartford","CT","6103","41.768148","-72.673519","N","C","1","1","321","EMS call, excluding vehicle accident with injury",
"34543","2016-10-01T00:00:00.000Z","2013-07-18T00:00:00.000Z","13-0199051","9",,"73",,"WILLIAM S CAMPBELL","ST",,,,,,"Hartford","CT","6106","41.740662","-72.710157","N","C","1","1","311","Medical assist, assist EMS crew",
"29893",,"2013-05-12T00:00:00.000Z","13-0132036","11","23276","16",,"DOROTHY","ST",,,,,,"Hartford","CT","6106","41.756827","-72.712273","N","D","1","1","321","EMS call, excluding vehicle accident with injury",
"18858",,"2012-11-08T00:00:00.000Z","12-0313021","5","19663","15",,"WOODLAND","ST",,,,,,"Hartford","CT","6105","41.768272","-72.702389","N","C","1","1","321","EMS call, excluding vehicle accident with injury",
"6971",,"2012-05-02T00:00:00.000Z","12-0123053","2","6254","531",,"GARDEN","ST",,,,,,"Hartford","CT","6112","41.784256","-72.683863","N","A","1","1","300","Rescue, EMS incident, other",
"42675",,"2013-11-22T00:00:00.000Z","13-0326017","8","50926","168",,"HUNGERFORD","ST",,,,,,"Hartford","CT","6106","41.75864","-72.686232","N","B","1","3","700","False alarm or false call, Other",
"38167",,"2013-09-11T00:00:00.000Z","13-0254004","16","50302","56",,"COVENTRY","ST",,,,,,"Hartford","CT","6112","41.798088","-72.69045","N","A","1","1","735","Alarm system sounded due to malfunction",
"1480","2018-04-27T00:00:00.000Z","2012-01-26T00:00:00.000Z","12-0026044","14","47751","75",,"VINE","ST",,,,,,"Hartford","CT","6112","41.781561","-72.688882","N","D","1","1","311","Medical assist, assist EMS crew",
"37454",,"2013-08-31T00:00:00.000Z","13-0243069","14","12412","109",,"EDGEWOOD","ST",,,,,,"Hartford","CT","6112","41.780724","-72.691027","N","C","1","1","300","Rescue, EMS incident, other",
"30784",,"2013-05-25T00:00:00.000Z","13-0145061","10","30284","755",,"WETHERSFIELD","AV",,,,,,"Hartford","CT","6114","41.735709","-72.671173","N","A","1","1","500","Service Call, other",
"1403",,"2012-01-25T00:00:00.000Z","12-0025034","2","20141","690",,"ASYLUM","AV",,,,,,"Hartford","CT","6105","41.768562","-72.687908","N","C","1","1","321","EMS call, excluding vehicle accident with injury",
"13975","2021-09-07T00:00:00.000Z","2012-08-20T00:00:00.000Z","12-0233049","2","12888","224",,"MATHER","ST",,,,,,"Hartford","CT","6112","41.780475","-72.6864","N","C","1","1","622","No Incident found on arrival at dispatch address",
"3433",,"2012-03-01T00:00:00.000Z","12-0061035","10","40328","80",,"WHITMORE","ST",,,,,,"Hartford","CT","6114","41.744871","-72.680737","N","C","1","1","311","Medical assist, assist EMS crew",
"12341",,"2012-07-24T00:00:00.000Z","12-0206035","8","15162","46",,"YORK","ST",,,,,,"Hartford","CT","6106","41.757127","-72.692733","N","D","1","1","324","Motor Vehicle Accident with no injuries",
"21441",,"2012-12-23T00:00:00.000Z","12-0358032","8",,"101",,"LAFAYETTE","ST",,,,,,"Hartford","CT","6106","41.760459","-72.683162","N","D","1","1","321","EMS call, excluding vehicle accident with injury",
"36194",,"2013-08-11T00:00:00.000Z","13-0223044","5","11902","31",,"WOODLAND","ST",,,,,,"Hartford","CT","6105","41.769383","-72.702033","N","C","1","1","321","EMS call, excluding vehicle accident with injury",
"17476",,"2012-10-17T00:00:00.000Z","12-0291037","2","18709","46",,"GREEN","ST",,,,,,"Hartford","CT","6120","41.778067","-72.681667","N","A","1","1","311","Medical assist, assist EMS crew",
"38260",,"2013-09-12T00:00:00.000Z","13-0255024","11","19549","170",,"SISSON","AV",,,,,,"Hartford","CT","6105","41.763408","-72.707046","N","C","1","3","710","Malicious, mischievous false call, Other",
"20079",,"2012-11-30T00:00:00.000Z","12-0335037","15","26402","243",,"SAYBROOKE","ST",,,,,,"Hartford","CT","6106","41.747036","-72.703073","N","A","1","1","300","Rescue, EMS incident, other",
"17198",,"2012-10-12T00:00:00.000Z","12-0286064","14","19185","700",,"ALBANY","AV",,,,,,"Hartford","CT","6112","41.778694","-72.688739","N","D","1","1","321","EMS call, excluding vehicle accident with injury",
"40478",,"2013-10-16T00:00:00.000Z","13-0289034","10","30718","100",,"CHESTER","ST",,,,,,"Hartford","CT","6114","41.730414","-72.6793","N","A","1","1","113","Cooking fire, confined to container",
"41845",,"2013-11-07T00:00:00.000Z","13-0311054","5","19663","15",,"WOODLAND","ST",,,,,,"Hartford","CT","6105","41.768272","-72.702389","N","C","1","1","321","EMS call, excluding vehicle accident with injury",
"24595",,"2013-02-10T00:00:00.000Z","13-0041087","14","49544","212",,"WOODLAND","DR",,,,,,"Hartford","CT","6105","41.778606","-72.70087","N","A","1","1","300","Rescue, EMS incident, other",
"23941",,"2013-02-01T00:00:00.000Z","13-0032055","7","6446","520",,"GARDEN","ST",,,,,,"Hartford","CT","6112","41.783998","-72.683946","N","D","1","3","700","False alarm or false call, Other",
"1754",,"2012-01-31T00:00:00.000Z","12-0031052","2","17327","1978",,"MAIN","ST",,,,,,"Hartford","CT","6120","41.781494","-72.676461","N","A","1","4","321","EMS call, excluding vehicle accident with injury",
"1708","2005-08-17T00:00:00.000Z","2012-01-31T00:00:00.000Z","12-0031006","15","26513","203",,"HILLSIDE","AV",,,,,,"Hartford","CT","6106","41.7469","-72.69854","N","D","1","1","321","EMS call, excluding vehicle accident with injury",
"35063",,"2013-07-25T00:00:00.000Z","13-0206026","11","9632","243",,"SOUTH WHITNEY","ST",,,,,,"Hartford","CT","6105","41.764485","-72.710649","N","B","1","1","311","Medical assist, assist EMS crew",
"26324","2008-06-29T00:00:00.000Z","2013-03-13T00:00:00.000Z","13-0072009","1","24122","282",,"WASHINGTON","ST",,,,,,"Hartford","CT","6106","41.753209","-72.683218","N","D","1","2","611","Dispatched & cancelled en route",
"5837",,"2012-04-13T00:00:00.000Z","12-0104006","15","54069","7",,"BROWNELL","AV",,,,,,"Hartford","CT","6106","41.748908","-72.687115","N","A","1","1","311","Medical assist, assist EMS crew",
"30683",,"2013-05-24T00:00:00.000Z","13-0144027","14","12403","28",,"DEERFIELD","AV",,,,,,"Hartford","CT","6112","41.78326","-72.692644","N","D","1","1","321","EMS call, excluding vehicle accident with injury",
"19424","2011-02-13T00:00:00.000Z","2012-11-18T00:00:00.000Z","12-0323014","7","6484","510",,"GARDEN","ST",,,,,,"Hartford","CT","6112","41.783675","-72.68405","N","A","1","1","311","Medical assist, assist EMS crew",
"37660",,"2013-09-03T00:00:00.000Z","13-0246070","16",,,,"MORNINGSIDE","ST","WE","NORTH CANAAN",,"ST",,"Hartford","CT","6112","41.8066","-72.7059","N","B","1","1","552","Police matter",
"24240",,"2013-02-06T00:00:00.000Z","13-0037018","11","12177","25",,"DENISON","ST",,,,,,"Hartford","CT","6105","41.76586","-72.70618","N","A","1","1","311","Medical assist, assist EMS crew",
"13512",,"2012-08-13T00:00:00.000Z","12-0226036","2","49904","303",,"MARY SHEPARDS PL",,,,,,,"Hartford","CT","6120","41.778896","-72.673791","N","D","1","1","321","EMS call, excluding vehicle accident with injury",
"26547",,"2013-03-17T00:00:00.000Z","13-0076012","7","49393","127",,"HAMPTON","ST",,,,,,"Hartford","CT","6120","41.794975","-72.6723","N","C","1","1","321","EMS call, excluding vehicle accident with injury",
"9569",,"2012-06-13T00:00:00.000Z","12-0165005","11","10198","873",,"WEST","BLVD",,,,,,"Hartford","CT","6105","41.7613","-72.7085","N","B","1","1","300","Rescue, EMS incident, other",
"9271",,"2012-06-08T00:00:00.000Z","12-0160044","8",,"101",,"LAFAYETTE","ST",,,,,,"Hartford","CT","6106","41.760459","-72.683162","N","B","1","1","321","EMS call, excluding vehicle accident with injury",
"41178",,"2013-10-27T00:00:00.000Z","13-0300051","14","12812","56",,"VINE","ST",,,,,,"Hartford","CT","6112","41.780948","-72.688914","N","D","1","1","300","Rescue, EMS incident, other",
"10935",,"2012-07-02T00:00:00.000Z","12-0184046","5","20255","847",,"ASYLUM","AV",,,,,,"Hartford","CT","6105","41.769717","-72.692796","N","B","1","1","321","EMS call, excluding vehicle accident with injury",
"39464","2002-04-30T00:00:00.000Z","2013-10-01T00:00:00.000Z","13-0274008","1","40741","109",,"FRANKLIN","AV",,,,,,"Hartford","CT","6114","41.7485","-72.67764","N","A","1","1","520","Water problem, Other",
"39285",,"2013-09-28T00:00:00.000Z","13-0271009","1",,,,"BUCKINGHAM","ST",,"MAIN",,"ST",,"Hartford","CT","6106","41.7597","-72.6755","N","B","1","1","622","No Incident found on arrival at dispatch address",
