DCA License Number,License Type,License Expiration Date,License Status,License Creation Date,Industry,Business Name,Business Name 2,Address Building,Address Street Name,Secondary Address Street Name,Address City,Address State,Address ZIP,Contact Phone Number,Address Borough,Borough Code,Community Board,Council District,BIN,BBL,NTA,Census Tract,Detail,Longitude,Latitude,Location
1057563-DCA,Business,02/28/2023,Active,07/27/2000,Home Improvement Contractor,"HITE CONSTRUCTION, INC.",,60,WHITNEY RD,,MAHWAH,NJ,07430,2018488500,Outside NYC,,,,,,,,,,,
2091349-DCA,Business,02/28/2023,Active,10/11/2019,Home Improvement Contractor,"CHESTER FILMS, INC.",BLUELINE BATHROOMS AND TILE,101,TRAFALGAR SQ,,LYNBROOK,NY,11563,516 426-6361,Outside NYC,,,,,,,,,,,
2039560-DCA,Business,02/28/2023,Active,06/27/2016,Home Improvement Contractor,MATT MASON CONSTRUCTION INC,,9115,187TH PL,,HOLLIS,NY,11423,7182642492,Queens,4,412,27,4212227,4099100021,,,,-73.77204448073554,40.711205352700084,"(40.711205352700084, -73.77204448073554)"
1121313-DCA,Business,02/28/2023,Active,08/28/2002,Home Improvement Contractor,MAXXUM CONSTRUCTION CORP.,,2,BARK AVE,,CENTRAL ISLIP,NY,11722,6315822155,Outside NYC,,,,,,,,,-77.51958437167269,40.11238533659802,"(40.11238533659802, -77.51958437167269)"
2056661-DCA,Business,02/28/2023,Active,08/04/2017,Home Improvement Contractor,PRECISION FABRICATORS CORP.,,8,OAK TREE DR,,BAY SHORE,NY,11706,6316660186,Outside NYC,,,,,,,,,,,
2098311-DCA,Business,02/28/2023,Active,04/07/2021,Home Improvement Contractor,MAC GLOBAL DESIGN & RENOVATION INC.,,58,ANN DR S,,FREEPORT,NY,11520,9177494522,Outside NYC,,,,,,,,,,,
2006868-DCA,Business,02/28/2023,Active,04/24/2014,Home Improvement Contractor,METROPOLITAN INNOVATIONS NY INC,,729,SOUTH ST,,PEEKSKILL,NY,10566,7186440071,Outside NYC,,,,,,,,,,,
2035651-DCA,Business,02/28/2023,Active,04/07/2016,Home Improvement Contractor,SSA Renovation LLC,,1774,63RD ST,,BROOKLYN,NY,11204,9172386390,Brooklyn,3,311,38,3133107,3055390043,,,,-73.98972661298001,40.62073765510229,"(40.62073765510229, -73.98972661298001)"
2045842-DCA,Business,02/28/2023,Active,11/22/2016,Home Improvement Contractor,VMW CONSTRUCTION DELUXE LLC,,29,WASHINGTON ST,,PORT CHESTER,NY,10573,,Outside NYC,,,,,,,,,,,
1304714-DCA,Business,02/28/2023,Active,11/20/2008,Home Improvement Contractor,"REFINEMENTS, LTD.",,115,CONNECTICUT AVE,,LONG BEACH,NY,11561,5164322913,Outside NYC,,,,,,,,,-77.51958437167269,40.11238533659802,"(40.11238533659802, -77.51958437167269)"
1173273-DCA,Business,02/28/2023,Active,07/08/2004,Home Improvement Contractor,"FIGUEROA, JORGE",JORGE'S CLEANING,705,41ST ST,,BROOKLYN,NY,11232,9175205907,Brooklyn,3,307,38,3018062,3009190001,,,,-74.00026306287403,40.64725550811075,"(40.64725550811075, -74.00026306287403)"
2078342-DCA,Business,02/28/2023,Active,09/20/2018,Home Improvement Contractor,"Common Sense Contracting, LLC",,37,W 8TH ST,,NEW YORK,NY,10011,9175389121,Manhattan,1,102,03,1077923,1005720062,,,,-73.9982824765753,40.73308169292146,"(40.73308169292146, -73.9982824765753)"
0996965-DCA,Business,02/28/2023,Active,02/03/2003,Home Improvement Contractor,RAYS CONTRACTING LLC,,1,SUGAR MAPLE CT,,DIX HILLS,NY,11746,631-254-9209,Outside NYC,,,,,,,,,,,
1462618-DCA,Business,02/28/2023,Active,04/17/2013,Home Improvement Contractor,"PRECISION CONSTRUCTION OF NEW YORK, INC.",,6015,19TH AVE,,BROOKLYN,NY,11204,9174502811,Brooklyn,3,312,44,3132196,3055200003,,,,-73.98523114455739,40.62056149879869,"(40.62056149879869, -73.98523114455739)"
2071733-DCA,Business,02/28/2023,Active,05/23/2018,Home Improvement Contractor,ORANGE MECHANICAL LLC,,1365,N RAILROAD AVE,,STATEN ISLAND,NY,10306,702-985-5416,Staten Island,5,502,50,5052422,5036290033,,,,-74.11568711501171,40.57490487005831,"(40.57490487005831, -74.11568711501171)"
2105803-DCA,Business,02/28/2023,Active,05/06/2022,Home Improvement Contractor,US EMPIRE CONSTRUCTION CORP.,,12008,103RD AVE,,SOUTH RICHMOND HILL,NY,11419,7186598700,Queens,4,410,28,4203752,4095580004,,,,-73.82376186067091,40.68830044753537,"(40.68830044753537, -73.82376186067091)"
2105991-DCA,Business,02/28/2023,Active,05/12/2022,Home Improvement Contractor,AFL General Construction Inc.,,36,COMMERCE DR,,FARMINGDALE,NY,11735,6314461100,Outside NYC,,,,,,,,,,,
2105893-DCA,Business,02/28/2023,Active,05/10/2022,Home Improvement Contractor,BEST & FAST HEATING PLUMBING & ELECTRIC CORP,,9614,LIBERTY AVE,,OZONE PARK,NY,11417,5869449908,Queens,4,410,32,4191227,4091690009,,,,-73.84210091168038,40.68076246917286,"(40.68076246917286, -73.84210091168038)"
2105920-DCA,Business,02/28/2023,Active,05/11/2022,Home Improvement Contractor,EJE GENERAL CONSTRUCTION LLC,,6307,DEWEY AVE,,WEST NEW YORK,NJ,07093,2016605578,Outside NYC,,,,,,,,,,,
2105808-DCA,Business,02/28/2023,Active,05/06/2022,Home Improvement Contractor,La Clave Improvements Inc,,164,PINE ST,,FREEPORT,NY,11520,5164745024,Outside NYC,,,,,,,,,,,
2105984-DCA,Business,02/28/2023,Active,05/12/2022,Home Improvement Contractor,ANTONIO'S CONCRETE LLC,,138,KREISCHER ST,,STATEN ISLAND,NY,10309,718.554.4236,Staten Island,5,503,51,5086883,5074080020,,,,-74.23938231890149,40.53632742246752,"(40.53632742246752, -74.23938231890149)"
2103192-DCA,Business,02/28/2023,Active,12/20/2021,Home Improvement Contractor,VILLANUEVA HOME IMPROVEMENT CORP,,747,44TH ST,,BROOKLYN,NY,11220,8580094,Brooklyn,3,307,38,3011038,3007320060,,,,-74.00135491178696,40.64517769889522,"(40.64517769889522, -74.00135491178696)"
2105988-DCA,Business,02/28/2023,Active,05/12/2022,Home Improvement Contractor,GURNEET GENERAL CONSTRUCTION INC,,11918,101ST AVE,,SOUTH RICHMOND HILL,NY,11419,9294235837,Queens,4,409,28,4200563,4094870009,,,,-73.82570088762526,40.69002711981771,"(40.69002711981771, -73.82570088762526)"
1442594-DCA,Business,02/28/2023,Active,08/24/2012,Home Improvement Contractor,"HOTI GROUP, CORP.",,6,WEST AVE,,LARCHMONT,NY,10538,9179718243,Outside NYC,,,,,,,,,,,
2105890-DCA,Business,02/28/2023,Active,05/10/2022,Home Improvement Contractor,SSL CONSTRUCTION CORP,,161,E 90TH ST,,NEW YORK,NY,10128,347-583-8893,Manhattan,1,108,05,1048257,1015190025,,,,-73.95306575285682,40.78179136560831,"(40.78179136560831, -73.95306575285682)"
2105817-DCA,Business,02/28/2023,Active,05/06/2022,Home Improvement Contractor,JQMH Contracting Corp.,,7521,60TH LN,,GLENDALE,NY,11385,9173406926,Queens,4,405,30,4086611,4035850042,,,,-73.89477385018367,40.698142205850324,"(40.698142205850324, -73.89477385018367)"
2105937-DCA,Business,02/28/2023,Active,05/11/2022,Home Improvement Contractor,REDFORT CONSTRUCTION INC,,63118,WOODHAVEN BLVD,,REGO PARK,NY,11374,7188085744,Queens,4,405,30,4070122,4030150032,,,,-73.86666234172078,40.72156984154024,"(40.72156984154024, -73.86666234172078)"
1355187-DCA,Business,02/28/2023,Active,05/19/2010,Home Improvement Contractor,LEONIDAS INTERIORS LLC,,185,OLD WILMOT RD,,SCARSDALE,NY,10583,9147232372,Outside NYC,,,,,,,,,,,
0891524-DCA,Business,02/28/2023,Active,03/10/2008,Home Improvement Contractor,"TOTINO, PASQUALE",PAT TOTINO  LANDSCAPING,24,STEEPLECHASE DR,,MARLBORO,NJ,07746,7189667992,Staten Island,5,,,,,,,,,,
2000213-DCA,Business,02/28/2023,Active,10/26/2013,Home Improvement Contractor,kropan corp,,323,CARMITA AVE,,RUTHERFORD,NJ,07070,917217-0816,Outside NYC,,,,,,,,,,,
2105945-DCA,Business,02/28/2023,Active,05/11/2022,Home Improvement Contractor,SUAREZ HOME IMPROVEMENT LLC,,13,HUMBOLDT ST,,BROOKLYN,NY,11206,917-995-7607,Brooklyn,3,301,34,3071662,3031270025,,,,-73.94051021243463,40.701520804453814,"(40.701520804453814, -73.94051021243463)"
2016593-DCA,Business,02/28/2023,Active,12/17/2014,Home Improvement Contractor,"AAA AMERICAN HOMES, INC",,8404,BAY PKWY,,BROOKLYN,NY,11214,9172947003,Brooklyn,3,311,47,3165429,3063350038,,,,-73.99272915272256,40.6029955349862,"(40.6029955349862, -73.99272915272256)"
1300000-DCA,Business,02/28/2023,Active,09/22/2008,Home Improvement Contractor,NICHIBI ORGANIZATION INC.,NIPPON BIKEN CONSTRUCTION,36,STRATHMORE RD,,GREAT NECK,NY,11023,9175677529,Outside NYC,,,,,,,,,,,
2105864-DCA,Business,02/28/2023,Active,05/09/2022,Home Improvement Contractor,Alfredo and Sons Construction Corp,,639,VAN DUZER ST,,STATEN ISLAND,NY,10304,7188103998,Staten Island,5,501,49,5014115,5005440040,,,,-74.08504065568346,40.624058051545724,"(40.624058051545724, -74.08504065568346)"
2103868-DCA,Business,02/28/2023,Active,02/09/2022,Home Improvement Contractor,"NOMIS CONSTRUCTION,LLC",,2927,VALENTINE AVE,,BRONX,NY,10458,9175282183,Bronx,2,207,11,2092517,2033200052,,,,-73.88747138786468,40.8709685034693,"(40.8709685034693, -73.88747138786468)"
1240379-DCA,Business,02/28/2023,Active,09/29/2006,Home Improvement Contractor,AMIGO CONSTRUCTION INC,,39,CENTER ST,,WILLISTON PARK,NY,11596,5167922832,Outside NYC,,,,,,,,,,,
2105806-DCA,Business,02/28/2023,Active,05/06/2022,Home Improvement Contractor,C.A. RENOVATION INC,,2319,31ST AVE,,ASTORIA,NY,11106,9176703643,Queens,4,401,22,4006682,4005700013,,,,-73.92821040853418,40.76656447489364,"(40.76656447489364, -73.92821040853418)"
2047263-DCA,Business,02/28/2023,Active,01/11/2017,Home Improvement Contractor,ADVANCED RESTORATION CORP.,,151,LAFAYETTE RD,,WEST BABYLON,NY,11704,6314222100,Outside NYC,,,,,,,,,,,
2105940-DCA,Business,02/28/2023,Active,05/11/2022,Home Improvement Contractor,"Howard M. Haimes, Inc.",,648,BROADWAY,,NEW YORK,NY,10012,6172247703,Manhattan,1,102,01,1008419,1005290003,,,,-73.99568134698426,40.726705557881324,"(40.726705557881324, -73.99568134698426)"
2105943-DCA,Business,02/28/2023,Active,05/11/2022,Home Improvement Contractor,"All Week Walls, Inc",,407,TANFORAN DR,,CHERRY HILL,NJ,08002,6462652452,Outside NYC,,,,,,,,,,,
2105997-DCA,Business,02/28/2023,Active,05/12/2022,Home Improvement Contractor,"HOSSAIN, MD SHAHADAT",FH CONSTRUCTION CO,17,TURNER PL,,BROOKLYN,NY,11218,3479518783,Brooklyn,3,312,40,3124788,3053410032,,,,-73.9713017867463,40.645242745736255,"(40.645242745736255, -73.9713017867463)"
2105905-DCA,Business,02/28/2023,Active,05/10/2022,Home Improvement Contractor,BROOKLYN BD CONSTRUCTION CORPORATION,,312,AVENUE C,,BROOKLYN,NY,11218,9175305952,Brooklyn,3,312,39,3126041,3053720004,,,,-73.97664740069095,40.64057233110773,"(40.64057233110773, -73.97664740069095)"
2105980-DCA,Business,02/28/2023,Active,05/12/2022,Home Improvement Contractor,Nouveau Construction & Design LLC,,233,SIMONSON AVE,,STATEN ISLAND,NY,10303,3474610701,Staten Island,5,501,49,5026930,5011760047,,,,-74.15236224834986,40.63073799016176,"(40.63073799016176, -74.15236224834986)"
1338624-DCA,Business,02/28/2023,Active,11/13/2009,Home Improvement Contractor,"DAAB & SON, LLC",HERITAGE GENERAL CONSTRUCTION,9910,160TH AVE,,HOWARD BEACH,NY,11414,7187387002,Queens,4,410,32,4296149,4142250005,,,,-73.83366251122546,40.65832571427134,"(40.65832571427134, -73.83366251122546)"
2052313-DCA,Business,02/28/2023,Active,05/02/2017,Home Improvement Contractor,L A J CONTRUCTION CORP,,4025,154TH ST,,FLUSHING,NY,11354,7188131959,Queens,4,407,20,4119239,4052690001,,,,-73.81111904312866,40.763681777387596,"(40.763681777387596, -73.81111904312866)"
2105854-DCA,Business,02/28/2023,Active,05/09/2022,Home Improvement Contractor,AYRA CONSTRUCTION CORP,,21,MARLBOROUGH RD,,BROOKLYN,NY,11226,6467324204,Brooklyn,3,314,40,3116467,3050760052,,,,-73.96600962181245,40.64963570234564,"(40.64963570234564, -73.96600962181245)"
2080450-DCA,Business,02/28/2023,Active,12/04/2018,Home Improvement Contractor,BLACKTOP UNLIMITED INC.,,1936,HEMPSTEAD TPKE,,EAST MEADOW,NY,11554,516-455-2100,Outside NYC,,,,,,,,,,,
1258947-DCA,Business,02/28/2023,Active,06/18/2007,Home Improvement Contractor,G.A.M.C.N.Y. LLC,GOTHAM AIR,295,RUSSELL ST,,BROOKLYN,NY,11222,718-389-9896,Brooklyn,3,301,33,3392239,3025820101,,,,-73.94538379979073,40.730922355379654,"(40.730922355379654, -73.94538379979073)"
1257293-DCA,Business,02/28/2023,Active,06/01/2009,Home Improvement Contractor,MASTERPIECE U.S. INC.,,1857,41ST ST,,ASTORIA,NY,11105,7187751450,Queens,4,401,22,4467557,4008020020,,,,-73.8976471892952,40.77861274555545,"(40.77861274555545, -73.8976471892952)"
1128619-DCA,Business,02/28/2023,Active,12/04/2002,Home Improvement Contractor,MAURO IRON WORKS INC.,,4013,10TH AVE,,BROOKLYN,NY,11219,7188530935,Brooklyn,3,312,39,3135385,3055870004,,,,-73.99361473790636,40.643923163058965,"(40.643923163058965, -73.99361473790636)"
1360810-DCA,Business,02/28/2023,Active,06/29/2010,Home Improvement Contractor,"FUSCHETTO HOME IMPROVEMENTS, LLC",,302,CHESTNUT AVE,,EAST MEADOW,NY,11554,5165427633,Outside NYC,,,,,,,,,,,
1423017-DCA,Business,02/28/2023,Active,03/26/2012,Home Improvement Contractor,SOUTH SHORE HOME IMPROVEMENT CORP.,,198,MANHATTAN ST,,STATEN ISLAND,NY,10307,9176121493,Staten Island,5,503,51,5088035,5078910029,,,,-74.24288276274267,40.50562467556114,"(40.50562467556114, -74.24288276274267)"
1352117-DCA,Business,02/28/2023,Active,04/29/2010,Home Improvement Contractor,BALL MASONRY CONSTRUCTION CORP.,,10165,121ST ST,,SOUTH RICHMOND HILL,NY,11419,9172263811,Queens,4,409,28,4536979,4094890147,,,,-73.82371726962332,40.69016408188887,"(40.69016408188887, -73.82371726962332)"
2023030-DCA,Business,02/28/2023,Active,05/19/2015,Home Improvement Contractor,"VLADMAN ENTERPRISES, INC.",,330,W 42ND ST,,NEW YORK,NY,10036,2126293111,Manhattan,1,104,03,1024926,1010320048,,,,-73.99083168221189,40.7576605724161,"(40.7576605724161, -73.99083168221189)"
1415197-DCA,Business,02/28/2023,Active,12/07/2011,Home Improvement Contractor,"JAMES MARINELLO CONSTRUCTION CO., INC.",,58,STEVENS AVE,,MERRICK,NY,11566,5163156045,Outside NYC,,,,,,,,,,,
2087180-DCA,Business,02/28/2023,Active,06/14/2019,Home Improvement Contractor,RMENS SOLUTION INC,,2652,BROWN ST,,BROOKLYN,NY,11235,7186002747,Brooklyn,3,315,48,3205497,3074760026,,,,-73.93769087659305,40.58857416824615,"(40.58857416824615, -73.93769087659305)"
2047453-DCA,Business,02/28/2023,Active,01/18/2017,Home Improvement Contractor,"KAPLAN INTERIOR MILLWORK COMPANY, LLC",,1,MEADOW DR,,WOODMERE,NY,11598,5166399352,Queens,4,,,,,,,,,,
2105901-DCA,Business,02/28/2023,Active,05/10/2022,Home Improvement Contractor,MKD PROPERTY MAINTENANCE LLC,,105,VAN RIPER AVE,,CLIFTON,NJ,07011,2018999008,Outside NYC,,,,,,,,,,,
1270384-DCA,Business,02/28/2023,Active,10/12/2007,Home Improvement Contractor,"J & J AIR CONDITIONING, REFRIGERATION AND HEATING, LLC",,733,REVERE AVE,,BRONX,NY,10465,7187924040,Bronx,2,210,13,2080021,2055440100,,,,-73.82397017374564,40.82656478307734,"(40.82656478307734, -73.82397017374564)"
2103958-DCA,Business,02/28/2023,Active,02/15/2022,Home Improvement Contractor,MANKA CONSTRUCTION INC.,,2230,79TH ST,,EAST ELMHURST,NY,11370,9298449307,Queens,4,401,22,4449336,4010107501,,,,-73.89040424515203,40.76755575934588,"(40.76755575934588, -73.89040424515203)"
1374228-DCA,Business,02/28/2023,Active,10/13/2010,Home Improvement Contractor,ROSELAND CONSTRUCTION CORP.,,1650,BROADWAY,,NEW YORK,NY,10019,2127574220,Manhattan,1,105,04,1024811,1010220035,,,,-73.98368367172816,40.761963540070525,"(40.761963540070525, -73.98368367172816)"
1160102-DCA,Business,02/28/2023,Active,02/11/2004,Home Improvement Contractor,"GEORGE BIEBEL, CO., INC.",,20,SUTTON PL S,,NEW YORK,NY,10022,2127552159,Manhattan,1,106,05,1040463,1013670026,,,,-73.96126630135097,40.75655927211377,"(40.75655927211377, -73.96126630135097)"
1213341-DCA,Business,02/28/2023,Active,10/28/2005,Home Improvement Contractor,SPRINGFIELD HOME IMPROVEMENT CORP.,,9467,SPRINGFIELD BLVD,,QUEENS VILLAGE,NY,11428,9174967085,Queens,4,413,23,4229823,4107240059,,,,-73.73562647926006,40.7196417634112,"(40.7196417634112, -73.73562647926006)"
2000765-DCA,Business,02/28/2023,Active,11/15/2013,Home Improvement Contractor,HARD ROCK CONSTRUCTION CORP.,,2251,SCHENECTADY AVE,,BROOKLYN,NY,11234,9176246940,Brooklyn,3,318,46,3220847,3078920013,,,,-73.92958501370646,40.61710714602593,"(40.61710714602593, -73.92958501370646)"
2082029-DCA,Business,02/28/2023,Active,02/06/2019,Home Improvement Contractor,STARKA RENOVATIONS CORP.,,880,LORIMER ST,,BROOKLYN,NY,11222,3475541977,Brooklyn,3,301,33,3066725,3026790057,,,,-73.95123852758825,40.72278403419265,"(40.72278403419265, -73.95123852758825)"
1228279-DCA,Business,02/28/2023,Active,05/26/2006,Home Improvement Contractor,"UNIVERSAL CLEANING AND MAINTENANCE SERVICE, INC.",,3058,RICHMOND TER,,STATEN ISLAND,NY,10303,3472545554,Staten Island,5,501,49,5028023,5012370071,,,,-74.16163470359808,40.637790424316414,"(40.637790424316414, -74.16163470359808)"
1230319-DCA,Business,02/28/2023,Active,06/13/2006,Home Improvement Contractor,"JIMMY CONSTRUCTION, INC.",,10543,FARMERS BLVD,,SAINT ALBANS,NY,11412,7182647309,Queens,4,412,27,4232852,4108840010,,,,-73.76691611713589,40.70476133480542,"(40.70476133480542, -73.76691611713589)"
1321325-DCA,Business,02/28/2023,Active,06/10/2009,Home Improvement Contractor,HENG YIP CONSTRUCTION CORPORATION,,145,HESTER ST,,NEW YORK,NY,10002,2129258396,Manhattan,1,103,01,1079654,1003040001,,,,-73.99505067313927,40.717170241803835,"(40.717170241803835, -73.99505067313927)"
2046427-DCA,Business,02/28/2023,Active,12/13/2016,Home Improvement Contractor,ATHENS WOODWORKING INC.,GOTHIC CABINET CRAFT,160,EMPIRE BLVD,,BROOKLYN,NY,11225,,Brooklyn,3,309,40,3034758,3013140010,,,,-73.95646867317333,40.66355676165676,"(40.66355676165676, -73.95646867317333)"
1214978-DCA,Business,02/28/2023,Active,11/23/2005,Home Improvement Contractor,K. FRANK'S HOME IMPROVEMENT CORP.,,511,VILLA AVE,,STATEN ISLAND,NY,10302,7187752912,Staten Island,5,501,49,5026274,5011320026,,,,-74.1437063041081,40.628031789932,"(40.628031789932, -74.1437063041081)"
1470929-DCA,Business,02/28/2023,Active,08/08/2013,Home Improvement Contractor,"ARDENT CONSTRUCTION AND DEVELOPMENT, INC.",,4315,WEBSTER AVE,,BRONX,NY,10470,7189944499,Bronx,2,212,11,2019831,2033980087,,,,-73.86199698147234,40.89961462822548,"(40.89961462822548, -73.86199698147234)"
1273951-DCA,Business,02/28/2023,Active,12/11/2007,Home Improvement Contractor,GALIL DEVELOPMENT INC.,,7745,164TH ST,,FRESH MEADOWS,NY,11366,7188201800,Queens,4,408,24,4150906,4069710009,,,,-73.80470681494464,40.723405501471724,"(40.723405501471724, -73.80470681494464)"
1295781-DCA,Business,02/28/2023,Active,08/14/2008,Home Improvement Contractor,FALCON HOLDING CORP.,,15,CARROLL ST,,BROOKLYN,NY,11231,7187973757,Brooklyn,3,306,39,3398479,3003470060,,,,-74.00515594861973,40.68347822788117,"(40.68347822788117, -74.00515594861973)"
1333770-DCA,Business,02/28/2023,Active,09/23/2009,Home Improvement Contractor,ANTIS CONTRACTING CORP.,,3815,10TH ST,,LONG ISLAND CITY,NY,11101,7184800470,Queens,4,401,26,4005372,4004740025,,,,-73.94274796837273,40.75833015197698,"(40.75833015197698, -73.94274796837273)"
2021600-DCA,Business,02/28/2023,Active,04/23/2015,Home Improvement Contractor,JOSEF PRINI ASSOCIATES LLC,RESNOVA,443,W 24TH ST,,NEW YORK,NY,10011,6466420236,Manhattan,1,104,03,1078458,1007220013,,,,-74.002122112055,40.747697487484885,"(40.747697487484885, -74.002122112055)"
1467991-DCA,Business,02/28/2023,Active,06/21/2013,Home Improvement Contractor,"MAKE-A-GARDEN, LLC",,86,E 28TH ST,,BROOKLYN,NY,11226,7183098715,Brooklyn,3,317,40,3391101,3051290020,,,,-73.95111713318607,40.647278057043884,"(40.647278057043884, -73.95111713318607)"
2105916-DCA,Business,02/28/2023,Active,05/11/2022,Home Improvement Contractor,Elite Quality Construction and Contracting Corp,,4287,KATONAH AVE,,BRONX,NY,10470,3476385596,Bronx,2,212,11,2019102,2033760049,,,,-73.86730291503265,40.89811676266874,"(40.89811676266874, -73.86730291503265)"
0929768-DCA,Business,02/28/2023,Active,12/13/2002,Home Improvement Contractor,"M. DE VITO LANDSC. & GARDEN, INC",,80,COLFAX AVE,,STATEN ISLAND,NY,10306,7189802939,Staten Island,5,502,50,5051589,5035810017,,,,-74.10887838015968,40.5804862243828,"(40.5804862243828, -74.10887838015968)"
2084168-DCA,Business,02/28/2023,Active,04/04/2019,Home Improvement Contractor,GEMELOS RENOVATION & MAINTENANCE LLC,,5,ANDERSON ST,,NEW ROCHELLE,NY,10801,9143932406,Outside NYC,,,,,,,,,,,
1002766-DCA,Business,02/28/2023,Active,02/02/1999,Home Improvement Contractor,PROFILE CONTRACTING INC,,522,N STATE RD,,BRIARCLIFF MANOR,NY,10510,9149440085,Outside NYC,,,,,,,,,,,
1216086-DCA,Business,02/28/2023,Active,12/16/2005,Home Improvement Contractor,A.G.C. CONTRACTORS INCORPORATED,,76,BEADEL ST,,BROOKLYN,NY,11222,7185992244,Brooklyn,3,301,34,3338284,3028420012,,,,-73.93778651399607,40.721663179170235,"(40.721663179170235, -73.93778651399607)"
1275000-DCA,Business,02/28/2023,Active,12/31/2007,Home Improvement Contractor,KING CONSTRUCTION GROUP LLC,,112,W 34TH ST,,NEW YORK,NY,10120,6465710071,Manhattan,1,105,03,1015201,1008090053,,,,-73.98845428991369,40.75006290126216,"(40.75006290126216, -73.98845428991369)"
2076457-DCA,Business,02/28/2023,Active,07/31/2018,Home Improvement Contractor,MODPHY SERVICES CORP,,8721,63RD AVE,,REGO PARK,NY,11374,3474226857,Queens,4,406,29,4535636,4031080148,,,,-73.86850304487328,40.72481352132141,"(40.72481352132141, -73.86850304487328)"
2062487-DCA,Business,02/28/2023,Active,12/05/2017,Home Improvement Contractor,"RELIABLE CONTRACTING OF NEW YORK, INC.",,5,TACOMA ST,,STATEN ISLAND,NY,10304,7189804211,Staten Island,5,502,50,5046908,5031890038,,,,-74.09091831782281,40.59924883530991,"(40.59924883530991, -74.09091831782281)"
1431316-DCA,Business,02/28/2023,Active,05/24/2012,Home Improvement Contractor,AIRTRONICS AIR CONDITIONING CORP.,,208,E 51ST ST,,NEW YORK,NY,10022,2123022020,Manhattan,1,106,04,1081183,1013240001,,,,-73.96985347686245,40.75624893845609,"(40.75624893845609, -73.96985347686245)"
1410978-DCA,Business,02/28/2023,Active,10/13/2011,Home Improvement Contractor,UNITED RESTORATION SERVICES INC.,,72,N STATE RD,,BRIARCLIFF MANOR,NY,10510,9144725565,Outside NYC,,,,,,,,,,,
1421198-DCA,Business,02/28/2023,Active,03/06/2012,Home Improvement Contractor,"SAPINI, RODNEY",Love Your Home Contracting LLC,451,74TH ST,,BROOKLYN,NY,11209,6463619980,Brooklyn,3,310,43,3147902,3059190057,,,,-74.02351854724998,40.63091339067063,"(40.63091339067063, -74.02351854724998)"
2016340-DCA,Business,02/28/2023,Active,12/10/2014,Home Improvement Contractor,IMAGE CONTRACTING CORP,,68,WINDOM AVE,,STATEN ISLAND,NY,10305,9176733503,Staten Island,5,502,50,5045902,5031190065,,,,-74.06428910257792,40.5957836676005,"(40.5957836676005, -74.06428910257792)"
2050430-DCA,Business,02/28/2023,Active,03/31/2017,Home Improvement Contractor,EMB HOME IMPROVEMENTS INC.,,2058,E 68TH ST,,BROOKLYN,NY,11234,9175531002,Brooklyn,3,318,46,3237269,3084090170,,,,-73.91023286742363,40.61884484133355,"(40.61884484133355, -73.91023286742363)"
0814824-DCA,Business,02/28/2023,Active,12/14/1994,Home Improvement Contractor,B&P CHIMNEY CLEANING AND REPAIR CO. INC.,,24412,JAMAICA AVE,,FLORAL PARK,NY,11001,7184646413,Queens,4,,,,,,,,,,
0926653-DCA,Business,02/28/2023,Active,07/19/2007,Home Improvement Contractor,"DZEMOVSKI, IBRAIM & SEMOVSKI, RAHMAN",IBRO'S BRICK WORK,1036,HUGUENOT AVE,,STATEN ISLAND,NY,10312,7182736309,Staten Island,5,503,51,5082565,5065810032,,,,-74.18964936051545,40.528962666937396,"(40.528962666937396, -74.18964936051545)"
1111941-DCA,Business,02/28/2023,Active,06/30/2005,Home Improvement Contractor,"ROSARIO, REY F.",REY ROSARIO,13130,234TH ST,,ROSEDALE,NY,11422,9149394845,Queens,4,413,31,4452483,4129440036,,,,-73.73432118132853,40.67785498289702,"(40.67785498289702, -73.73432118132853)"
2085825-DCA,Business,02/28/2023,Active,05/11/2019,Home Improvement Contractor,M&P REMODELING LLC,,62,PARK AVE,,OYSTER BAY,NY,11771,347 922-1764,Outside NYC,,,,,,,,,,,
1194966-DCA,Business,02/28/2023,Active,04/27/2005,Home Improvement Contractor,"SKYLINE CONSTRUCTION & CONTRACTING, CORP.",,451,VICTORY BLVD,,STATEN ISLAND,NY,10301,7187617272,Staten Island,5,501,49,5002885,5001200104,,,,-74.08778816869972,40.63145319802457,"(40.63145319802457, -74.08778816869972)"
0960740-DCA,Business,02/28/2023,Active,12/20/2002,Home Improvement Contractor,AIR-IDEAL INC.,,51,WINDSOR AVE,,MINEOLA,NY,11501,5168733100,Outside NYC,,,,,,,,,,,
2048213-DCA,Business,02/28/2023,Active,02/08/2017,Home Improvement Contractor,CORINTO CONSTRUCTION CORP,,750,OCEAN AVE,,BROOKLYN,NY,11226,917-686-2735,Brooklyn,3,314,40,3118530,3051500013,,,,-73.95992971344045,40.64432807707226,"(40.64432807707226, -73.95992971344045)"
1243279-DCA,Business,02/28/2023,Active,11/08/2006,Home Improvement Contractor,"CERTIFIED OF N.Y., INC.",,623,W 51ST ST,,NEW YORK,NY,10019,2123971947,Manhattan,1,104,03,1027139,1010990019,,,,-73.99479789248794,40.76677062118185,"(40.76677062118185, -73.99479789248794)"
1254641-DCA,Business,02/28/2023,Active,05/09/2007,Home Improvement Contractor,DETAIL RENOVATIONS INC.,,615,MIDDLE NECK RD,,GREAT NECK,NY,11023,8774279992,Outside NYC,,,,,,,,,,,
1033634-DCA,Business,02/28/2023,Active,08/24/2006,Home Improvement Contractor,"LAZARUS HOME IMPROVEMENT, INC.",,2164,VICTORY BLVD,,STATEN ISLAND,NY,10314,7186981886,Staten Island,5,501,50,5018590,5007340004,,,,-74.1355721121416,40.612270076846926,"(40.612270076846926, -74.1355721121416)"
1175019-DCA,Business,02/28/2023,Active,03/05/2008,Home Improvement Contractor,GOLDEN CONTRACTOR INC.,,281,ODER AVE,,STATEN ISLAND,NY,10304,7188180999,Staten Island,5,501,49,5043543,5028900020,,,,-74.08631529457767,40.60967163600855,"(40.60967163600855, -74.08631529457767)"
2032485-DCA,Business,02/28/2023,Active,01/15/2016,Home Improvement Contractor,USTA CONSTRUCTION CORP.,,1847,STATE HIGHWAY 12,,GREENE,NY,13778,917679043,Outside NYC,,,,,,,,,,,
2105994-DCA,Business,02/28/2023,Active,05/12/2022,Home Improvement Contractor,BROOKLYN CONTRACTING GROUP CORP,,2214,84TH ST,,BROOKLYN,NY,11214,6463747263,Brooklyn,3,311,47,3165446,3063360012,,,,-73.99206655937513,40.602745714666234,"(40.602745714666234, -73.99206655937513)"
1463660-DCA,Business,02/28/2023,Active,04/29/2013,Home Improvement Contractor,"FIRST QUOTE CONTRACTING, INC.",,15541,79TH ST,,HOWARD BEACH,NY,11414,5164519754,Queens,4,410,32,4619405,4114590001,,,,-73.85448770610428,40.6632369138853,"(40.6632369138853, -73.85448770610428)"
2086496-DCA,Business,02/28/2023,Active,05/29/2019,Home Improvement Contractor,UPPER RESTORATION INC,,72,OTIS ST,,WEST BABYLON,NY,11704,5167777001,Outside NYC,,,,,,,,,,,
2033950-DCA,Business,02/28/2023,Active,03/03/2016,Home Improvement Contractor,IPCS CORP.,Lunna Designs,1812,130TH ST,,COLLEGE POINT,NY,11356,,Queens,4,407,19,4000000,4041350032,,,,-73.83864114453466,40.78298347270909,"(40.78298347270909, -73.83864114453466)"
1462858-DCA,Business,02/28/2023,Active,04/18/2013,Home Improvement Contractor,FLORAL PARK HVAC CORP.,,7,FLORENCE ST,,FLORAL PARK,NY,11001,5168554328,Outside NYC,,,,,,,,,,,
2046989-DCA,Business,02/28/2023,Active,01/04/2017,Home Improvement Contractor,DL RESTORATION BUILDERS CORP,,7050,AUSTIN ST,,FOREST HILLS,NY,11375,7182753995,Queens,4,406,29,4077473,4032340185,,,,-73.84550630269757,40.72041529939597,"(40.72041529939597, -73.84550630269757)"
2055801-DCA,Business,02/28/2023,Active,07/14/2017,Home Improvement Contractor,ATTENTION TO DETAIL MANAGEMENT CORP.,,2310,OCEAN PKWY,,BROOKLYN,NY,11223,3473092433,Brooklyn,3,315,47,3194790,3071810001,,,,-73.96471339619725,40.593013006747064,"(40.593013006747064, -73.96471339619725)"
1415953-DCA,Business,02/28/2023,Active,12/20/2011,Home Improvement Contractor,"MOHAMMAD, IQBAL",IQBAL GENERAL CONTRACTING CO,6,HILL ST,,BROOKLYN,NY,11208,9176001338,Brooklyn,3,305,37,3389567,3041660201,,,,-73.87252389879494,40.67862358840226,"(40.67862358840226, -73.87252389879494)"
1444696-DCA,Business,02/28/2023,Active,09/12/2012,Home Improvement Contractor,"VANDERBUILT CONSTRUCTION & ROOFING, INC.",,167,LOGAN AVE,,STATEN ISLAND,NY,10301,7184426660,Staten Island,5,501,49,5016712,5006660042,,,,-74.10370281336752,40.611422167676665,"(40.611422167676665, -74.10370281336752)"
2017374-DCA,Business,02/28/2023,Active,01/15/2015,Home Improvement Contractor,OZ CONTRACTING LLC,,743,E 102ND ST,,BROOKLYN,NY,11236,9177762998,Brooklyn,3,318,46,3229842,3081900018,,,,-73.89805428657117,40.647136214723986,"(40.647136214723986, -73.89805428657117)"
2054572-DCA,Business,02/28/2023,Active,06/16/2017,Home Improvement Contractor,IQBAL WATERPROOFING LLC,,7613,DITMARS BLVD,,EAST ELMHURST,NY,11370,646-236-0758,Queens,4,401,22,4449257,4010087501,,,,-73.89318964587225,40.76855746148637,"(40.76855746148637, -73.89318964587225)"
2033448-DCA,Business,02/28/2023,Active,02/19/2016,Home Improvement Contractor,"B.V.R. PAINTING & DECORATING, INC.",,1413,WASHINGTON AVE,,NEW HYDE PARK,NY,11040,7188284726,Outside NYC,,,,,,,,,,,
2069362-DCA,Business,02/28/2023,Active,04/12/2018,Home Improvement Contractor,Sahib Construction LLC,,11,ELMWOOD CT,,WESTBURY,NY,11590,9173304070,Outside NYC,,,,,,,,,,,
2089290-DCA,Business,02/28/2023,Active,08/07/2019,Home Improvement Contractor,BROTHERS RENOVATION CORP,,419,E 57TH ST,,NEW YORK,NY,10022,9175767144,Manhattan,1,106,05,1040537,1013690007,,,,-73.96229416760384,40.75805275443852,"(40.75805275443852, -73.96229416760384)"
1259813-DCA,Business,02/28/2023,Active,06/26/2007,Home Improvement Contractor,"KHAN,MOHAMMAD",KHAN PAINTING CO.,8609,BAY 16TH ST,,BROOKLYN,NY,11214,7183317266,Brooklyn,3,311,43,3166541,3063670037,,,,-74.0044910325977,40.60776887733453,"(40.60776887733453, -74.0044910325977)"
1221060-DCA,Business,02/28/2023,Active,03/15/2006,Home Improvement Contractor,DART RESTORATION CORP.,,365,S MAIN ST,,FREEPORT,NY,11520,5168378314,Outside NYC,,,,,,,,,,,
2090666-DCA,Business,02/28/2023,Active,09/18/2019,Home Improvement Contractor,DENT CONSTRUCTION CORP,,52,GREENWICH RD,,BEDFORD,NY,10506,9142053080,Outside NYC,,,,,,,,,,,
2088464-DCA,Business,02/28/2023,Active,07/18/2019,Home Improvement Contractor,ARGO CONSTRUCTION MANAGEMENT LLC,,2451,85TH ST,,EAST ELMHURST,NY,11370,7188780444,Queens,4,403,22,4431225,4010970064,,,,-73.88398147234656,40.763629976593286,"(40.763629976593286, -73.88398147234656)"
2044268-DCA,Business,02/28/2023,Active,09/29/2016,Home Improvement Contractor,"J. V. S. Sprint Enterprises, Inc.",,72,E HOFFMAN AVE,,LINDENHURST,NY,11757,6312425995,Queens,4,,,,,,,,,,
0980985-DCA,Business,02/28/2023,Active,03/20/1998,Home Improvement Contractor,GOTHAM PAINTING COMPANY INC.,,336,E 94TH ST,,NEW YORK,NY,10128,2124275752,Manhattan,1,108,05,1050289,1015560032,,,,-73.94707832249762,40.78252985001475,"(40.78252985001475, -73.94707832249762)"
1116458-DCA,Business,02/28/2023,Active,05/11/2006,Home Improvement Contractor,KALINIC CONSTRUCTION INC.,,19,FAIRWAY CIR S,,MANHASSET,NY,11030,7183537122,Outside NYC,,,,,,,,,,,
1251209-DCA,Business,02/28/2023,Active,04/03/2007,Home Improvement Contractor,MARIAM CONSTRUCTION INC.,,36,NOLAN AVE,,YONKERS,NY,10704,9175321459,Outside NYC,,,,,,,,,,,
0884878-DCA,Business,02/28/2023,Active,11/27/2002,Home Improvement Contractor,"HALLOCK, FRED",FRED HALLOCK FOR QUALITY ROOFING,555,OVINGTON AVE,,BROOKLYN,NY,11209,7188364263,Brooklyn,3,310,43,3145818,3058740063,,,,-74.01928916357629,40.631633312622014,"(40.631633312622014, -74.01928916357629)"
2011419-DCA,Business,02/28/2023,Active,07/31/2014,Home Improvement Contractor,"GENITO, RICHARD",,355,DECKER AVE,,STATEN ISLAND,NY,10302,6463023647,Staten Island,5,501,49,5024942,5010530163,,,,-74.14111335300599,40.625048666344846,"(40.625048666344846, -74.14111335300599)"
2004039-DCA,Business,02/28/2023,Active,02/27/2014,Home Improvement Contractor,GUSTO INTERIORS INC,,26,CORNELIA ST,,NEW YORK,NY,10014,2129603313,Manhattan,1,102,03,1078013,1005890014,,,,-74.00207829639444,40.7314375790085,"(40.7314375790085, -74.00207829639444)"
0991475-DCA,Business,02/28/2023,Active,07/29/1998,Home Improvement Contractor,"KERSCH, LAWRENCE",LARRY'S WINDOW REPAIR SERVICE,21932,PECK AVE,,QUEENS VILLAGE,NY,11427,7187403130,Queens,4,411,23,4165237,4078120031,,,,-73.75012681232012,40.73266787876337,"(40.73266787876337, -73.75012681232012)"
1342614-DCA,Business,02/28/2023,Active,01/13/2010,Home Improvement Contractor,L & C CONSTRUCTION CORP,,7,WINDSOR GATE DR,,DIX HILLS,NY,11746,6317861711,Outside NYC,,,,,,,,,,,
1216823-DCA,Business,02/28/2023,Active,01/13/2006,Home Improvement Contractor,"BDS ENTERPRISES, INC.",,88,ALTA AVE,,YONKERS,NY,10705,9143205873,Outside NYC,,,,,,,,,,,
2076510-DCA,Business,02/28/2023,Active,08/01/2018,Home Improvement Contractor,ROBERT WOJTACKI,,367,ATLANTIC AVE,,STATEN ISLAND,NY,10305,347-739-9678,Staten Island,5,502,50,5147548,5033680008,,,,-74.08784482528102,40.589647169726184,"(40.589647169726184, -74.08784482528102)"
2013492-DCA,Business,02/28/2023,Active,09/17/2014,Home Improvement Contractor,DK WORKSHOP INC,,472,KLONDIKE AVE,,STATEN ISLAND,NY,10314,7186192563,Staten Island,5,502,50,5039116,5023920101,,,,-74.1522282791396,40.586220270323025,"(40.586220270323025, -74.1522282791396)"
1221536-DCA,Business,02/28/2023,Active,06/30/2011,Home Improvement Contractor,IBRICKEN CONSTRUCTION CORP.,,325,SAINT JOHNS AVE,,YONKERS,NY,10704,9143848757,Queens,4,,,,,,,,,,
1269886-DCA,Business,02/28/2023,Active,10/05/2007,Home Improvement Contractor,A.T.C. CONSTRUCTION GROUP CORP.,,18,HUNTINGTON ST,,BROOKLYN,NY,11231,7185229838,Brooklyn,3,306,38,3008436,3005340016,,,,-74.00547636319857,40.67763184654058,"(40.67763184654058, -74.00547636319857)"
1324113-DCA,Business,02/28/2023,Active,07/01/2009,Home Improvement Contractor,"DICECCO, ANTONIO",UNITED FENCE & CEMENT,100,KRAMERS POND RD,,PUTNAM VALLEY,NY,10579,7185471665,Outside NYC,,,,,,,,,,,
2031424-DCA,Business,02/28/2023,Active,12/16/2015,Home Improvement Contractor,CAVAGNARO CONTRACTING LLC,,118,DUNCAN ST,,STATEN ISLAND,NY,10304,6462352661,Staten Island,5,502,50,5022304,5008580129,,,,-74.09819602721092,40.59929225365314,"(40.59929225365314, -74.09819602721092)"
1285018-DCA,Business,02/28/2023,Active,05/12/2008,Home Improvement Contractor,7TH STAR RENOVATION INC.,,95,E 165TH ST,,BRONX,NY,10452,9172176051,Bronx,2,204,16,2002953,2024780064,,,,-73.92219596785256,40.83153103381959,"(40.83153103381959, -73.92219596785256)"
1106338-DCA,Business,02/28/2023,Active,04/16/2002,Home Improvement Contractor,VIRO DESIGN CORP.,,161,SCOTT AVE,,YONKERS,NY,10704,9142372244,Outside NYC,,,,,,,,,,,
1214072-DCA,Business,02/28/2023,Active,11/07/2005,Home Improvement Contractor,Y LEVY CONTRACTING CORP.,,1236,MCDONALD AVE,,BROOKLYN,NY,11230,7183399664,Brooklyn,3,312,44,3130392,3054830015,,,,-73.97567017826695,40.62284902898319,"(40.62284902898319, -73.97567017826695)"
1449685-DCA,Business,02/28/2023,Active,11/08/2012,Home Improvement Contractor,MANHATTAN CABINETS INC,,1349,2ND AVE,,NEW YORK,NY,10021,2123964485,Manhattan,1,108,04,1043944,1014260021,,,,-73.95879739561657,40.76822631814569,"(40.76822631814569, -73.95879739561657)"
1385925-DCA,Business,02/28/2023,Active,04/23/2013,Home Improvement Contractor,TANEM CONSTRUCTION INC.,,82,GARDEN ST,,GARDEN CITY,NY,11530,5123304270,Outside NYC,,,,,,,,,,,
2033885-DCA,Business,02/28/2023,Active,03/02/2016,Home Improvement Contractor,GENESIS NYC CONSTRUCTION CORP,,139,CENTRE ST,,NEW YORK,NY,10013,9174606999,Manhattan,1,101,01,1002357,1001977502,,,,-74.00060243306505,40.717217007536156,"(40.717217007536156, -74.00060243306505)"
1471429-DCA,Business,02/28/2023,Active,08/15/2013,Home Improvement Contractor,MR. FIXIT HANDYMAN & HOME IMPROVEMENT CORP.,,1578,HOLLYWOOD AVE,,BRONX,NY,10461,718-938-4445,Bronx,2,210,13,2074886,2054010044,,,,-73.82896673919858,40.84368835310611,"(40.84368835310611, -73.82896673919858)"
1239224-DCA,Business,02/28/2023,Active,09/19/2006,Home Improvement Contractor,"BOBBY J. ENTERPRISE, INC.",,5949,PARSONS BLVD,,FRESH MEADOWS,NY,11365,6317265434,Queens,4,407,20,4146373,4067360009,,,,-73.81029227467566,40.739636378801556,"(40.739636378801556, -73.81029227467566)"
2094260-DCA,Business,02/28/2023,Active,02/06/2020,Home Improvement Contractor,FANI'S CONSTRUCTION CORP,,95,BEAVER ST,,BROOKLYN,NY,11206,3477857793,Brooklyn,3,304,34,3342194,3031360030,,,,-73.9357374139071,40.699182441992136,"(40.699182441992136, -73.9357374139071)"
1198806-DCA,Business,02/28/2023,Active,05/31/2005,Home Improvement Contractor,"APPROVED GENERAL CONTRACTING, INC.",,362,WILLIS AVE,,MINEOLA,NY,11501,6467063564,Outside NYC,,,,,,,,,,,
1459004-DCA,Business,02/28/2023,Active,03/05/2013,Home Improvement Contractor,METRO CONSTRUCTION GROUP INC.,,3056,OTIS AVE,,BRONX,NY,10465,6464139054,Bronx,2,210,13,2076515,2054220022,,,,-73.8241670771584,40.83409384736349,"(40.83409384736349, -73.8241670771584)"
1132532-DCA,Business,02/28/2023,Active,02/20/2003,Home Improvement Contractor,"AFFILIATED BUILDING RESOURCES, INC.",FRUSCI-HESSELBACH CONSTRUCTION CO,1015,ELMONT RD,,VALLEY STREAM,NY,11580,5162854500,Outside NYC,,,,,,,,,,,
2031604-DCA,Business,02/28/2023,Active,12/22/2015,Home Improvement Contractor,TRISTAR DEVELOPING INC,,163,BAY 34TH ST,,BROOKLYN,NY,11214,7183008227,Brooklyn,3,311,47,3185914,3068740012,,,,-73.99405492865603,40.59704489050288,"(40.59704489050288, -73.99405492865603)"
2032201-DCA,Business,02/28/2023,Active,01/06/2016,Home Improvement Contractor,Top 8 Construction Corp.,,13620,38TH AVE,,FLUSHING,NY,11354,7188880600,Queens,4,407,20,4534816,4049787501,,,,-73.8302801462036,40.76096136071263,"(40.76096136071263, -73.8302801462036)"
2095108-DCA,Business,02/28/2023,Active,03/05/2020,Home Improvement Contractor,"KSP CONSTRUCTION, LLC",,16,HEMLOCK RDG,,NEW MILFORD,CT,06776,2034487199,Outside NYC,,,,,,,,,,,
1453312-DCA,Business,02/28/2023,Active,01/07/2013,Home Improvement Contractor,GOTHIC MIDTOWN FURNITURE CORP.,,2652,BROADWAY,,NEW YORK,NY,10025,2126784368,Manhattan,1,107,07,1056485,1018720043,,,,-73.96961081730844,40.797612059435856,"(40.797612059435856, -73.96961081730844)"
1306203-DCA,Business,02/28/2023,Active,12/17/2008,Home Improvement Contractor,SAFECON BUILDERS CORP.,,3957,FLATLANDS AVE,,BROOKLYN,NY,11234,718-677-8190,Brooklyn,3,318,45,3254574,3078210007,,,,-73.93389513708934,40.62219855109104,"(40.62219855109104, -73.93389513708934)"
0924155-DCA,Business,02/28/2023,Active,11/06/2002,Home Improvement Contractor,"MCGAVIN, JOHN",,238,RUSSELL AVE,,EDGEWATER,NJ,07020,7188105775,Outside NYC,,,,,,,,,,,
2085137-DCA,Business,02/28/2023,Active,04/25/2019,Home Improvement Contractor,MANZ PROJECT LLC,,242,E 19TH ST,,NEW YORK,NY,10003,9179517747,Manhattan,1,106,02,1019591,1008990032,,,,-73.98366842061832,40.735830790891626,"(40.735830790891626, -73.98366842061832)"
2071619-DCA,Business,02/28/2023,Active,05/22/2018,Home Improvement Contractor,MAURICIO G. SABORIO,,2224,CAMPLAIN RD,,HILLSBOROUGH,NJ,08844,908-966-1398,Outside NYC,,,,,,,,,,,
1254316-DCA,Business,02/28/2023,Active,05/08/2007,Home Improvement Contractor,VAN ALPHEN BROTHERS INCORPORATED,,874,RICHMOND RD,,STATEN ISLAND,NY,10304,7182733961,Staten Island,5,502,50,5046378,5031680057,,,,-74.09265222374694,40.60574987750669,"(40.60574987750669, -74.09265222374694)"
2024244-DCA,Business,02/28/2023,Active,06/12/2015,Home Improvement Contractor,A-1 ROOFING & SIDING OF LONG ISLAND CORP,,51,NESCONSET HWY,,PORT JEFFERSON STATION,NY,11776,6319281826,Outside NYC,,,,,,,,,,,
1378262-DCA,Business,02/28/2023,Active,12/03/2010,Home Improvement Contractor,"SINGH, JAGJIT",ROSE HOME IMPROVEMENT CO,5024,KINGS HWY,,BROOKLYN,NY,11234,7183825047,Brooklyn,3,318,46,3213530,3077340059,,,,-73.92798120486518,40.63466183601025,"(40.63466183601025, -73.92798120486518)"
2012519-DCA,Business,02/28/2023,Active,08/26/2014,Home Improvement Contractor,SBS SERVICES INC,,106,MILLERTOWN RD,,BEDFORD,NY,10506,9143343222,Outside NYC,,,,,,,,,,,
1351564-DCA,Business,02/28/2023,Active,04/24/2010,Home Improvement Contractor,"TRIPLE H. CONTRACTING, INC.",,90,ARLINGTON AVE,,SAINT JAMES,NY,11780,6312654870,Outside NYC,,,,,,,,,,,
1127176-DCA,Business,02/28/2023,Active,11/07/2002,Home Improvement Contractor,"UNISOL, INC.",,2726,E 19TH ST,,BROOKLYN,NY,11235,7189342380,Brooklyn,3,315,48,3331714,3087727501,,,,-73.9500209806817,40.5856158076371,"(40.5856158076371, -73.9500209806817)"
2086451-DCA,Business,02/28/2023,Active,05/28/2019,Home Improvement Contractor,GOLDBRECHT SYSTEMS LLC,GOLDBRECHT LLC,5701,BUCKINGHAM PKWY,,CULVER CITY,CA,90230,310-988-4455,Outside NYC,,,,,,,,,,,
0835192-DCA,Business,02/28/2023,Active,12/30/2002,Home Improvement Contractor,BILTMORE CONTRACTING INC,,38,STRINGHAM AVE,,VALLEY STREAM,NY,11580,5162565030,Outside NYC,,,,,,,,,,,
2105961-DCA,Business,02/28/2023,Active,05/12/2022,Home Improvement Contractor,ZLN DESIGN CORP.,,144,DECATUR ST,,BROOKLYN,NY,11233,9292716677,Brooklyn,3,303,36,3047358,3016790001,,,,-73.93714662008144,40.68101009489908,"(40.68101009489908, -73.93714662008144)"
2105855-DCA,Business,02/28/2023,Active,05/09/2022,Home Improvement Contractor,NY BOILER & AIR CONDITIONING REPAIR CORP,,997,MERRICK RD,,BALDWIN,NY,11510,516-377-5200,Outside NYC,,,,,,,,,,,
1460951-DCA,Business,02/28/2023,Active,03/28/2013,Home Improvement Contractor,"TNT HOME IMPROVEMENT, LLC",,4809,AVENUE N,,BROOKLYN,NY,11234,7189688490,Brooklyn,3,318,46,3219843,3078730007,,,,-73.92862502541712,40.61884949773125,"(40.61884949773125, -73.92862502541712)"
0988273-DCA,Business,02/28/2023,Active,06/17/1998,Home Improvement Contractor,"CHARLES, JERRY",OMNI CONTRACTING,1991,ROCKAWAY PKWY,,BROOKLYN,NY,11236,7182093322,Brooklyn,3,318,46,3234518,3083000017,,,,-73.8903203245078,40.634374069699064,"(40.634374069699064, -73.8903203245078)"
2105907-DCA,Business,02/28/2023,Active,05/10/2022,Home Improvement Contractor,EDISON CONSTRUCTION & LAWN SERVICES INC,,2715,WALLACE AVE,,BRONX,NY,10467,9175778626,Bronx,2,211,15,2053693,2045110055,,,,-73.86445664099463,40.86595939318358,"(40.86595939318358, -73.86445664099463)"
2028093-DCA,Business,02/28/2023,Active,09/04/2015,Home Improvement Contractor,SANTOS-SIC CONSTRUCTION INC.,,2010,BATH AVE,,BROOKLYN,NY,11214,7184196251,Brooklyn,3,311,43,3168814,3064420031,,,,-74.00123878407398,40.60122261956361,"(40.60122261956361, -74.00123878407398)"
1121562-DCA,Business,02/28/2023,Active,08/29/2002,Home Improvement Contractor,NNT DEVELOPMENT CORP.,,464,WILD AVE,,STATEN ISLAND,NY,10314,7189825488,Staten Island,5,502,50,5149249,5027050091,,,,-74.19639222215677,40.58584036257702,"(40.58584036257702, -74.19639222215677)"
2084859-DCA,Business,02/28/2023,Active,04/18/2019,Home Improvement Contractor,B AND S CONSTRUCTION INC.,,442,MADISON ST,,BROOKLYN,NY,11221,929-381-8905,Brooklyn,3,303,36,3051785,3018260018,,,,-73.94038714669448,40.68588379089548,"(40.68588379089548, -73.94038714669448)"
2092796-DCA,Business,02/28/2023,Active,12/06/2019,Home Improvement Contractor,ADJ INTERIORS LLC,,10,NORTHFIELD DR,,NORTHPORT,NY,11768,6312363571,Outside NYC,,,,,,,,,,,
2078763-DCA,Business,02/28/2023,Active,10/03/2018,Home Improvement Contractor,KAZAN DESIGNS INC.,,59,KINGS WALK,,MASSAPEQUA PARK,NY,11762,516 404-1541,Outside NYC,,,,,,,,,,,
2094411-DCA,Business,02/28/2023,Active,02/11/2020,Home Improvement Contractor,"CORE DEVELOPMENT COMPANY, LLC",,45,MAIN ST,,BROOKLYN,NY,11201,718-801-8050,Brooklyn,3,302,33,3329423,3000370001,,,,-73.99067693019475,40.7027983927821,"(40.7027983927821, -73.99067693019475)"
2007872-DCA,Business,02/28/2023,Active,05/12/2014,Home Improvement Contractor,"M & E CONSTRUCTION, CORP",,2256,97TH ST,,EAST ELMHURST,NY,11369,9178618554,Queens,4,403,21,4538662,4010730034,,,,-73.87355265763901,40.769234748544974,"(40.769234748544974, -73.87355265763901)"
0812714-DCA,Business,02/28/2023,Active,10/27/2005,Home Improvement Contractor,PARCO HOME IMPROVEMENT CORP.,,424,DOGWOOD AVE,,FRANKLIN SQUARE,NY,11010,516-560-7626,Outside NYC,,,,,,,,,,,
2053145-DCA,Business,02/28/2023,Active,05/17/2017,Home Improvement Contractor,P.A.L. ENVIRONMENTAL SAFETY CORP,PAL ENVIRONMENTAL SERVICES,1102,QUEENS PLZ S,,LONG ISLAND CITY,NY,11101,7183490900,Queens,4,402,26,4005288,4004590023,,,,-73.94650253455252,40.75312517373874,"(40.75312517373874, -73.94650253455252)"
1474069-DCA,Business,02/28/2023,Active,09/20/2013,Home Improvement Contractor,"NEW INNOVATIVE WINDOW & DOOR SYSTEMS, CORP",,27B,MOULTRIE ST,,BROOKLYN,NY,11222,7183891191,Brooklyn,3,301,33,3330139,3026260019,,,,-73.9462268960677,40.7279446917839,"(40.7279446917839, -73.9462268960677)"
1117197-DCA,Business,02/28/2023,Active,07/24/2002,Home Improvement Contractor,"TWO-TONE CONTRACTING, CORP.",,7602,21ST AVE,,EAST ELMHURST,NY,11370,7183922860,Queens,4,401,22,4021391,4009720001,,,,-73.8935584963617,40.77043246153145,"(40.77043246153145, -73.8935584963617)"
2080882-DCA,Business,02/28/2023,Active,12/21/2018,Home Improvement Contractor,"JGR Group, Inc.",KS Renovation Group,919,38TH AVE,,LONG ISLAND CITY,NY,11101,2122067741,Queens,4,401,26,4004375,4003590037,,,,-73.94306150933417,40.75890944853503,"(40.75890944853503, -73.94306150933417)"
2034895-DCA,Business,02/28/2023,Active,03/24/2016,Home Improvement Contractor,"UNITY CONSTRUCTION GROUP, LLC","Unity Construction Group, LLC",137,VARICK ST,,NEW YORK,NY,10013,,Manhattan,1,102,03,1000000,1005790047,,,,-74.00577255619577,40.72578874539842,"(40.72578874539842, -74.00577255619577)"
2044744-DCA,Business,02/28/2023,Active,10/17/2016,Home Improvement Contractor,INNOVATIVE CONTRACTING & REPAIRS CORP.,INNOVATIVE CONTRACTING SOLUTIONS,2277,STEINWAY ST,,ASTORIA,NY,11105,6468673558,Queens,4,401,22,4015366,4007950002,,,,-73.90754663155641,40.771624773324554,"(40.771624773324554, -73.90754663155641)"
2105908-DCA,Business,02/28/2023,Active,05/10/2022,Home Improvement Contractor,GAP CONSTRUCTION INC,,1497,E 15TH ST,,BROOKLYN,NY,11230,929-340-4233,Brooklyn,3,314,48,3181408,3067530054,,,,-73.95914868652751,40.61339676900996,"(40.61339676900996, -73.95914868652751)"
2081246-DCA,Business,02/28/2023,Active,01/09/2019,Home Improvement Contractor,PRO N.Y. SOLUTIONS CORP.,,105,MILLS AVE,,STATEN ISLAND,NY,10305,7188157969,Staten Island,5,502,50,5045809,5031160027,,,,-74.0673595377967,40.59472516105828,"(40.59472516105828, -74.0673595377967)"
2095233-DCA,Business,02/28/2023,Active,03/10/2020,Home Improvement Contractor,"ATLANTIC EXTERIORS, INC.",,76,DARLING AVE,,SMITHTOWN,NY,11787,516 520-6687,Outside NYC,,,,,,,,,,,
2027225-DCA,Business,02/28/2023,Active,08/18/2015,Home Improvement Contractor,"WOJCIK, WOJCIECH",VOITEK CONSTRUCTION,318,SOUTHPORT ST,,RONKONKOMA,NY,11779,6314688526,Outside NYC,,,,,,,,,,,
1300269-DCA,Business,02/28/2023,Active,09/24/2008,Home Improvement Contractor,KALNIK CORP.,,4,SLEEPY LN,,MELVILLE,NY,11747,6319200690,Outside NYC,,,,,,,,,,,
2031959-DCA,Business,02/28/2023,Active,12/31/2015,Home Improvement Contractor,IKARIAN CORP.,,4122,50TH ST,,WOODSIDE,NY,11377,609-334-6570,Queens,4,402,26,4001167,4001340038,,,,-73.9143671768736,40.74586786302836,"(40.74586786302836, -73.9143671768736)"
2072516-DCA,Business,02/28/2023,Active,06/04/2018,Home Improvement Contractor,Urban Construction & Management Inc.,,415,76TH ST,,BROOKLYN,NY,11209,7187455795,Brooklyn,3,310,43,3148816,3059410077,,,,-74.02475385310132,40.629763064784726,"(40.629763064784726, -74.02475385310132)"
2046073-DCA,Business,02/28/2023,Active,12/01/2016,Home Improvement Contractor,"SACKETT CONSTRUCTION, INC",,322,GREENWOOD AVE,,BROOKLYN,NY,11218,718-614-3937,Brooklyn,3,307,39,3122763,3052820035,,,,-73.97844224549989,40.650390775274154,"(40.650390775274154, -73.97844224549989)"
2082426-DCA,Business,02/28/2023,Active,02/21/2019,Home Improvement Contractor,COMFORT ZONE HVAC BUILDING PERFORMANCE INC.,,3009,ARTHUR KILL RD,,STATEN ISLAND,NY,10309,718 689-4089,Staten Island,5,503,51,5148527,5072070056,,,,-74.2308579188388,40.54523535554949,"(40.54523535554949, -74.2308579188388)"
0915927-DCA,Business,02/28/2023,Active,10/07/2013,Home Improvement Contractor,B. ALTMAN'S REMODELING INC,B. ALTMAN'S WATERPROOFING,304,GOWER ST,,STATEN ISLAND,NY,10314,718-698-0222,Staten Island,5,502,50,5019245,5007520662,,,,-74.12379208532361,40.605141403489974,"(40.605141403489974, -74.12379208532361)"
2045226-DCA,Business,02/28/2023,Active,11/02/2016,Home Improvement Contractor,"JDP DESIGN CONSTRUCTION, INC.",,142,HENRY ST,,NEW YORK,NY,10002,212-274-8887,Manhattan,1,,,,,,,,,,
0736060-DCA,Business,02/28/2023,Active,01/28/2003,Home Improvement Contractor,SURE HEET CHIMNEY REPAIR AND CLEANING COMPANY INC.,,9443,222ND ST,,QUEENS VILLAGE,NY,11428,7184684455,Queens,4,413,23,4230256,4107410164,,,,-73.73251694246987,40.720501928965554,"(40.720501928965554, -73.73251694246987)"
0673645-DCA,Business,02/28/2023,Active,12/30/2002,Home Improvement Contractor,BASCHNAGEL BROS INC,ROOFING & SHEET METAL,15025,14TH AVE,,WHITESTONE,NY,11357,7187671919,Queens,4,407,19,4438055,4045180051,,,,-73.81307309117643,40.789018944527335,"(40.789018944527335, -73.81307309117643)"
1471145-DCA,Business,02/28/2023,Active,08/12/2013,Home Improvement Contractor,NABA CONSTRUCTION INC,,463,JEROME ST,,BROOKLYN,NY,11207,7188546165,Brooklyn,3,305,42,3089729,3040460018,,,,-73.88592486870392,40.67015080335041,"(40.67015080335041, -73.88592486870392)"
2065733-DCA,Business,02/28/2023,Active,02/06/2018,Home Improvement Contractor,MANHATTAN PREMIER CONSTRUCTION INC.,,7203,69TH PL,,GLENDALE,NY,11385,917-655-0770,Queens,4,405,30,4445455,4037050014,,,,-73.88186028530083,40.70176649372383,"(40.70176649372383, -73.88186028530083)"
1270078-DCA,Business,02/28/2023,Active,10/10/2007,Home Improvement Contractor,"PERFECT CONSTRUCTION, ROOFING AND SONS, CORP.",,238,IONIA AVE,,STATEN ISLAND,NY,10312,7184770455,Staten Island,5,503,51,5162258,5062610015,,,,-74.18197629025809,40.543432046690825,"(40.543432046690825, -74.18197629025809)"
0850217-DCA,Business,02/28/2023,Active,10/29/2002,Home Improvement Contractor,L NEW HIGH INSTALLATION INC,,285,E 165TH ST,,BRONX,NY,10456,7185887227,Bronx,2,204,16,2002405,2024370038,,,,-73.91575966849427,40.829078226590894,"(40.829078226590894, -73.91575966849427)"
2012476-DCA,Business,02/28/2023,Active,08/26/2014,Home Improvement Contractor,"HUCKABEE, WILLIAM A.",,455,HUMBOLDT ST,,BROOKLYN,NY,11211,9176011972,Brooklyn,3,301,34,3068223,3027400021,,,,-73.9432767299672,40.71811704058461,"(40.71811704058461, -73.9432767299672)"
1174126-DCA,Business,02/28/2023,Active,07/16/2004,Home Improvement Contractor,MROK KASHMIR S,UNITED SIDING & REMODELING,54,MACARTHUR AVE,,LODI,NJ,07644,9737733893,Outside NYC,,,,,,,,,,,
2015495-DCA,Business,02/28/2023,Active,11/13/2014,Home Improvement Contractor,CHATA CONSTRUCTION CO. INC.,,8004,25TH AVE,,EAST ELMHURST,NY,11370,7182040178,Queens,4,403,22,4023223,4010570001,,,,-73.88842292546691,40.762868579925424,"(40.762868579925424, -73.88842292546691)"
1385416-DCA,Business,02/28/2023,Active,03/21/2011,Home Improvement Contractor,A.S.P. HOUSING ENTERPRISE INC.,,5510,68TH ST,,MASPETH,NY,11378,7186087073,Queens,4,405,30,4055402,4023960067,,,,-73.89658183277476,40.727592413402526,"(40.727592413402526, -73.89658183277476)"
2046996-DCA,Business,02/28/2023,Active,01/04/2017,Home Improvement Contractor,jennosa pools inc,"JENNOSA POOLS, INC",51,WINDSOR PL,,CENTRAL ISLIP,NY,11722,,Outside NYC,,,,,,,,,,,
2020371-DCA,Business,02/28/2023,Active,04/02/2015,Home Improvement Contractor,LOYOLA PAINTING & CONSTRUCTION CORP,,674,W 161ST ST,,NEW YORK,NY,10032,6463617994,Manhattan,1,112,07,1063328,1021360120,,,,-73.94577318972136,40.83768719509005,"(40.83768719509005, -73.94577318972136)"
1281879-DCA,Business,02/28/2023,Active,04/14/2008,Home Improvement Contractor,"FAS BUILDING, CORP.",,7,COLITA CT,,STATEN ISLAND,NY,10307,9173642980,Staten Island,5,503,51,5146587,5078000185,,,,-74.2316018107189,40.50240635354264,"(40.50240635354264, -74.2316018107189)"
1074374-DCA,Business,02/28/2023,Active,03/02/2001,Home Improvement Contractor,"HIGGINS JR, WILLIAM J",,410,BEACH 127TH ST,,ROCKAWAY PARK,NY,11694,7189457863,Queens,4,414,32,4304330,4162080045,,,,-73.84757620525714,40.578814524258135,"(40.578814524258135, -73.84757620525714)"
1305706-DCA,Business,02/28/2023,Active,12/09/2008,Home Improvement Contractor,"BODIA, INC.",,306,E 11TH ST,,NEW YORK,NY,10003,2122282790,Manhattan,1,103,02,1006437,1004520011,,,,-73.98590321222055,40.73017140279598,"(40.73017140279598, -73.98590321222055)"
1400431-DCA,Business,02/28/2023,Active,07/14/2011,Home Improvement Contractor,"CARDO WINDOWS, INC.",CASTLE THE WINDOW PEOPLE,109,GAITHER DR,,MOUNT LAUREL,NJ,08054,8562354441,Outside NYC,,,,,,,,,,,
2093402-DCA,Business,02/28/2023,Active,01/07/2020,Home Improvement Contractor,PLRS RESTORATION LLC,PAUL DAVIS RESTORATION OF METRO NEW YORK,24125,BRADDOCK AVE,,BELLEROSE,NY,11426,7185596060,Queens,4,413,23,4167579,4079890001,,,,-73.72701319288107,40.72632164954489,"(40.72632164954489, -73.72701319288107)"
1121988-DCA,Business,02/28/2023,Active,09/05/2002,Home Improvement Contractor,MV KITCHENS INC,,4611,15TH AVE,,BROOKLYN,NY,11219,7188536910,Brooklyn,3,312,44,3327482,3054360006,,,,-73.98608567377657,40.63392049722509,"(40.63392049722509, -73.98608567377657)"
1465613-DCA,Business,02/28/2023,Active,05/21/2013,Home Improvement Contractor,NAPOLI HOME IMPROVEMENT INC.,,1600,E 51ST ST,,BROOKLYN,NY,11234,9178159311,Brooklyn,3,318,46,3219975,3078750047,,,,-73.92610113287571,40.62105746119245,"(40.62105746119245, -73.92610113287571)"
2009915-DCA,Business,02/28/2023,Active,06/23/2014,Home Improvement Contractor,R. SUTTON & CO. LLC,,478,7TH ST,,BROOKLYN,NY,11215,7184901220,Brooklyn,3,306,39,3025742,3010880009,,,,-73.97993978706384,40.667787462489116,"(40.667787462489116, -73.97993978706384)"
1321081-DCA,Business,02/28/2023,Active,06/22/2011,Home Improvement Contractor,"SCHERILLO & SONS CONSTRUCTION, CORP",PRESTIGE CUSTOM BUILDERS,7,PUMPKIN ST,,EAST NORTHPORT,NY,11731,6318581580,Outside NYC,,,,,,,,,,,
1345890-DCA,Business,02/28/2023,Active,03/01/2010,Home Improvement Contractor,PLANT CONSTRUCTION LLC,,181,BROADWAY,,NEW YORK,NY,10007,2126936600,Manhattan,1,101,1,1001075,1000630017,,,,-74.00977496174727,40.7100719800528,"(40.7100719800528, -74.00977496174727)"
2087239-DCA,Business,02/28/2023,Active,06/15/2019,Home Improvement Contractor,NEW SAHIL HOME IMPROVEMENT INC.,,9540,114TH ST,,SOUTH RICHMOND HILL,NY,11419,6464629225,Queens,4,409,28,4198139,4094150025,,,,-73.83123010329543,40.690921923741016,"(40.690921923741016, -73.83123010329543)"
2003772-DCA,Business,02/28/2023,Active,02/21/2014,Home Improvement Contractor,"MARIO'S GENERAL CONTRACTING, INC.",,1140,BROADWAY,,NEW YORK,NY,10001,2124940011,Manhattan,1,105,02,1015649,1008280033,,,,-73.9889786369824,40.743906480880845,"(40.743906480880845, -73.9889786369824)"
2006980-DCA,Business,02/28/2023,Active,04/28/2014,Home Improvement Contractor,HI TECH CONTRACTING & RESTORATION CORP,Hi Tech Contracting & Restoration Corp,8767,24TH AVE,,BROOKLYN,NY,11214,7185106000,Brooklyn,3,311,47,3186000,3068760012,,,,-73.99265428496095,40.5961088332872,"(40.5961088332872, -73.99265428496095)"
2105845-DCA,Business,02/28/2023,Active,05/09/2022,Home Improvement Contractor,NORTHERN GENERAL F. CORP.,,10462,43RD AVE,,CORONA,NY,11368,,Queens,4,404,21,4048910,4019870024,,,,-73.86015293594794,40.74795570285937,"(40.74795570285937, -73.86015293594794)"
1289616-DCA,Business,02/28/2023,Active,06/19/2008,Home Improvement Contractor,C.I. CONTRACTING CORP.,,676,SAW MILL RIVER RD,,YONKERS,NY,10710,7188850203,Bronx,2,210,13,2096039,2056340019,,,,,,
0926726-DCA,Business,02/28/2023,Active,12/17/2002,Home Improvement Contractor,C & M HOME IMPROVEMENT INC.,,24,BAY 31ST ST,,BROOKLYN,NY,11214,7185413700,Brooklyn,3,311,47,3167105,3063810053,,,,-73.99365486300643,40.60090405461691,"(40.60090405461691, -73.99365486300643)"
0921388-DCA,Business,02/28/2023,Active,06/04/2007,Home Improvement Contractor,GOLDEN TOUCH CONSTRUCTION CORP.,,320,E SHORE RD,,GREAT NECK,NY,11023,9175771013,Outside NYC,,,,,,,,,,,
2031615-DCA,Business,02/28/2023,Active,12/23/2015,Home Improvement Contractor,EMPIRE CITY CONSTRUCTION & DEVELOPMENT CORP,,2538,MATTHEWS AVE,,BRONX,NY,10467,9172913639,Bronx,2,211,13,2051543,2044410022,,,,-73.86262451815094,40.86376695562768,"(40.86376695562768, -73.86262451815094)"
1468940-DCA,Business,02/28/2023,Active,07/09/2013,Home Improvement Contractor,TRI-COLOR INTERIORS INC.,,29,S LEXOW AVE,,NANUET,NY,10954,6462356995,Outside NYC,,,,,,,,,,,
2002565-DCA,Business,02/28/2023,Active,01/14/2014,Home Improvement Contractor,SHYAM CONSTRUCTION INC,,9021,215TH ST,,QUEENS VILLAGE,NY,11428,917-548-8043,Queens,4,413,23,4227467,4106490005,,,,-73.74630520235863,40.72331907848706,"(40.72331907848706, -73.74630520235863)"
2077356-DCA,Business,02/28/2023,Active,08/23/2018,Home Improvement Contractor,SOHOME WORK INC.,,338,BROOME ST,,NEW YORK,NY,10002,2129661629,Manhattan,1,103,01,1005652,1004247501,,,,-73.99409452794565,40.71930561983265,"(40.71930561983265, -73.99409452794565)"
1404484-DCA,Business,02/28/2023,Active,08/16/2011,Home Improvement Contractor,"FAMILY MAINTENANCE CO., INC.",,2207,NEWBRIDGE RD,,BELLMORE,NY,11710,5167834904,Outside NYC,,,,,,,,,,,
2105942-DCA,Business,02/28/2023,Active,05/11/2022,Home Improvement Contractor,JORGE EXPRESS CORP,,4167,JUDGE ST,,ELMHURST,NY,11373,3474008963,Queens,4,404,25,4037224,4015060062,,,,-73.88195329804067,40.74496637152183,"(40.74496637152183, -73.88195329804067)"
1026727-DCA,Business,02/28/2023,Active,02/01/2000,Home Improvement Contractor,"FAYZO MASONARY, INC.",,3088,HYLAN BLVD,,STATEN ISLAND,NY,10306,917-622-3882,Staten Island,5,503,50,5063599,5047210025,,,,-74.12299141874087,40.5595428238257,"(40.5595428238257, -74.12299141874087)"
1462139-DCA,Business,02/28/2023,Active,04/10/2013,Home Improvement Contractor,"R H CONSTRUCTION USA, INC.",,553,E 2ND ST,,BROOKLYN,NY,11218,7188712584,Brooklyn,3,312,39,3126673,3053860081,,,,-73.97721417411194,40.63745436751971,"(40.63745436751971, -73.97721417411194)"
1312144-DCA,Business,02/28/2023,Active,03/24/2009,Home Improvement Contractor,"HUDSON LANDSCAPING, LLC",,24,BROOKSIDE PL,,NEW ROCHELLE,NY,10801,9146368349,Outside NYC,,,,,,,,,,,
2053948-DCA,Business,02/28/2023,Active,06/05/2017,Home Improvement Contractor,KEJDI CORP.,,5,Highlawn Ave,,Brooklyn,NY,11223,7189545936,Brooklyn,3,,,,,,,,-73.96933134229434,40.79274832526885,"(40.79274832526885, -73.96933134229434)"
2105963-DCA,Business,02/28/2023,Active,05/12/2022,Home Improvement Contractor,Express Construction USA INC,,2718,YOUNG AVE,,BRONX,NY,10469,6466450955,Bronx,2,211,13,2054315,2045290018,,,,-73.84810466456885,40.86563710910727,"(40.86563710910727, -73.84810466456885)"
1124381-DCA,Business,02/28/2023,Active,06/27/2009,Home Improvement Contractor,"R & S CONSTRUCTION, CORP.",,2915,THROOP AVE,,BRONX,NY,10469,7184055187,Bronx,2,211,12,2055284,2045620060,,,,-73.85093738114138,40.86804790517581,"(40.86804790517581, -73.85093738114138)"
2059227-DCA,Business,02/28/2023,Active,10/11/2017,Home Improvement Contractor,FLORENTON RIVER LLC,,147,VALLEY ST,,SLEEPY HOLLOW,NY,10591,9173865050,Outside NYC,,,,,,,,,,,
0895937-DCA,Business,02/28/2023,Active,11/29/2002,Home Improvement Contractor,"DIVITA, JOSEPH",JD CONSTRUCTION,2224,W 6TH ST,,BROOKLYN,NY,11223,7187145177,Brooklyn,3,315,47,3193297,3071440016,,,,-73.97700582760181,40.59379564696217,"(40.59379564696217, -73.97700582760181)"
2095349-DCA,Business,02/28/2023,Active,03/12/2020,Home Improvement Contractor,DG CONSTRUCTION & CONSULTING LLC,,551,BOLTON AVE,,BRONX,NY,10473,9177364125,Bronx,2,209,18,2021559,2035260055,,,,-73.85803974566875,40.816590780317235,"(40.816590780317235, -73.85803974566875)"
1325288-DCA,Business,02/28/2023,Active,07/15/2009,Home Improvement Contractor,RENECO HOME IMPROVEMENTS LLC,,98,N OCEAN AVE,,FREEPORT,NY,11520,5167918503,Outside NYC,,,,,,,,,,,
1274333-DCA,Business,02/28/2023,Active,12/17/2007,Home Improvement Contractor,"BNY CONSTRUCTION, INC.",,63,FLUSHING AVE,,BROOKLYN,NY,11205,7182224422,Brooklyn,3,302,33,3335129,3020230001,,,,-73.97498639134133,40.69802015906762,"(40.69802015906762, -73.97498639134133)"
2000473-DCA,Business,02/28/2023,Active,11/06/2013,Home Improvement Contractor,EMERGENCY FIRE SERVICES LLC,,6133,GRAND AVE,,MASPETH,NY,11378,7187876720,Queens,4,405,30,4060627,4027120035,,,,-73.90401864439592,40.72200503382978,"(40.72200503382978, -73.90401864439592)"
1451203-DCA,Business,02/28/2023,Active,11/30/2012,Home Improvement Contractor,"MNC DEVELOPMENT, INC.",,575,CLASSON AVE,,BROOKLYN,NY,11238,8777323492,Brooklyn,3,303,36,3057698,3020160004,,,,-73.95844741594607,40.68110484672922,"(40.68110484672922, -73.95844741594607)"
2103873-DCA,Business,02/28/2023,Active,02/09/2022,Home Improvement Contractor,UPGRADE NEWYORK LLC,,253,PARKVILLE AVE,,BROOKLYN,NY,11230,3475748435,Brooklyn,3,314,40,3127943,3054240071,,,,-73.96965752476821,40.63174620810542,"(40.63174620810542, -73.96965752476821)"
0953697-DCA,Business,02/28/2023,Active,01/29/2003,Home Improvement Contractor,SAWYER CONSTRUCTION CORP.,,20,GANSEVOORT BLVD,,STATEN ISLAND,NY,10314,9083472758,Staten Island,5,501,50,5018154,5007170012,,,,-74.12772345340295,40.61199909672706,"(40.61199909672706, -74.12772345340295)"
1205225-DCA,Business,02/28/2023,Active,08/01/2005,Home Improvement Contractor,BEST & FAST CONSTRUCTION CORP.,HOPE CONSTRUCTION CO,6012,170TH ST,,FRESH MEADOWS,NY,11365,7184618717,Queens,4,407,20,4534685,4068660392,,,,-73.79907920012607,40.73881589250852,"(40.73881589250852, -73.79907920012607)"
2100218-DCA,Business,02/28/2023,Active,07/19/2021,Home Improvement Contractor,AGE CONTRACTING CORP,,7119,80TH ST,,GLENDALE,NY,11385,7185703478,Queens,4,405,30,4439862,4038100350,,,,-73.86935924449136,40.707662468588005,"(40.707662468588005, -73.86935924449136)"
2016952-DCA,Business,02/28/2023,Active,12/31/2014,Home Improvement Contractor,ARORA CONSTRUCTION INC,,45,RIVERSIDE DR,,ROCKVILLE CENTRE,NY,11570,6466422685,Outside NYC,,,,,,,,,,,
0958719-DCA,Business,02/28/2023,Active,11/02/2006,Home Improvement Contractor,ZHN CONTRACTING CORP,,30,MEADOW ST,,BROOKLYN,NY,11206,7188213111,Brooklyn,3,301,34,3070851,3030300017,,,,-73.93613745939986,40.710754595135064,"(40.710754595135064, -73.93613745939986)"
1243808-DCA,Business,02/28/2023,Active,01/09/2013,Home Improvement Contractor,"ICON CONTRACTING, LLC",NINO STONE CARE,40,CHERRY LN,,FLORAL PARK,NY,11001,7185690772,Outside NYC,,,,,,,,,,,
1093940-DCA,Business,02/28/2023,Active,03/14/2003,Home Improvement Contractor,AQUACADE POOL BUILDING INC.,,200,LEVITTOWN PKWY,,HICKSVILLE,NY,11801,5164335230,Outside NYC,,,,,,,,,,,
1235982-DCA,Business,02/28/2023,Active,08/15/2006,Home Improvement Contractor,"HOQUE, MOHAMMED-MOJIBUL",M HOQUE CONTRACTING,755,E 9TH ST,,BROOKLYN,NY,11230,3477828606,Brooklyn,3,314,40,3170209,3064970065,,,,-73.9681810592329,40.63034596669858,"(40.63034596669858, -73.9681810592329)"
2105821-DCA,Business,02/28/2023,Active,05/09/2022,Home Improvement Contractor,"Opus Design Builders, Inc.",Opus Builders,2333,35TH ST,,ASTORIA,NY,11105,6463618835,Queens,4,401,22,4016271,4008200026,,,,-73.91266951205957,40.77176326227356,"(40.77176326227356, -73.91266951205957)"
2090978-DCA,Business,02/28/2023,Active,09/27/2019,Home Improvement Contractor,ZN BUILDERS CORP,,14,CYPRESS CT,,BROOKLYN,NY,11208,9174008461,Brooklyn,3,305,37,3090984,3041060009,,,,-73.87300058519781,40.687676383573816,"(40.687676383573816, -73.87300058519781)"
1004403-DCA,Business,02/28/2023,Active,03/05/1999,Home Improvement Contractor,DIMARCO CONTRACTING INC,,15744,26TH AVE,,FLUSHING,NY,11354,7183498626,Queens,4,407,19,4110150,4048670026,,,,-73.80642605026117,40.77365663216704,"(40.77365663216704, -73.80642605026117)"
0942810-DCA,Business,02/28/2023,Active,12/18/2002,Home Improvement Contractor,CALISI LANDSCAPING CORP.,,15414,28TH AVE,,FLUSHING,NY,11354,7187465146,Queens,4,407,19,4109758,4048510030,,,,-73.80963189342532,40.772476243468184,"(40.772476243468184, -73.80963189342532)"
1459858-DCA,Business,02/28/2023,Active,03/15/2013,Home Improvement Contractor,"PUCCIARELLI, RONALD",PELLE CONTRACTING,319,GUYON AVE,,STATEN ISLAND,NY,10306,9173489503,Staten Island,5,503,50,5055548,5040190005,,,,-74.11911595330487,40.559835113558734,"(40.559835113558734, -74.11911595330487)"
2105986-DCA,Business,02/28/2023,Active,05/12/2022,Home Improvement Contractor,Advanced One Interiors Inc,,88,BERGLUND AVE,,STATEN ISLAND,NY,10314,4849510596,Staten Island,5,502,50,5036928,5022310328,,,,-74.16895048131259,40.60991748591944,"(40.60991748591944, -74.16895048131259)"
2105987-DCA,Business,02/28/2023,Active,05/12/2022,Home Improvement Contractor,GM PROJECTS CORP,GM PROJECTS CORP,3710,REVIEW AVE,,LONG ISLAND CITY,NY,11101,3478359052,Queens,4,402,26,4436720,4003120039,,,,-73.93697821911128,40.73330599893755,"(40.73330599893755, -73.93697821911128)"
2059678-DCA,Business,02/28/2023,Active,10/20/2017,Home Improvement Contractor,JEVOB'S CORP.,,6771,136TH ST,,FLUSHING,NY,11367,3478372168,Queens,4,408,24,4595752,4064820003,,,,-73.8328340672903,40.73003171269948,"(40.73003171269948, -73.8328340672903)"
1395039-DCA,Business,02/28/2023,Active,06/03/2011,Home Improvement Contractor,NTICE DESIGNS CORP.,,311,JERUSALEM AVE,,HICKSVILLE,NY,11801,5168220080,Outside NYC,,,,,,,,,,,
2091193-DCA,Business,02/28/2023,Active,10/07/2019,Home Improvement Contractor,"OKOL GROUP HOLDINGS, LLC",OKOL GROUP SMART INTEGRATION,519,W 23RD ST,,NEW YORK,NY,10011,2122060152,Manhattan,1,104,03,1087672,1006957505,,,,-74.00515012370617,40.74811184891866,"(40.74811184891866, -74.00515012370617)"
2085408-DCA,Business,02/28/2023,Active,05/02/2019,Home Improvement Contractor,AFRA SOMA CONSTRUCTION CORP,,2480,ELM PL,,BRONX,NY,10458,347-942-5444,Bronx,2,205,15,2011032,2030230071,,,,-73.8941542234625,40.86127231816096,"(40.86127231816096, -73.8941542234625)"
0924655-DCA,Business,02/28/2023,Active,02/10/1995,Home Improvement Contractor,ACHILLE & SON INC.,,1556,74TH ST,,BROOKLYN,NY,11228,9179034334,Brooklyn,3,311,43,3159517,3062130029,,,,-74.00119586235316,40.61750748764272,"(40.61750748764272, -74.00119586235316)"
1102938-DCA,Business,02/28/2023,Active,03/01/2002,Home Improvement Contractor,"SACIROVSKI, MUAMET",,366,BRADFORD AVE,,STATEN ISLAND,NY,10309,7183170434,Staten Island,5,503,51,5084740,5069060006,,,,-74.20453236615472,40.53054832596158,"(40.53054832596158, -74.20453236615472)"
2015131-DCA,Business,02/28/2023,Active,10/31/2014,Home Improvement Contractor,HONOR CONSTRUCTION INC.,,14,MONROE ST,,NEW YORK,NY,10002,9175576202,Manhattan,1,103,01,1077585,1002530001,,,,-73.99550198050821,40.71146939130224,"(40.71146939130224, -73.99550198050821)"
1418413-DCA,Business,02/28/2023,Active,01/27/2012,Home Improvement Contractor,FLAG CONTRACTING CORP.,,261,CHESTERTON AVE,,STATEN ISLAND,NY,10306,7189804500,Staten Island,5,503,50,5063516,5047180015,,,,-74.12621225381174,40.557554831515965,"(40.557554831515965, -74.12621225381174)"
1417982-DCA,Business,02/28/2023,Active,01/24/2012,Home Improvement Contractor,RAZZINO RENOVATIONS INC.,,7,COUNTRY LN,,MANALAPAN,NJ,07726,7322525802,Outside NYC,,,,,,,,,,,
2011477-DCA,Business,02/28/2023,Active,08/01/2014,Home Improvement Contractor,USA RESTORATION INC.,,8047,257TH ST,,GLEN OAKS,NY,11004,9177216965,Queens,4,413,23,4178032,4087130060,,,,-73.71347880495968,40.74337769301846,"(40.74337769301846, -73.71347880495968)"
2082411-DCA,Business,02/28/2023,Active,02/20/2019,Home Improvement Contractor,EMPIRE BUILDERS & RESTORATION CORP,,70,E SUNRISE HWY,,VALLEY STREAM,NY,11581,5166938413,Outside NYC,,,,,,,,,,,
2029121-DCA,Business,02/28/2023,Active,10/02/2015,Home Improvement Contractor,CHUCKS IRON WORK INC,,19527,SAGAMORE AVE,,HOLLIS,NY,11423,7184644029,Queens,4,412,27,4231521,4108220016,,,,-73.76429492672564,40.71164812302424,"(40.71164812302424, -73.76429492672564)"
2105802-DCA,Business,02/28/2023,Active,05/06/2022,Home Improvement Contractor,K&R Home Renovation LLC,,276,BERRIMAN STREET,,BROOKLYN,NY,11208,3474074527,Brooklyn,3,305,42,3089601,3040370030,,,,-73.87932113884298,40.67195561977186,"(40.67195561977186, -73.87932113884298)"
2020353-DCA,Business,02/28/2023,Active,04/02/2015,Home Improvement Contractor,JM METAL FRAME INC,,8753,109TH ST,,RICHMOND HILL,NY,11418,9175395993,Queens,4,409,28,4194744,4092990051,,,,-73.83857172716847,40.69544211889186,"(40.69544211889186, -73.83857172716847)"
0898243-DCA,Business,02/28/2023,Active,10/22/2002,Home Improvement Contractor,MAIN CONTRACTING CORP.,,8218,192ND ST,,HOLLIS,NY,11423,9174068978,Queens,4,408,23,4156547,4072760019,,,,-73.77680549337713,40.72638227260177,"(40.72638227260177, -73.77680549337713)"
2067991-DCA,Business,02/28/2023,Active,03/19/2018,Home Improvement Contractor,FLORENZIA STONE & MARBLE INC.,,2322,30TH RD,,ASTORIA,NY,11102,7182676439,Queens,4,401,22,4311890,4005717501,,,,-73.92689082212107,40.76830930078517,"(40.76830930078517, -73.92689082212107)"
2026239-DCA,Business,02/28/2023,Active,07/28/2015,Home Improvement Contractor,Preference Painting & Wallpapering Corp.,Preference Painting & Wallpapering Corp.,6703,53RD RD,,MASPETH,NY,11378,9173269442,Queens,4,405,30,4055701,4024060039,,,,-73.89756195751123,40.730744271234194,"(40.730744271234194, -73.89756195751123)"
2054008-DCA,Business,02/28/2023,Active,06/06/2017,Home Improvement Contractor,DAPPER CONSTRUCTION CORP.,,4,JANET LN,,BREEZY POINT,NY,11697,9176420074,Queens,4,414,32,4466228,4163500400,,,,-73.9106920316216,40.55834428017164,"(40.55834428017164, -73.9106920316216)"
2024893-DCA,Business,02/28/2023,Active,06/25/2015,Home Improvement Contractor,360 GENERAL CONTRACTING INC.,,1409,35TH ST,,BROOKLYN,NY,11218,6462434876,Brooklyn,3,312,39,3125149,3053510059,,,,-73.98139986156852,40.64133624845001,"(40.64133624845001, -73.98139986156852)"
1214779-DCA,Business,02/28/2023,Active,11/18/2005,Home Improvement Contractor,NEW WAY REMODELING INC.,,1318,HEMPSTEAD TPKE,,ELMONT,NY,11003,516-616-6000,Outside NYC,,,,,,,,,,,
1450946-DCA,Business,02/28/2023,Active,11/28/2012,Home Improvement Contractor,JM MECHANICAL HVAC LLC,,11,ARDLEY STREET,,STATEN ISLAND,NY,10306,9172088983,Staten Island,5,503,50,5062910,5046620016,,,,-74.12348144089138,40.56180127669444,"(40.56180127669444, -74.12348144089138)"
0809010-DCA,Business,02/28/2023,Active,10/24/1997,Home Improvement Contractor,DECK MASTER HOME IMPROVEMENT CORP.,,113,CHELSEA PLACE AVE,,ORMOND BEACH,FL,32174,7183560095,Outside NYC,,,,,,,,,,,
1316754-DCA,Business,02/28/2023,Active,05/05/2009,Home Improvement Contractor,OBJECT DESIGN INC.,,2775,W 5TH ST,,BROOKLYN,NY,11224,9176827310,Brooklyn,3,313,47,3320736,3072530001,,,,-73.97158518336737,40.580553514923174,"(40.580553514923174, -73.97158518336737)"
1362440-DCA,Business,02/28/2023,Active,07/28/2011,Home Improvement Contractor,R & L GENERAL CONTRACTORS MASONRY INC.,,80,SAND LN,,STATEN ISLAND,NY,10305,347-552-0957,Staten Island,5,502,50,5047986,5032670078,,,,-74.07141707270426,40.59759651589628,"(40.59759651589628, -74.07141707270426)"
2060524-DCA,Business,02/28/2023,Active,11/08/2017,Home Improvement Contractor,SKYVIEW CONSTRUCTION GROUP INC,,2145,OCEAN AVE,,BROOKLYN,NY,11229,718-787-1125,Brooklyn,3,315,48,3182572,3067830057,,,,-73.95331652889598,40.6095134087368,"(40.6095134087368, -73.95331652889598)"
1457272-DCA,Business,02/28/2023,Active,02/14/2013,Home Improvement Contractor,SAMY CONSTRUCTION CORP.,,17,SANDY BROOK DR,,SPRING VALLEY,NY,10977,8455905721,Outside NYC,,,,,,,,,,,
2056500-DCA,Business,02/28/2023,Active,08/01/2017,Home Improvement Contractor,"HASAN, MD",Aslam Genreral Construction Corp,9931,213TH ST,,QUEENS VILLAGE,NY,11429,6462476228,Queens,4,413,27,4238842,4110870008,,,,-73.74544916884292,40.71413592953863,"(40.71413592953863, -73.74544916884292)"
1164273-DCA,Business,02/28/2023,Active,04/29/2004,Home Improvement Contractor,"MONELLO ENTERPRISES, INC.",,3191,RICHMOND RD,,STATEN ISLAND,NY,10306,6468720132,Staten Island,5,502,50,5037025,5022420081,,,,-74.12733746667585,40.575806567728485,"(40.575806567728485, -74.12733746667585)"
1400548-DCA,Business,02/28/2023,Active,07/15/2011,Home Improvement Contractor,A & W IRON WORK INC.,,254,52ND ST,,BROOKLYN,NY,11220,9178177337,Brooklyn,3,307,38,3395830,3008050031,,,,-74.01692611514532,40.64725975241636,"(40.64725975241636, -74.01692611514532)"
2067568-DCA,Business,02/28/2023,Active,03/10/2018,Home Improvement Contractor,KHAN REALESTATE DESIGN CORPORATION,,14820,86TH AVE,,JAMAICA,NY,11435,7186583220,Queens,4,408,24,4208128,4097250007,,,,-73.80959551543286,40.708171997816194,"(40.708171997816194, -73.80959551543286)"
2063398-DCA,Business,02/28/2023,Active,12/15/2017,Home Improvement Contractor,GREY STREET BUILDERS LLC,,92,SEAMAN AVE,,ROCKVILLE CENTRE,NY,11570,9174850766,Outside NYC,,,,,,,,,,,
1355688-DCA,Business,02/28/2023,Active,05/25/2010,Home Improvement Contractor,GREEN VALLEY LANDSCAPING CORP.,,226,E JAMAICA AVE,,VALLEY STREAM,NY,11580,5165934059,Outside NYC,,,,,,,,,,,
2037548-DCA,Business,02/28/2023,Active,05/13/2016,Home Improvement Contractor,onyx contracting services llc,,1,PONDVIEW E,,PURCHASE,NY,10577,,Outside NYC,,,,,,,,,,,
2088849-DCA,Business,02/28/2023,Active,07/29/2019,Home Improvement Contractor,CROWN MECHANICAL LLC,,25,LAUREL AVE,Livingston,LIVINGSTON,NJ,07039,9733932312,Outside NYC,,,,,,,,,,,
1074080-DCA,Business,02/28/2023,Active,09/09/2011,Home Improvement Contractor,GORMAN & CARBONE CONTRACTORS INC.,,111,Borden rd,,middletown,NJ,07748,7183174023,Outside NYC,,503,51,5145944,5068310030,,,,-74.19524472938355,40.536924245381826,"(40.536924245381826, -74.19524472938355)"
2088623-DCA,Business,02/28/2023,Active,07/23/2019,Home Improvement Contractor,DA MAJESTIC HOME IMPROVEMENT INC,,28,WAGNER AVE,,ROOSEVELT,NY,11575,3476178919,Outside NYC,,,,,,,,,,,
0698893-DCA,Business,02/28/2023,Active,12/09/2002,Home Improvement Contractor,BARRY FISHELBERG CO INC,,15011,94TH AVE,,JAMAICA,NY,11433,7186580192,Queens,4,412,27,4442238,4100940055,,,,-73.80334258103684,40.70034986470548,"(40.70034986470548, -73.80334258103684)"
2028744-DCA,Business,02/28/2023,Active,09/23/2015,Home Improvement Contractor,RAGA CONSTRUCTION LLC,,7350,199TH ST,,FRESH MEADOWS,NY,11366,9179235007,Queens,4,408,23,4154521,4071860030,,,,-73.7733824844555,40.73567210281703,"(40.73567210281703, -73.7733824844555)"
2059382-DCA,Business,02/28/2023,Active,10/16/2017,Home Improvement Contractor,JJ ALVARADO CORPORATION,,1423,FTELEY AVE,,BRONX,NY,10472,3479681513,Bronx,2,209,18,2028058,2038900064,,,,-73.87286060788367,40.834841239425664,"(40.834841239425664, -73.87286060788367)"
2105851-DCA,Business,02/28/2023,Active,05/09/2022,Home Improvement Contractor,King Handy Brothers LLC,,263,PALISADE AVE,,YONKERS,NY,10703,9145626715,Outside NYC,,,,,,,,,,,
1443390-DCA,Business,02/28/2023,Active,08/30/2012,Home Improvement Contractor,"CLASSIC REMODELING GROUP, INC.",,1839,BELLMORE AVE,,NORTH BELLMORE,NY,11710,5163087733,Outside NYC,,,,,,,,,,,
2047304-DCA,Business,02/28/2023,Active,01/12/2017,Home Improvement Contractor,ALLEN SCOTT CONSTRUCTION CORP,,7,TROY LN,,BEDFORD,NY,10506,,Outside NYC,,,,,,,,,,,
2075341-DCA,Business,02/28/2023,Active,07/10/2018,Home Improvement Contractor,Lion Renovations Inc,,2258,OCEAN AVE,,BROOKLYN,NY,11229,646-645-9079,Brooklyn,3,315,48,3183174,3068020046,,,,-73.95283936886878,40.606897423796326,"(40.606897423796326, -73.95283936886878)"
1380271-DCA,Business,02/28/2023,Active,01/07/2011,Home Improvement Contractor,EYRING HOME CONSTRUCTION INC.,,402,CHESTNUT AVE,,EAST MEADOW,NY,11554,5163171902,Outside NYC,,,,,,,,,,,
1103853-DCA,Business,02/28/2023,Active,01/15/2003,Home Improvement Contractor,MICHELLE KUO CORP.,,14944,DELAWARE AVE,,FLUSHING,NY,11355,7184611229,Queens,4,407,20,4122047,4054090016,,,,-73.81325899790409,40.75750134484885,"(40.75750134484885, -73.81325899790409)"
2027512-DCA,Business,02/28/2023,Active,08/25/2015,Home Improvement Contractor,STIN GENERAL CONSTRUCTION INC,,8347,258TH ST,,GLEN OAKS,NY,11004,917-642-8790,Queens,4,413,23,4179349,4087700011,,,,-73.71046402051948,40.73789159992381,"(40.73789159992381, -73.71046402051948)"
1315115-DCA,Business,02/28/2023,Active,04/21/2009,Home Improvement Contractor,"LEESIDE CLAN, INC.",,132,CHARLES ST,,EAST WILLISTON,NY,11596,5168804845,Outside NYC,,,,,,,,,,,
2065821-DCA,Business,02/28/2023,Active,02/07/2018,Home Improvement Contractor,"PRIME CONSTRUCTION MANAGEMENT, LLC.",,850,MCLEAN AVE,,YONKERS,NY,10704,6465923746,Outside NYC,,,,,,,,,,,
2087385-DCA,Business,02/28/2023,Active,06/20/2019,Home Improvement Contractor,"NY BEE HIVE, LLC",,1142,CASTLE HILL AVE,,BRONX,NY,10462,347-335-8090,Bronx,2,209,18,2092875,2038190001,,,,-73.850774993076,40.83085140810475,"(40.83085140810475, -73.850774993076)"
2053512-DCA,Business,02/28/2023,Active,05/25/2017,Home Improvement Contractor,Andaloro Construction LLC,,215,E 58TH ST,,NEW YORK,NY,10022,2127586490,Manhattan,1,106,04,1038624,1013320010,,,,-73.9664041782871,40.760667022814495,"(40.760667022814495, -73.9664041782871)"
1232268-DCA,Business,02/28/2023,Active,07/07/2006,Home Improvement Contractor,"NEW YORK CONTRACTOR & HOME IMPROVEMENT, INC.",,1051,FRANKLIN AVE,,VALLEY STREAM,NY,11580,5168254243,Outside NYC,,,,,,,,,,,
2090250-DCA,Business,02/28/2023,Active,09/06/2019,Home Improvement Contractor,SIMCORP CONSTRUCTION & REMODELING CORP.,,106,LADD AVE,,STATEN ISLAND,NY,10312,3473253933,Staten Island,5,503,51,5075633,5056530015,,,,-74.17622669490059,40.56117800793536,"(40.56117800793536, -74.17622669490059)"
2008925-DCA,Business,02/28/2023,Active,05/30/2014,Home Improvement Contractor,Magnolia Home Remodeling Group Inc.,,1640,VAUXHALL RD,,UNION,NJ,07083,8556246655,Outside NYC,,,,,,,,,,,
1097713-DCA,Business,02/28/2023,Active,12/03/2001,Home Improvement Contractor,"KELLY, GREGORY G",K & B GENERAL CONTRACTING,65,EMERSON AVE,,FLORAL PARK,NY,11001,5166160638,Outside NYC,,,,,,,,,,,
2067573-DCA,Business,02/28/2023,Active,03/10/2018,Home Improvement Contractor,"ZUNCE, SHPETIM",DELTA CONSTRUCTION COMPANY,56,EMERSON AVE,,STATEN ISLAND,NY,10301,7184477909,Staten Island,5,502,50,5021678,5008380156,,,,-74.09998068792108,40.60554336588905,"(40.60554336588905, -74.09998068792108)"
1224749-DCA,Business,02/28/2023,Active,04/25/2006,Home Improvement Contractor,"GOBIN'S G.B.H. AND R. CONSTRUCTION, INC.",,468,CARLLS PATH,,DEER PARK,NY,11729,3472287952,Queens,4,412,28,4214090,4100040064,,,,,,
2059232-DCA,Business,02/28/2023,Active,10/12/2017,Home Improvement Contractor,KLEIN KITCHEN INC.,KLEIN KITCHEN AND BATH,25,W 26TH ST,,NEW YORK,NY,10010,2127171726,Manhattan,1,,,,,,,,,,
2097031-DCA,Business,02/28/2023,Active,11/24/2020,Home Improvement Contractor,TSSNYC LLC,,319,E 24TH ST,,NEW YORK,NY,10010,6465222662,Manhattan,1,106,02,1078830,1009300012,,,,-73.97933042933136,40.7381027493206,"(40.7381027493206, -73.97933042933136)"
0979627-DCA,Business,02/28/2023,Active,01/13/2003,Home Improvement Contractor,"EDDIES ROOFING, INC.",,3657,E TREMONT AVE,,BRONX,NY,10465,7185181707,Bronx,2,210,13,2097556,2054270001,,,,-73.82368456138796,40.82798885658843,"(40.82798885658843, -73.82368456138796)"
2026883-DCA,Business,02/28/2023,Active,08/11/2015,Home Improvement Contractor,EAST HARLEM BUILDERS LLC,,153,E 116TH ST,,NEW YORK,NY,10029,917-299-2659,Manhattan,1,111,08,1052290,1016440023,,,,-73.94117484798171,40.79844368669193,"(40.79844368669193, -73.94117484798171)"
0851457-DCA,Business,02/28/2023,Active,10/22/2002,Home Improvement Contractor,DINEEN CONSTRUCTION CORP.,Dineen Construction Corp,389,9TH ST,,BROOKLYN,NY,11215,7189652364,Brooklyn,3,306,39,3022195,3010060070,,,,-73.98324172369716,40.66770015800114,"(40.66770015800114, -73.98324172369716)"
1271465-DCA,Business,02/28/2023,Active,10/29/2007,Home Improvement Contractor,"HELAL HOME IMPROVEMENT, INC.",,740,E 23RD ST,,BROOKLYN,NY,11210,9176604668,Brooklyn,3,314,45,3205775,3075500062,,,,-73.9546984648883,40.632312203402506,"(40.632312203402506, -73.9546984648883)"
1467878-DCA,Business,02/28/2023,Active,06/21/2013,Home Improvement Contractor,JOHN DESMOND BUILDERS INC.,,35,OLD POST RD,,SOUTHPORT,CT,06890,2032597323,Outside NYC,,,,,,,,,,,
1430962-DCA,Business,02/28/2023,Active,05/22/2012,Home Improvement Contractor,DROMOS CORP.,,105,CLAY ST,,BROOKLYN,NY,11222,3476807557,Brooklyn,3,301,33,3063723,3024830045,,,,-73.95379392403011,40.73672844781616,"(40.73672844781616, -73.95379392403011)"
2019617-DCA,Business,02/28/2023,Active,03/17/2015,Home Improvement Contractor,GOLDEN I CONSTRUCTION INC,,498,WINDING RD N,,ARDSLEY,NY,10502,21283781179173259650,Outside NYC,,,,,,,,,,,
1155672-DCA,Business,02/28/2023,Active,11/28/2003,Home Improvement Contractor,"CFM KITCHEN & BATH, INC.",,3590,NOSTRAND AVE,,BROOKLYN,NY,11229,718-646-3700,Brooklyn,3,315,48,3201583,3073860138,,,,-73.94114389964211,40.596511205566756,"(40.596511205566756, -73.94114389964211)"
2030641-DCA,Business,02/28/2023,Active,11/20/2015,Home Improvement Contractor,AAA BUILDERS INC,,174,MAPLE PKWY,,STATEN ISLAND,NY,10303,3473708561,Staten Island,5,501,49,5027666,5012210028,,,,-74.15659873364585,40.62907169812847,"(40.62907169812847, -74.15659873364585)"
2033442-DCA,Business,02/28/2023,Active,02/19/2016,Home Improvement Contractor,VINBAYTEL DEVELOPMENTS LLC,,41,AVENUE A,,NEW YORK,NY,10009,7189869086,Manhattan,1,103,02,1077953,1004300010,,,,-73.9853562345479,40.7235674501487,"(40.7235674501487, -73.9853562345479)"
2015043-DCA,Business,02/28/2023,Active,10/29/2014,Home Improvement Contractor,Seland management inc.,,2435,HARING ST,,BROOKLYN,NY,11235,,Brooklyn,3,315,48,3203615,3074230011,,,,-73.93947260417644,40.59308482777018,"(40.59308482777018, -73.93947260417644)"
1352598-DCA,Business,02/28/2023,Active,05/05/2010,Home Improvement Contractor,"MOLEDO, JOSE M",AZOR CO.,9728,3RD AVE,,BROOKLYN,NY,11209,7185778330,Brooklyn,3,310,43,3155816,3061250001,,,,-74.03432238152635,40.61550416062942,"(40.61550416062942, -74.03432238152635)"
2086835-DCA,Business,02/28/2023,Active,06/05/2019,Home Improvement Contractor,Symmetry Designs Incorporated,Symmetry Closets,1361,LINCOLN AVE,,HOLBROOK,NY,11741,6316088999,Outside NYC,,,,,,,,,,,
1321783-DCA,Business,02/28/2023,Active,06/11/2009,Home Improvement Contractor,ALL AMERICAN STONEWORKS INC.,,186,SEVILLE BLVD,,SAYVILLE,NY,11782,631-774-8002,Outside NYC,,,,,,,,,,,
2105932-DCA,Business,02/28/2023,Active,05/11/2022,Home Improvement Contractor,DEALS CONSTRUCTION USA CORP,,2620,GLENWOOD RD,,BROOKLYN,NY,11210,347-614-7687,Brooklyn,3,314,45,3205800,3075540043,,,,-73.9517288656178,40.633551639440206,"(40.633551639440206, -73.9517288656178)"
0834772-DCA,Business,02/28/2023,Active,10/05/1994,Home Improvement Contractor,"MEGNA, JAMES",MEGNA HOME IMP,367,OTIS AVE,,STATEN ISLAND,NY,10306,917-709-7102,Staten Island,5,502,50,5055351,5039050001,,,,-74.1059860002108,40.57268544712442,"(40.57268544712442, -74.1059860002108)"
2103830-DCA,Business,02/28/2023,Active,02/07/2022,Home Improvement Contractor,"MANI RENOVATION, CORP.",,2694,BRIGGS AVE,,BRONX,NY,10458,646-966-2060,Bronx,2,207,15,2092499,2032940030,,,,-73.89181085099506,40.866161199291206,"(40.866161199291206, -73.89181085099506)"
2103880-DCA,Business,02/28/2023,Active,02/10/2022,Home Improvement Contractor,"ULLAH, SAFWAT",S & T GENERAL CONSTRUCTION CO,302,AVENUE C,,BROOKLYN,NY,11218,9172945338,Brooklyn,3,312,39,3126040,3053720001,,,,-73.97671226188406,40.6405641099036,"(40.6405641099036, -73.97671226188406)"
1221896-DCA,Business,02/28/2023,Active,03/25/2006,Home Improvement Contractor,"ISMAIL, MOHAMED",ISMAIL CONSTRUCTION COMPANY,594,E 16TH ST,,BROOKLYN,NY,11226,347-335-5315,Brooklyn,3,314,40,3121173,3052360008,,,,-73.96243539647975,40.63563618491266,"(40.63563618491266, -73.96243539647975)"
1066504-DCA,Business,02/28/2023,Active,11/08/2000,Home Improvement Contractor,"ASA BUILDING MAINTENANCE, INC.",,235,E 123RD ST,,NEW YORK,NY,10035,2124239794,Manhattan,1,111,08,1054637,1017880014,,,,-73.93588373517414,40.802033713446285,"(40.802033713446285, -73.93588373517414)"
2084597-DCA,Business,02/28/2023,Active,04/15/2019,Home Improvement Contractor,FRANCO RESTORATIONS LLC,,29,FLETCHER AVE,,MOUNT VERNON,NY,10552,914-879-3858,Outside NYC,,,,,,,,,,,
2059146-DCA,Business,02/28/2023,Active,10/10/2017,Home Improvement Contractor,"MORALES, WALTER",CREATIVE CUSTOM CONTRACTING,5304,OVERBROOK ST,,LITTLE NECK,NY,11362,5167824212,Queens,4,411,19,4170439,4082020026,,,,-73.73691353487578,40.76006410565683,"(40.76006410565683, -73.73691353487578)"
2103895-DCA,Business,02/28/2023,Active,02/10/2022,Home Improvement Contractor,"Design At Large II, LLC",,28,KNIGHT CT,,BROOKLYN,NY,11229,6464965082,Brooklyn,3,315,46,3249317,3088910648,,,,-73.92977501141692,40.59057879737008,"(40.59057879737008, -73.92977501141692)"
1243419-DCA,Business,02/28/2023,Active,11/13/2006,Home Improvement Contractor,"A-PLUS MASONRY, INC.",,909,HORSEBLOCK RD,,FARMINGVILLE,NY,11738,6319812858,Outside NYC,,,,,,,,,,,
1419920-DCA,Business,02/28/2023,Active,02/17/2012,Home Improvement Contractor,KNH GROUP INC.,,388,PEARL ST,,NEW YORK,NY,10038,7186390086,Manhattan,1,103,01,1077416,1001110100,,,,-74.00028856486693,40.71125264259729,"(40.71125264259729, -74.00028856486693)"
2106013-DCA,Business,02/28/2023,Active,05/13/2022,Home Improvement Contractor,The Lombardo Building and Development Group LLC,,854,SUNRISE HWY,,BAY SHORE,NY,11706,631-747-0285,Outside NYC,,,,,,,,,,,
2059886-DCA,Business,02/28/2023,Active,10/26/2017,Home Improvement Contractor,AA CID CONSULTING INC,,15152,133RD AVE,,JAMAICA,NY,11434,917-645-2296,Queens,4,412,28,4263129,4121290036,,,,-73.78509550805708,40.66960864519094,"(40.66960864519094, -73.78509550805708)"
2025196-DCA,Business,02/28/2023,Active,07/02/2015,Home Improvement Contractor,EFS Restoration Corp,,6133,GRAND AVE,,MASPETH,NY,11378,,Queens,4,405,30,4060627,4027120035,,,,-73.90401864439592,40.72200503382978,"(40.72200503382978, -73.90401864439592)"
2103805-DCA,Business,02/28/2023,Active,02/07/2022,Home Improvement Contractor,WEATHER MAKERS NYC CORP,,119-18,101 AVENUE,,South Richmond Hill,NY,11419,929-335-1932,Queens,4,409,28,4200563,4094870009,,,,-73.82570088762526,40.69002711981771,"(40.69002711981771, -73.82570088762526)"
2002351-DCA,Business,02/28/2023,Active,01/08/2014,Home Improvement Contractor,"Stone Masters, Inc",,153,MEACHAM AVE,,ELMONT,NY,11003,5163274880,Queens,4,,,,,,,,,,
2103866-DCA,Business,02/28/2023,Active,02/09/2022,Home Improvement Contractor,MG Workshop LLC,,580,SYLVAN AVE,,ENGLEWOOD CLIFFS,NJ,07632,2014085566,Outside NYC,,,,,,,,,,,
2103818-DCA,Business,02/28/2023,Active,02/07/2022,Home Improvement Contractor,Rockhill Construction Corp,,102,WILLIAMS AVE,,BROOKLYN,NY,11207,3474257076,Brooklyn,3,305,37,3426490,3036820056,,,,-73.90027719212641,40.674001338488445,"(40.674001338488445, -73.90027719212641)"
2103900-DCA,Business,02/28/2023,Active,02/10/2022,Home Improvement Contractor,TANZID CONSTRUCTION CORP,,1472,43RD ST,,BROOKLYN,NY,11219,9179072623,Brooklyn,3,312,44,3136250,3056060029,,,,-73.98496467196809,40.63616559226728,"(40.63616559226728, -73.98496467196809)"
2103811-DCA,Business,02/28/2023,Active,02/07/2022,Home Improvement Contractor,GONCALVES & ALVES MASONRY INC,,539,SPORT HILL RD,,EASTON,CT,06612,203-209-6730,Outside NYC,,,,,,,,,,,
2103790-DCA,Business,02/28/2023,Active,02/04/2022,Home Improvement Contractor,Jiwan Construction Inc.,,9513,LEFFERTS BLVD,,SOUTH RICHMOND HILL,NY,11419,9177744177,Queens,4,409,28,4199620,4094550044,,,,-73.82708356648722,40.69218659868031,"(40.69218659868031, -73.82708356648722)"
2103779-DCA,Business,02/28/2023,Active,02/04/2022,Home Improvement Contractor,Rocco Vito Contracting Corp,,671,ADONIA ST,,FRANKLIN SQUARE,NY,11010,5166061412,Outside NYC,,,,,,,,,,,
2103851-DCA,Business,02/28/2023,Active,02/08/2022,Home Improvement Contractor,Platinum Design of New York City Inc.,,16810,CROCHERON AVE,,FLUSHING,NY,11358,9173618053,Queens,4,407,19,4119750,4052950050,,,,-73.79778683207273,40.76276161497472,"(40.76276161497472, -73.79778683207273)"
2106170-DCA,Business,02/28/2023,Active,05/19/2022,Home Improvement Contractor,"THE OLD YEW PLANT SHOP, LLC",THE OLD YEW PLANT SHOP,1,HORATIO ST,,NEW YORK,NY,10014,2038563108,Manhattan,1,102,03,1011075,1006160051,,,,-74.00350751076903,40.738763291316566,"(40.738763291316566, -74.00350751076903)"
2103894-DCA,Business,02/28/2023,Active,02/10/2022,Home Improvement Contractor,Casablanca Home Inspection LLC,,2326,ESPLANADE AVE,,BRONX,NY,10469,6467707883,Bronx,2,211,13,2050330,2043690048,,,,-73.85430983175284,40.86019687790703,"(40.86019687790703, -73.85430983175284)"
2106078-DCA,Business,02/28/2023,Active,05/17/2022,Home Improvement Contractor,INDU CONSTRUCTION CORP,,13411,109TH AVE,,SOUTH OZONE PARK,NY,11420,3472606896,Queens,4,410,28,4206231,4096140033,,,,-73.80984148755775,40.68643105172534,"(40.68643105172534, -73.80984148755775)"
2074680-DCA,Business,02/28/2023,Active,06/28/2018,Home Improvement Contractor,ARTISAN HOME IMPROVEMENT & CONSTRUCTION CORP,,6,COLONIAL RD,,SMITHTOWN,NY,11787,631-445-9216,Outside NYC,,,,,,,,,,,
1425476-DCA,Business,02/28/2023,Active,04/18/2012,Home Improvement Contractor,AMERICAN HOME REMODELING SERVICE INC.,,254,MILES AVE,,STATEN ISLAND,NY,10308,7183472829,Staten Island,5,503,51,5062315,5046100110,,,,-74.15083705963404,40.55845836675696,"(40.55845836675696, -74.15083705963404)"
2106157-DCA,Business,02/28/2023,Active,05/19/2022,Home Improvement Contractor,URSPACE HOME REMODELING CORP,,7,SUNDANCE ACRES RD,,STORMVILLE,NY,12582,9172663330,Outside NYC,,,,,,,,,,,
2005216-DCA,Business,02/28/2023,Active,03/26/2014,Home Improvement Contractor,GRIP CONSTRUCTION CORP.,,24,WHITE ST,,STATEN ISLAND,NY,10305,9174032659,Staten Island,5,501,49,5150142,5028580028,,,,-74.06590419804435,40.6123283892913,"(40.6123283892913, -74.06590419804435)"
2089556-DCA,Business,02/28/2023,Active,08/14/2019,Home Improvement Contractor,"AOS BUILDING MAINTENANCE, INC",,546,MIDWOOD ST,,BROOKLYN,NY,11203,347 242-4654,Brooklyn,3,309,41,3107039,3048040006,,,,-73.94245698734825,40.66061094695369,"(40.66061094695369, -73.94245698734825)"
2102130-DCA,Business,02/28/2023,Active,10/14/2021,Home Improvement Contractor,MGM BUILDERS CORP,,918,BALFOUR ST APT,918 Balfour St,VALLEY STREAM,NY,11580,,Outside NYC,,,,,,,,,,,
1383594-DCA,Business,02/28/2023,Active,02/28/2011,Home Improvement Contractor,"BALAL, AYUB",BYZANTINE CONSTRUCTION,15920,84TH AVE,,JAMAICA,NY,11432,3479810894,Queens,4,408,24,4209487,4097890050,,,,-73.80610345056441,40.71457245949114,"(40.71457245949114, -73.80610345056441)"
2036289-DCA,Business,02/28/2023,Active,04/19/2016,Home Improvement Contractor,LJPY CORP,Besta builders,5612,207TH ST,,OAKLAND GARDENS,NY,11364,,Queens,4,411,23,4159954,4074350013,,,,-73.77112605336276,40.74862290808542,"(40.74862290808542, -73.77112605336276)"
2091851-DCA,Business,02/28/2023,Active,10/30/2019,Home Improvement Contractor,EASTWOOD GENERAL CONTRACTING CORP,,17,TEELE DR,,CORAM,NY,11727,6317743154,Outside NYC,,,,,,,,,,,
2102036-DCA,Business,02/28/2023,Active,10/08/2021,Home Improvement Contractor,"MAS & MOST CONSTRUCTION, CORP.",,1932,DALY AVE,,BRONX,NY,10460,6465339298,Bronx,2,206,17,2010698,2029920037,,,,-73.88421109038055,40.84127307506386,"(40.84127307506386, -73.88421109038055)"
1351626-DCA,Business,02/28/2023,Active,04/27/2010,Home Improvement Contractor,WHITE LEAF MECHANICAL CORP,,115B,KNICKERBOCKER AVE,,BROOKLYN,NY,11237,2122032112,Brooklyn,3,301,34,3070751,3030140003,,,,-73.92929016512821,40.705030503793886,"(40.705030503793886, -73.92929016512821)"
2103842-DCA,Business,02/28/2023,Active,02/08/2022,Home Improvement Contractor,ESHA GENERAL CONSTRUCTION INC.,,1472,43RD ST,,BROOKLYN,NY,11219,9292589727,Brooklyn,3,312,44,3136250,3056060029,,,,-73.98496467196809,40.63616559226728,"(40.63616559226728, -73.98496467196809)"
2102067-DCA,Business,02/28/2023,Active,10/12/2021,Home Improvement Contractor,MAJESTIC FLOOR GURU INC,,14222,133RD AVE,,JAMAICA,NY,11436,3476655433,Queens,4,412,28,4262552,4120870216,,,,-73.79679748010727,40.66936915503345,"(40.66936915503345, -73.79679748010727)"
1291855-DCA,Business,02/28/2023,Active,09/19/2012,Home Improvement Contractor,MKD IRRIGATION CORP.,LANDSCAPING BY MICHEAL D'ANDREA,890,TYLER ST,,FRANKLIN SQUARE,NY,11010,5163269302,Outside NYC,,,,,,,,,,,
2102100-DCA,Business,02/28/2023,Active,10/13/2021,Home Improvement Contractor,"K.B Contracting Services, LLC",,1532,COMPTON TER,,HILLSIDE,NJ,07205,5513580231,Brooklyn,3,,,,,,,,,,
1360990-DCA,Business,02/28/2023,Active,06/30/2010,Home Improvement Contractor,HOME CONNECTION CONTRACTING INC,,5826,83RD PL,,MIDDLE VILLAGE,NY,11379,6466434679,Queens,4,405,30,4066350,4029110016,,,,-73.87817904155791,40.72882602425771,"(40.72882602425771, -73.87817904155791)"
2080761-DCA,Business,02/28/2023,Active,12/17/2018,Home Improvement Contractor,CITI REHAB CORP,,58,1ST PL,,BROOKLYN,NY,11231,917-771-0459,Brooklyn,3,306,39,3005137,3003610007,,,,-73.99834872266001,40.68071434563877,"(40.68071434563877, -73.99834872266001)"
1335331-DCA,Business,02/28/2023,Active,10/07/2009,Home Improvement Contractor,JASCO WINDOW CORPORATION,,11,DENTON AVE S,,NEW HYDE PARK,NY,11040,5163545772,Outside NYC,,,,,,,,,,,
2053775-DCA,Business,02/28/2023,Active,06/01/2017,Home Improvement Contractor,Uplands Construction Inc.,,5225,CONCORD ST,,LITTLE NECK,NY,11362,7180406790,Queens,4,411,19,4171710,4082720028,,,,-73.72812672569168,40.768206606207386,"(40.768206606207386, -73.72812672569168)"
1266635-DCA,Business,02/28/2023,Active,09/04/2007,Home Improvement Contractor,"FIRST CONSTRUCTION ZONE, INC.",,2765,W 5TH STREET,,BROOKLYN,NY,11224,7188408626,Brooklyn,3,,,,,,,,-73.97628371413792,40.57906689781597,"(40.57906689781597, -73.97628371413792)"
1470066-DCA,Business,02/28/2023,Active,07/26/2013,Home Improvement Contractor,HH BUILDING SERVICES INC.,,353,BOULEVARD,,SCARSDALE,NY,10583,9174160039,Outside NYC,,,,,,,,,,,
2102045-DCA,Business,02/28/2023,Active,10/08/2021,Home Improvement Contractor,PEC FLOORS LLC,,133,E 29TH ST,,NEW YORK,NY,10016,8482028882,Manhattan,1,106,02,1018255,1008850031,,,,-73.98169983914579,40.74314251376894,"(40.74314251376894, -73.98169983914579)"
2106043-DCA,Business,02/28/2023,Active,05/16/2022,Home Improvement Contractor,Jack Of All Consulting Inc,,3461,RUSSELL PL,,YORKTOWN HEIGHTS,NY,10598,3329003477,Outside NYC,,,,,,,,,,,
0935883-DCA,Business,02/28/2023,Active,01/17/1997,Home Improvement Contractor,"SZYSZKA, JAN",,6516,JAY AVE,,MASPETH,NY,11378,7184173517,Queens,4,405,30,4054852,4023790015,,,,-73.89988773933693,40.726909145602335,"(40.726909145602335, -73.89988773933693)"
0915833-DCA,Business,02/28/2023,Active,07/05/2007,Home Improvement Contractor,ZOON DEVELOPMENT INC.,,429,S 5TH ST,,BROOKLYN,NY,11211,917-567-6701,Brooklyn,3,301,34,3335958,3024520024,,,,-73.95120684048219,40.70693302355991,"(40.70693302355991, -73.95120684048219)"
1217944-DCA,Business,02/28/2023,Active,01/23/2006,Home Improvement Contractor,"AIR DOC'S, INC.",,12,GLEN PL,,NEW ROCHELLE,NY,10801,9148131005,Outside NYC,,,,,,,,,,,
2103885-DCA,Business,02/28/2023,Active,02/10/2022,Home Improvement Contractor,M & C Home Improvement of NY Inc.,,10215,JAMAICA AVE,,RICHMOND HILL,NY,11418,6469371873,Queens,4,,,,,,,,,,
2084218-DCA,Business,02/28/2023,Active,04/05/2019,Home Improvement Contractor,DANNY'S ELECTRIC BUILDERS CORP.,,49,LATHERS PARK,,NEW ROCHELLE,NY,10801,9149467611,Outside NYC,,,,,,,,,,,
1454028-DCA,Business,02/28/2023,Active,01/16/2013,Home Improvement Contractor,RRHM HOME IMPROVEMENT CORP.,,67,HILLSIDE AVE,,NEW ROCHELLE,NY,10801,9144381236,Outside NYC,,,,,,,,,,,
2102109-DCA,Business,02/28/2023,Active,10/13/2021,Home Improvement Contractor,RG GROUP  LLC,,115,LOCKWOOD AVE,,STAMFORD,CT,06902,9176458510,Outside NYC,,,,,,,,,,,
2065100-DCA,Business,02/28/2023,Active,01/18/2018,Home Improvement Contractor,"Automatic Door Systems, LLC.",,86,PORETE AVE,,NORTH ARLINGTON,NJ,07031,2019555311,Outside NYC,,,,,,,,,,,
2102046-DCA,Business,02/28/2023,Active,10/08/2021,Home Improvement Contractor,CH PAINTING SVCS CORP,,16,MARTENS AVE,,VALLEY STREAM,NY,11580,3478072753,Outside NYC,,,,,,,,,,,
1188328-DCA,Business,02/28/2023,Active,01/31/2005,Home Improvement Contractor,ISSHER CONSTRUCTION CORPORATION,,1618,JEFFERSON AVE,,RIDGEWOOD,NY,11385,6466449148,Queens,4,405,34,4085521,4035480017,,,,-73.90698133556026,40.698158208837405,"(40.698158208837405, -73.90698133556026)"
2080795-DCA,Business,02/28/2023,Active,12/19/2018,Home Improvement Contractor,ARIEL CONSULTANTS LLC,,350,7TH AVE,,NEW YORK,NY,10001,2122424131,Manhattan,1,105,03,1014290,1007790039,,,,-73.99269526381988,40.748163882646566,"(40.748163882646566, -73.99269526381988)"
2101755-DCA,Business,02/28/2023,Active,09/24/2021,Home Improvement Contractor,J & G HOME REPAIR & INTERIORS LLC,,9131,89TH ST,,WOODHAVEN,NY,11421,7186501253,Queens,4,409,32,4186248,4089830052,,,,-73.85384869077215,40.68838101871915,"(40.68838101871915, -73.85384869077215)"
2088507-DCA,Business,02/28/2023,Active,07/22/2019,Home Improvement Contractor,EXTRA MILE CONSTRUCTION LLC,,105,MAXESS RD,,MELVILLE,NY,11747,3478668672,Outside NYC,,,,,,,,,,,
2103892-DCA,Business,02/28/2023,Active,02/10/2022,Home Improvement Contractor,NATURAL HOMEBUILDER LLC,,19,DUBOIS AVE,,ALPINE,NJ,07620,2019250992,Outside NYC,,,,,,,,,,,
2094055-DCA,Business,02/28/2023,Active,01/30/2020,Home Improvement Contractor,PRECISION CONTRACTING & DESIGN INC,,3066,45TH ST,,ASTORIA,NY,11103,917 468-9699,Queens,4,401,22,4012609,4007130025,,,,-73.91232707014107,40.76038329934709,"(40.76038329934709, -73.91232707014107)"
2041311-DCA,Business,02/28/2023,Active,07/28/2016,Home Improvement Contractor,H.P.N CONSTRUCTION CORP,,3597,LORRIE DR,,OCEANSIDE,NY,11572,9173066991,Outside NYC,,,,,,,,,,,
1329007-DCA,Business,02/28/2023,Active,08/12/2009,Home Improvement Contractor,D.S.C. CONSTRUCTION INC.,,14,DIVISION PL,,BROOKLYN,NY,11222,3476235135,Brooklyn,3,301,34,3000000,3028490009,,,,-73.94014712482934,40.720300285111776,"(40.720300285111776, -73.94014712482934)"
2048421-DCA,Business,02/28/2023,Active,02/15/2017,Home Improvement Contractor,PERFECT CONSTRUCTION NY CORP,,9502,126TH ST,9502 126TH STREET,SOUTH RICHMOND HILL,NY,11419,9173551936,Queens,4,409,28,4199891,4094660001,,,,-73.82115068704444,40.69388478115312,"(40.69388478115312, -73.82115068704444)"
2103872-DCA,Business,02/28/2023,Active,02/09/2022,Home Improvement Contractor,"JC Landscaping & Design, Inc.",,6054,69TH PL,,MASPETH,NY,11378,7187272323,Queens,4,405,30,4063943,4028380014,,,,-73.89014932268026,40.720746515095676,"(40.720746515095676, -73.89014932268026)"
2085701-DCA,Business,02/28/2023,Active,05/09/2019,Home Improvement Contractor,LEVEL UP RESTORATION CORP,,5004,48TH STREET,,WOODSIDE,NY,11377,917-362-1187,Queens,4,,,,,,,,,,
2103825-DCA,Business,02/28/2023,Active,02/07/2022,Home Improvement Contractor,"Premier Cleaning Pro Solutions, Corp.",Premier HVAC Services,2601,24TH ST,,BROOKLYN,NY,11235,9172753280,Brooklyn,3,,,,,,,,,,
2095056-DCA,Business,02/28/2023,Active,03/04/2020,Home Improvement Contractor,BA PROSPECT CONSTRUCTION LLC,,235,PROSPECT AVE,,HACKENSACK,NJ,07601,848 219-3063,Outside NYC,,,,,,,,,,,
2046774-DCA,Business,02/28/2023,Active,12/22/2016,Home Improvement Contractor,JB&B BUILDERS INC.,,1075,E 73RD ST,,BROOKLYN,NY,11234,516 688-9483,Brooklyn,3,318,46,3349268,3083410113,,,,-73.91672291853203,40.62820946700156,"(40.62820946700156, -73.91672291853203)"
2082413-DCA,Business,02/28/2023,Active,02/20/2019,Home Improvement Contractor,THERMOSIDING CORP.,,2688,DOROTHY ST,,BELLMORE,NY,11710,5163543535,Outside NYC,,,,,,,,,,,
2088591-DCA,Business,02/28/2023,Active,07/23/2019,Home Improvement Contractor,N.Y. GROUP CONSTRUCTION LLC,,2100,EASTCHESTER RD,,BRONX,NY,10461,914-258-2648,Bronx,2,211,13,2047065,2042210001,,,,-73.84392241558304,40.85604702402423,"(40.85604702402423, -73.84392241558304)"
2103828-DCA,Business,02/28/2023,Active,02/07/2022,Home Improvement Contractor,Vegas Renovations Corp.,,48,EAST JOHN ST,,HICKSVILLE,NY,11801,5167175265,Outside NYC,,,,,,,,,,,
2103888-DCA,Business,02/28/2023,Active,02/10/2022,Home Improvement Contractor,Diamond Hands Contracting LLC,,369,WEST 34TH ST,,NEW YORK,NY,10001,2122032237,Manhattan,1,,,,,,,,,,
2034188-DCA,Business,02/28/2023,Active,03/09/2016,Home Improvement Contractor,H. ELITE GENERAL CONSTRUCTION LLC,,3103,CLARENDON RD,,BROOKLYN,NY,11226,6467071753,Brooklyn,3,317,45,3110733,3049310041,,,,-73.94763915801762,40.64332129120346,"(40.64332129120346, -73.94763915801762)"
2095473-DCA,Business,02/28/2023,Active,03/20/2020,Home Improvement Contractor,SUPERSONIC GROUP INC.,,61,APPLEBY AVE,,STATEN ISLAND,NY,10305,9177806669,Staten Island,5,502,50,5106001,5033940024,,,,-74.07955504986354,40.59146203205518,"(40.59146203205518, -74.07955504986354)"
2102119-DCA,Business,02/28/2023,Active,10/14/2021,Home Improvement Contractor,PORSCH DRYWALL-CARPENTRY LLC,,4350,FURMAN AVE,,BRONX,NY,10466,929-355-6135,Bronx,2,212,11,2069823,2050440030,,,,-73.85450116986455,40.89667135733733,"(40.89667135733733, -73.85450116986455)"
2103802-DCA,Business,02/28/2023,Active,02/07/2022,Home Improvement Contractor,Brightwaters Way Inc.,,1406,BAY RIDGE AVE,,BROOKLYN,NY,11219,7189745037,Brooklyn,3,311,43,3156539,3061570010,,,,-74.00127519412666,40.62210775799297,"(40.62210775799297, -74.00127519412666)"
2085174-DCA,Business,02/28/2023,Active,04/25/2019,Home Improvement Contractor,"ISLANDWIDE SIDING, WINDOWS & DOORS, INC",,253,S 7TH ST,,LINDENHURST,NY,11757,631 991-4995,Queens,4,,,,,,,,,,
