"the_geom","addr","boro","category","genborough","generating","lat","lon","oer_projec","oer_proj_1","recborough","receiving_","status","uid","volume_cy","weight_ton"
,"GreenThumb HQ","Queens","Receiving","Queens","97-11 Sutphin Blvd",,,"17TMP0431Q",,,,"Completed","19CCSB113","90","135"
"POINT (-73.926391 40.691478)","1003 Greene Ave","Brooklyn","Receiving","Brooklyn","63 North 6th Street","40.691478","-73.926391","15CVCP028K","15EHAN368K (and BCP)",,,"Completed","16CCSB048","220","330"
"POINT (-73.979744 40.698401000000004)","Admiral's Row","Brooklyn","Receiving","Queens","38-01 Queen Boulevard","40.698401","-73.979744",,"DEP",,,"Completed","17CCSB092","1000","1,500"
"POINT (-73.834251 40.759885)","2 Fulton Square","Queens","Generating",,,"40.759885","-73.834251",,"OEM","Manhattan","Wards Island","Completed","16CCSB066","500","750"
"POINT (-73.858075 40.728102)","98-04 Queens Boulevard","Queens","Generating",,,"40.728102","-73.858075","19TMP1900Q",,"Brooklyn","2175 Bergen Street","Completed","20CCSB150","460","690"
"POINT (-73.858075 40.728102)","98-04 Queens Boulevard","Queens","Generating",,,"40.728102","-73.858075","19TMP1900Q","N/A-BCP","Brooklyn","215 North 10th Street","Completed","20CCSB143","1300","1,950"
"POINT (-74.020936 40.657099)","Bush Terminal Pond","Brooklyn","Receiving","Queens","52-01 Queens Blvd","40.657099","-74.020936","12CVCP066Q","Parks",,,"Completed","13CCSB001","2040","3060"
"POINT (-73.933709 40.700345)","Rheingold block 3152","Brooklyn","Generating",,,"40.700345","-73.933709","15CVCP072K","13CVCP149K","Brooklyn","1875 Atlantic","Completed","16CCSB060","500","750"
"POINT (-73.896939 40.649136)","Ponderosa","Brooklyn","Receiving","Queens","97-11 Sutphin Blvd","40.649136","-73.896939","17TMP0431Q",,,,"Completed","19CCSB113","120","180"
"POINT (-73.784764 40.712026)","178-02 Hillside Avenue","Queens","Generating",,,"40.712026","-73.784764","15CVCP038Q","12EHAZ363K","Brooklyn","500 Metropolitan Avenue","Completed","17CCSB077","4000","6,000"
"POINT (-73.858075 40.728102)","98-04 Queens Boulevard","Queens","Generating",,,"40.728102","-73.858075","19TMP1900Q","N/A","Bronx","560 Brook Ave","Completed","20CCSB135","400","600"
"POINT (-73.990038 40.722995)","139 E Houston Street","New York","Generating",,,"40.722995","-73.990038",,,,"Spring Creek Park","Complete","20CCSB167","640","960"
"POINT (-73.96465700000002 40.719526)","1 North 4th Street","Brooklyn","Receiving","Brooklyn","City Point (1 Dekab Avenue)","40.719526","-73.964657","12EH-N207K","12EH-N096K",,,"Completed","13CCSB003","2875","4312.5"
"POINT (-74.18725900000001 40.58285)","FKL","Staten island","Receiving","Queens","31-07 38th Avenue","40.58285","-74.187259","15EHAN396Q","Sanitation",,,"Completed","17CCSB081","100","150"
"POINT (-73.858075 40.728102)","98-04 Queens Boulevard","Queens","Generating",,,"40.728102","-73.858075","19TMP1900Q","16TMP0049M","Brooklyn","415 Marcy Avenue","Completed","20CCSB149","220","330"
"POINT (-73.952102 40.630514)","Brooklyn College Campus","Brooklyn","Receiving","New York","139 E Houston Street","40.630514","-73.952102",,,,,"Comlete","20CCSB166","20","30"
"POINT (-73.805708 40.696665)","97-18 Sutphin Blvd","Queens","Generating",,,"40.696665","-73.805708","19TMP0336Q",,"Bronx","903 Harding Park, Bronx NY 10473","Completed","19CCSB127","100","150"
"POINT (-74.18725900000001 40.58285)","Fresh Kills","Staten Island","Receiving","Manhattan","5 West 125th Street","40.58285","-74.187259","11EHAN269M","DSNY",,,"Completed","13CCSB005","2,340","3510"
"POINT (-73.913022 40.683995)","1676 Broadway","Brooklyn","Generating",,,"40.683995","-73.913022","15CVCP148K","15CVCP120K","Brooklyn","8 Rockaway Ave","completed","16CCSB042","2000","3000"
"POINT (-73.99312000000002 40.623069)","Empire Electric","Brooklyn","Receiving","Brooklyn","886 Dahill","40.623069","-73.99312","17CVCP060K","DEC",,,"Completed","17CCSB094","4000","6,000"
"POINT (-73.977901 40.626239)","886 Dahill","Brooklyn","Generating",,,"40.626239","-73.977901","17CVCP060K","BCP C22419","Manhattan","11 West Street","Completed","17CCSB100","5,000","7,500"
,"Nehemiah 10","Brooklyn","Receiving","Queens","97-11 Sutphin Blvd",,,"17TMP0431Q",,,,"Completed","19CCSB113","150","225"
"POINT (-73.791666 40.705591000000005)","92-23 168th Street","Queens","Generating",,,"40.705591","-73.791666","17CVCP070Q","C224140","Brooklyn","5200 Kings Highway","Completed","19CCSB120","2,400","3,600"
,"102-14 Liberty Avenue","Queens","Generating",,,,,"14CVCP234Q","Parks/DEP","Queens","Flushing Meadows Corona Park","Completed","15CCSB033","990","1485"
"POINT (-74.183669 40.611356)","Staten Island Marine Development (SIMD)","Staten Island","Receiving","Brooklyn","BAM South - 113 Flatbush Avenue","40.611356","-74.183669","14CVCP210K","NA",,,"Completed","14CCSB020","55450","83175"
"POINT (-73.867519 40.815177)","391 Bronx Ave (Sound View Senior Housing)","Bronx","Receiving","Brooklyn","670 Pacific Street","40.815177","-73.867519","14CVCP217K","HPD",,,"Completed","15CCSB029","1500","2250"
"POINT (-73.978499 40.686202)","BAM South - 113 Flatbush Avenue","Brooklyn","Generating",,,"40.686202","-73.978499","14CVCP210K","NA","Staten Island","Staten Island Marine Development (SIMD)","Completed","14CCSB020","55450","83175"
,"GreenThumb Compound","Queens","Receiving","Queens","30-77 Vernon Boulevard",,,"n/a",,,,"Completed","20CCSB154","100","150"
"POINT (-73.916382 40.825761)","316 East 162nd Street","Bronx","Generating",,,"40.825761","-73.916382","14EHAN299X and HPD","HPD","Bronx","1351 Boston Road","Completed","15CCSB040","110","165"
"POINT (-73.861185 40.876007)","801 Gunhill Road","Bronx","Generating",,,"40.876007","-73.861185","12CVCP065X","DSNY","Staten Island","#VALUE!","Completed","13CCSB007","2775","4162.5"
"POINT (-73.927756 40.636232)","5200 Kings Highway","Brooklyn","Receiving","Queens","92-23 168th Street","40.636232","-73.927756","17CVCP070Q","C224140",,,"Completed","19CCSB120","2,400","3,600"
"POINT (-73.995873 40.724834)","300 Lafayette","Manhattan","Generating",,,"40.724834","-73.995873","14EHAZ344M","BCP","Queens","Former Cascade Laundry Facility","Completed","17CCSB074","500","750"
"POINT (-73.860538 40.888319)","3993 White Plains Road Bronx, NY","Bronx","Receiving","Queens","38-01 Queens Blvd","40.888319","-73.860538","C241178","14CVCP209X",,,"Completed","17CCSB084","5000","7,500"
"POINT (-73.983559 40.696485)","67 Duffield Street","Brooklyn","Receiving","Manhattan","122 East 32nd Street","40.696485","-73.983559","13CVCP134M","18CVCP063K",,,"Completed","19CCSB126","20","30"
"POINT (-73.947295 40.714035)","650 Metropolitan Avenue","Brooklyn","Generating",,,"40.714035","-73.947295","13CVCP071K","BCP C22419","Manhattan","11 West Street","Completed","17CCSB102","800","1,200"
"POINT (-73.865182 40.664872)","967 Autumn Ave, Brooklyn, NY 11208","Brooklyn","Receiving","Queens","92-23 168th Street","40.664872","-73.865182","17CVCP070Q",,,,"Completed","19CCSB122","240","360"
"POINT (-74.016586 40.689512)","Governors Island","Manhattan","Receiving","Queens","140-15 Queens Blvd","40.689512","-74.016586","14CVCP161Q","Governors Island Trust",,,"Completed","14CCSB016","490","735"
"POINT (-73.986439 40.678127)","503 Presidents Street","Brooklyn","Receiving","Brooklyn","501 Leonard Street","40.678127","-73.986439","13EHAZ318K","Greenthumb",,,"Completed","15CCSB037","108","162"
"POINT (-73.790574 40.711183)","87-67 171st Street Jamaica","Queens","Generating",,,"40.711183","-73.790574","14EH-N389Q","15RHAZ013K","Brooklyn","308 North 7th Street","Completed","16CCSB062","500","750"
"POINT (-74.015837 40.7056)","11 West Street","Manhattan","Receiving","Brooklyn","886 Dahill","40.7056","-74.015837","17CVCP060K","BCP C22419",,,"Completed","17CCSB100","5,000","7,500"
"POINT (-73.9079 40.82882)","1114 Washington Ave","Bronx","Generating",,,"40.82882","-73.9079","19TMP1591X",,"Bronx","3405 Third Avenue","Completed","20CCSB141","TBD",
"POINT (-73.912096 40.683522)","8 Rockaway Ave","Brooklyn","Receiving","Brooklyn","1676 Broadway","40.683522","-73.912096","15CVCP148K","15CVCP120K",,,"completed","16CCSB042","2000","3000"
"POINT (-74.183669 40.611356)","SIMD","Staten Island","Receiving","Brooklyn","Rheingold Block 3141","40.611356","-74.183669",,,,,"Completed","16CCSB055","30,000","45000"
,"NYC Parks - Split Rock Maintenance Yard","Bronx","Receiving","New Rochelle","New Rochelle - 24 Maple Ave",,,"N/a","N/A",,,"Complete","20CCSB159","5,335","8,003"
"POINT (-73.978499 40.686202)","BAM South - 113 Flatbush Avenue","Brooklyn","Generating",,,"40.686202","-73.978499","14CVCP210K","13EHAZ249K","Brooklyn","47 Bridge Street","Completed","14CCSB022","1500","2250"
"POINT (-73.913407 40.815441)","560 Brook Ave","Bronx","Receiving","Queens","98-04 Queens Boulevard","40.815441","-73.913407","19TMP1900Q","N/A",,,"Completed","20CCSB135","400","600"
"POINT (-73.85166900000002 40.747155)","NYSCI","Queens","Receiving","Queens","143-18 Liberty Avenue","40.747155","-73.851669","17CVCP006Q",,,,"Completed","18CCSB107","60","90"
"POINT (-73.805116 40.697029)","97-11 Sutphin Blvd","Queens","Generating",,,"40.697029","-73.805116","17TMP0431Q",,"Manhattan","Stuy Cove Park","Completed","19CCSB115","60","90"
"POINT (-73.858075 40.728102)","98-04 Queens Boulevard","Queens","Generating",,,"40.728102","-73.858075","19TMP1900Q","19TMP0038X","Bronx","4387 Third Avenue","Completed","20CCSB132","500","750"
"POINT (-73.933835 40.769639)","30-77 Vernon Boulevard","Queens","Generating",,,"40.769639","-73.933835","n/a","N/A","Brooklyn","87-105 River Street","Completed","20CCSB152","5,000","7,500"
"POINT (-73.834251 40.759885)","2 Fulton Square","Queens","Generating",,,"40.759885","-73.834251","16CVCP042Q",,"Brooklyn","ExxonMobil Greenpoint","Completed","16CCSB069","9000","13,500"
"POINT (-73.858075 40.728102)","98-04 Queens Boulevard","Queens","Generating",,,"40.728102","-73.858075","19TMP1900Q","N/A","Queens","NYCHA Pomonok - 67-09 Kissena Blvd.","Completed","20CCSB145","20","30"
"POINT (-73.931422 40.753752)","31-07 38th Avenue","Queens","Generating",,,"40.753752","-73.931422","15EHAN396Q","Sanitation","Staten island","FKL","Completed","17CCSB081","100","150"
"POINT (-74.015837 40.7056)","11  West Street","Manhattan","Receiving","Brooklyn","Rheingold block 3152","40.7056","-74.015837","15CVCP072K","State BCP",,,"Completed","16CCSB058","700","1,050"
,"Forest Houses","Queens","Receiving","Brooklyn","633 Marcy Avenue",,,"17CVCP060K","nycha",,,"Completed","17CCSB096","150","225"
"POINT (-73.940725 40.752491)","41-11 & 41-15 23rd Street","Queens","Generating",,,"40.752491","-73.940725","14CVCP175Q","DSNY","Staten Island","Fresh Kills Landfill","Completed","16CCSB044","1380","2070"
"POINT (-73.858075 40.728102)","98-04 Queens Boulevard","Queens","Generating",,,"40.728102","-73.858075","19TMP1900Q","N/A","Brooklyn","127 Dikeman Street","Completed","20CCSB137","20","30"
"POINT (-73.938868 40.712671)","885 Grand","Brooklyn","Receiving","Queens","39-32 28th Street","40.712671","-73.938868",,,,,"Completed","17CCSB089","500","750"
"POINT (-73.923133 40.677414)","1875 Atlantic","Brooklyn","Receiving","Brooklyn","Rheingold block 3152","40.677414","-73.923133","15CVCP072K","13CVCP149K",,,"Completed","16CCSB060","500","750"
"POINT (-73.936183 40.753282)","39-32 28th Street","Queens","Generating",,,"40.753282","-73.936183",,,"Brooklyn","885 Grand","Completed","17CCSB089","500","750"
"POINT (-73.952555 40.713604)","500 Metropolitan Avenue","Brooklyn","Receiving","Queens","264-12 Hillside Avenue","40.713604","-73.952555","16CVCP063Q","12EHAZ363K",,,"Completed","17CCSB078","700","1,050"
"POINT (-73.858075 40.728102)","98-04 Queens Boulevard","Queens","Generating",,,"40.728102","-73.858075","19TMP1900Q","N/A","Manhattan","Sherman Creek Park","Completed","20CCSB147","40","60"
"POINT (-73.912476 40.74288)","52-01 Queens Blvd","Queens","Generating",,,"40.74288","-73.912476","12CVCP066Q","Parks","Brooklyn","Bush Terminal Pond","Completed","13CCSB001","2040","3060"
"POINT (-73.752181 40.604107)","Rockaway youth task force","Queens","Receiving","Queens","108-20 Rockaway Beach Boulevard","40.604107","-73.752181","17CVCP039Q",,,,"Completed","N/A","80","120"
"POINT (-74.18725900000001 40.58285)","Fresh Kills Landfill","Staten Island","Receiving","Queens","34-22 35th St","40.58285","-74.187259","15CVCP109Q","DSNY",,,"Completed","16CCSB052","7000","10500"
"POINT (-74.002018 40.65608)","875 4th Avenue","Brooklyn","Generating",,,"40.65608","-74.002018","16EH-A242K","18EH-N164K","Brooklyn","67 Duffield Street","Completed","19CCSB128","860","1,290"
"POINT (-73.873021 40.81706100000001)","Soundview Park","Bronx","Receiving","Queens","98-04 Queens Boulevard","40.817061","-73.873021","19TMP1900Q","N/A",,,"Completed","20CCSB143","60","90"
"POINT (-74.206687 40.542095)","1243-1275 Woodrow Road","Staten Island","Generating",,,"40.542095","-74.206687","12CVCP063R","DSNY","Staten Island","Fresh Kills","Completed","13CCSB004","16140","24210"
"POINT (-73.908064 40.673937)","2175 Bergen Street","Brooklyn","Receiving","Queens","98-04 Queens Boulevard","40.673937","-73.908064","19TMP1900Q",,,,"Completed","20CCSB150","460","690"
"POINT (-74.18725900000001 40.58285)","Fresh Kills Landfill","Staten Island","Receiving","Queens","41-11 & 41-15 23rd Street","40.58285","-74.187259","14CVCP175Q","DSNY",,,"Completed","16CCSB044","1380","2070"
"POINT (-73.703921 40.73799600000001)","264-12 Hillside Avenue","Queens","Generating",,,"40.737996","-73.703921","16CVCP063Q","12EHAZ363K","Brooklyn","500 Metropolitan Avenue","Completed","17CCSB078","700","1,050"
"POINT (-73.849258 40.650841)","Spring Creek Park",,"Receiving","New York","139 E Houston Street","40.650841","-73.849258",,,,,"Complete","20CCSB167","640","960"
"POINT (-73.933709 40.700345)","Rheingold block 3152","Brooklyn","Generating",,,"40.700345","-73.933709","15CVCP072K","State BCP","Manhattan","11  West Street","Completed","16CCSB058","700","1,050"
"POINT (-73.857818 40.80713)","903 Harding Park, Bronx NY 10473","Bronx","Receiving","Queens","97-18 Sutphin Blvd","40.80713","-73.857818","19TMP0336Q",,,,"Completed","19CCSB127","100","150"
"POINT (-74.014266 40.676986)","127 Dikeman Street","Brooklyn","Receiving","Queens","98-04 Queens Boulevard","40.676986","-74.014266","19TMP1900Q","N/A",,,"Completed","20CCSB137","20","30"
"POINT (-73.921284 40.793212)","Wards Island","Manhattan","Receiving","Queens","87-67 171st Street, Jamaica","40.793212","-73.921284","14EH-N389Q","OEM",,,"Completed","16CCSB067","100","150"
,"New Rochelle - 24 Maple Ave","New Rochelle","Generating",,,,,"N/a","N/A","Bronx","NYC Parks - Split Rock Maintenance Yard","Complete","20CCSB159","5,335","8,003"
"POINT (-73.984372 40.70318)","47 Bridge Street","Brooklyn","Receiving","Brooklyn","BAM South - 113 Flatbush Avenue","40.70318","-73.984372","14CVCP210K","13EHAZ249K",,,"Completed","14CCSB022","1500","2250"
"POINT (-74.18725900000001 40.58285)","Fresh Kills","Staten Island","Receiving","Manhattan","42 Crosby Street","40.58285","-74.187259","15CVCP011M","DSNY",,,"Completed","15CCSB031","420","630"
"POINT (-73.964196 40.717695)","187 Kent","Brooklyn","Receiving","Queens","143-18 Liberty Avenue","40.717695","-73.964196","17CVCP006Q",,,,"Completed","17CCSB104","800","1,200"
"POINT (-74.18725900000001 40.58285)","Fresh Kills Landfill","Staten Island","Receiving","Queens","30-17 40th Avenue (LIC taxi site)","40.58285","-74.187259","15EHAN037Q","DSNY",,,"Completed","16CCSB050","2952","4428"
"POINT (-74.000461 40.658581)","826 4th Ave","Brooklyn","Receiving","Queens","50-11 Queens Blvd","40.658581","-74.000461","18CVCP077Q",,,,"Completed","19CCSB124","360","540"
"POINT (-73.990038 40.722995)","139 E Houston Street","New York","Generating",,,"40.722995","-73.990038",,,"Brooklyn","Brooklyn College Campus","Comlete","20CCSB166","20","30"
"POINT (-73.814704 40.703704)","140-15 Queens Blvd","Queens","Generating",,,"40.703704","-73.814704","14CVCP161Q","Governors Island Trust","Manhattan","Governors Island","Completed","14CCSB016","490","735"
"POINT (-73.926653 40.744442)","38-01 Queen Boulevard","Queens","Generating",,,"40.744442","-73.926653",,,"Brooklyn","98 Degraw","Completed","17CCSB091","500","750"
"POINT (-73.80888 40.69224)","143-18 Liberty Avenue","Queens","Generating",,,"40.69224","-73.80888","17CVCP006Q",,"Queens","NYSCI","Completed","18CCSB107","60","90"
"POINT (-73.910904 40.825907)","445 East 163rd Street (Washington Plaza)","Bronx","Receiving","Brooklyn","670 Pacific Street","40.825907","-73.910904","14CVCP217K","10EHAZ232X and HPD",,,"Completed","15CCSB025","4375","6562.5"
"POINT (-73.953351 40.714828)","308 North 7th Street","Brooklyn","Receiving","Queens","87-67 171st Street Jamaica","40.714828","-73.953351","14EH-N389Q","15RHAZ013K",,,"Completed","16CCSB062","500","750"
"POINT (-73.90742800000001 40.828567)","3405 Third Avenue","Bronx","Receiving","Bronx","1114 Washington Ave","40.828567","-73.907428","19TMP1591X",,,,"Completed","20CCSB141","TBD",
"POINT (-73.966372 40.717882)","87-105 River Street","Brooklyn","Receiving","Queens","30-77 Vernon Boulevard","40.717882","-73.966372","n/a","N/A",,,"Completed","20CCSB152","5,000","7,500"
"POINT (-73.981335 40.745152)","122 East 32nd Street","Manhattan","Generating",,,"40.745152","-73.981335","13CVCP134M","18CVCP063K","Brooklyn","67 Duffield Street","Completed","19CCSB126","20","30"
"POINT (-73.95893 40.72941)","50 Greenpoint ave","Brooklyn","Receiving","Brooklyn","63 North 6th Street","40.72941","-73.95893","15CVCP028K","13CVCP155K",,,"Completed","16CCSB046","340","510"
,"355 Food Center Drive","Manhattan","Receiving","Queens","2 Fulton Square",,,,"OEM",,,"Completed","16CCSB064","200","300"
"POINT (-74.008154 40.724169)","219 Hudson Street","Manhattan","Receiving","Queens","98-04 Queens Boulevard","40.724169","-74.008154","19TMP1900Q","15CVCP010M",,,"Completed","20CCSB139","375","563"
"POINT (-74.015837 40.7056)","11 West Street","Manhattan","Receiving","Brooklyn","650 Metropolitan Avenue","40.7056","-74.015837","13CVCP071K","BCP C22419",,,"Completed","17CCSB102","800","1,200"
"POINT (-74.183669 40.611356)","Staten Island Marine Development (SIMD)","Staten Island","Receiving","Staten Island","1243-1275 Woodrow Road","40.611356","-74.183669","12CVCP063R","NA",,,"Completed","13CCSB004 Phase 3","3410","5115"
"POINT (-73.881204 40.66517)","793 Cleveland St, Brooklyn, NY 11208","Brooklyn","Receiving","Queens","92-23 168th Street","40.66517","-73.881204","17CVCP070Q",,,,"Completed","19CCSB122","80","120"
"POINT (-73.899053 40.832285)","1351 Boston Road","Bronx","Receiving","Bronx","316 East 162nd Street","40.832285","-73.899053","14EHAN299X and HPD","HPD",,,"Completed","15CCSB040","110","165"
,"Big Reuse","Queens","Receiving","Brooklyn","1426 Fulton Street",,,"12CVCP045K",,,,"Completed","18CCSB110","40","60"
"POINT (-73.943887 40.695652)","948 Myrtle","Brooklyn","Generating",,,"40.695652","-73.943887",,,"Brooklyn","52 Throop","Completed","17CCSB093","200","300"
"POINT (-73.937768 40.753162)","40-05 Crescent Street","Queens","Generating",,,"40.753162","-73.937768","15CVCP021Q","15EH-N295K","Brooklyn","1525 Bedford Avenue","Completed","16CCSB073","6000","9,000"
"POINT (-73.933835 40.769639)","30-77 Vernon Boulevard","Queens","Generating",,,"40.769639","-73.933835","n/a",,"Queens","GreenThumb Compound","Completed","20CCSB154","100","150"
"POINT (-73.92664 40.744670000000006)","38-01 Queens Blvd","Queens","Generating",,,"40.74467","-73.92664","C241178","14CVCP209X","Bronx","3993 White Plains Road Bronx, NY","Completed","17CCSB084","5000","7,500"
"POINT (-73.858075 40.728102)","98-04 Queens Boulevard","Queens","Generating",,,"40.728102","-73.858075","19TMP1900Q","15CVCP010M","Manhattan","219 Hudson Street","Completed","20CCSB139","375","563"
"POINT (-73.937395 40.800767)","2211 3rd Avenue","Manhattan","Generating",,,"40.800767","-73.937395","12EHAZ218M","DSNY","Staten Island","Fresh Kills Landfill","Completed","16CCSB053","5000","7500"
"POINT (-73.91426 40.74308)","50-11 Queens Blvd","Queens","Generating",,,"40.74308","-73.91426","18CVCP077Q",,"Brooklyn","826 4th Ave","Completed","19CCSB124","360","540"
"POINT (-73.858075 40.728102)","98-04 Queens Boulevard","Queens","Generating",,,"40.728102","-73.858075","19TMP1900Q","N/A","Queens","GreenThumb HQ","Completed","20CCSB133","120","180"
"POINT (-73.834251 40.759885)","2 Fulton Square","Queens","Generating",,,"40.759885","-73.834251",,"OEM","Manhattan","355 Food Center Drive","Completed","16CCSB064","200","300"
"POINT (-73.805116 40.697029)","97-11 Sutphin Blvd","Queens","Generating",,,"40.697029","-73.805116","17TMP0431Q",,"Queens","GreenThumb HQ","Completed","19CCSB113","90","135"
"POINT (-74.090714 40.645032)","59, 63, 67 Fillmore St","Staten Island","Generating",,,"40.645032","-74.090714","13CVCP114R","DSNY","Staten Island","Fresh Kills","Completed","13CCSB006","273","409.5"
"POINT (-73.934376 40.756402)","37-02 27th Street","Queens","Generating",,,"40.756402","-73.934376",,"BCP","Brooklyn","Empire Electric","Completed","17CCSB087","5000","7,500"
,"Green Thumb","Citywide","Receiving","Queens","Flushing Commons",,,"14CVCP191Q","Parks/ GreenThumb",,,"Completed","15CCSB032","125","187.5"
"POINT (-73.979744 40.698401000000004)","Admiral's Row","Brooklyn","Receiving","Brooklyn","Domino A","40.698401","-73.979744",,,,,"Completed","17CCSB090","2000","3,000"
,"Exxon Mobile Greenpoint Remediation Project","Brooklyn","Receiving","Queens","2 fulton Square",,,"16CVCP042Q","DEC",,,"Completed","16CCSB051","11552","17328"
"POINT (-73.99312000000002 40.623069)","Empire Electric","Brooklyn","Receiving","Queens","37-02 27th Street","40.623069","-73.99312",,"BCP",,,"Completed","17CCSB087","5000","7,500"
"POINT (-73.858075 40.728102)","98-04 Queens Boulevard","Queens","Generating",,,"40.728102","-73.858075","19TMP1900Q","N/A","Brooklyn","Brooklyn College Campus","`","20CCSB144","20","30"
"POINT (-73.804925 40.699378)","148-02 94th Avenue, Jamaica","Queens","Generating",,,"40.699378","-73.804925",,"OEM","Manhattan","Wards Island","Completed","16CCSB068","100","150"
"POINT (-73.904509 40.81017500000001)","872-880 East 147th Street","Bronx","Receiving","Queens","98-04 Queens Boulevard","40.810175","-73.904509","19TMP1900Q","19TMP0599X",,,"Completed","20CCSB148","100","150"
"POINT (-74.18725900000001 40.58285)","Fresh Kills Landfill (1010 Muldoon Ave. SI,NY 10312)","Staten Island","Receiving","Queens","52-01 Queens Blvd","40.58285","-74.187259","12CVCP066Q","DSNY",,,"Completed","13CCSB002","760","1140"
"POINT (-73.926633 40.848237)","Bridge Park","Bronx","Receiving","New Rochelle","New Rochelle - 24 Maple Ave","40.848237","-73.926633",,,,,"Complete","20CCSB162","1955","2932.5"
"POINT (-73.805708 40.696665)","97-18 Sutphin Blvd","Queens","Generating",,,"40.696665","-73.805708","19TMP0336Q",,"Queens","Queens Plaza & 10th Street, LIC, NY 11101","Completed","19CCSB127","100","150"
"POINT (-73.943475 40.679757)","1426 Fulton Street","Brooklyn","Generating",,,"40.679757","-73.943475","12CVCP045K",,"Queens","Ravenswood","Completed","18CCSB110","20","30"
"POINT (-73.973359 40.681889)","670 Pacific Street","Brooklyn","Generating",,,"40.681889","-73.973359","14CVCP217K","10EHAZ232X and HPD","Bronx","445 East 163rd Street (Washington Plaza)","Completed","15CCSB025","4375","6562.5"
"POINT (-73.912176 40.561349)","Breezy Point Cooperative","Queens","Receiving","Queens","Flushing Commons","40.561349","-73.912176","14CVCP191Q","Resilliency",,,"Completed","15CCSB026","13830","20745"
"POINT (-73.982308 40.682552)","125 3rd Avenue","Brooklyn","Receiving","Queens","143-18 Liberty Avenue","40.682552","-73.982308","17CVCP006Q",,,,"Completed","17CCSB098","600","900"
"POINT (-73.830232 40.581508)","108-20 Rockaway Beach Boulevard","Queens","Generating",,,"40.581508","-73.830232","17CVCP039Q",,"Queens","Rockaway youth task force","Completed","N/A","80","120"
"POINT (-73.910904 40.825907)","445 East 163rd Street (Washington Plaza)","Bronx","Receiving","Bronx","316 East 162nd Street","40.825907","-73.910904","114EHAN299X and HPD","10EHAZ232X and HPD",,,"Completed","15CCSB034","1232","1848"
"POINT (-73.80888 40.69224)","143-18 Liberty Avenue","Queens","Generating",,,"40.69224","-73.80888","17CVCP006Q",,"Brooklyn","187 Kent","Completed","17CCSB104","800","1,200"
"POINT (-73.961328 40.719431)","63 North 6th Street","Brooklyn","Generating",,,"40.719431","-73.961328","15CVCP028K","13CVCP155K","Brooklyn","50 Greenpoint ave","Completed","16CCSB046","340","510"
"POINT (-73.901885 40.857593)","2264 Morris Avenue","Bronx","Receiving","Queens","97-11 Sutphin Blvd","40.857593","-73.901885","17TMP0431Q","DEP Project",,,"Completed","19CCSB117","19","29"
"POINT (-73.923612 40.771865)","23-15 Astoria Blvd.","Queens","Generating",,,"40.771865","-73.923612","12EHAZ504Q","13EHAZ151K","Brooklyn","395 Leonard Street","Completed","14CCSB009","2100","3150"
"POINT (-73.80888 40.69224)","143-18 Liberty Avenue","Queens","Generating",,,"40.69224","-73.80888","17CVCP006Q",,"Brooklyn","125 3rd Avenue","Completed","17CCSB098","600","900"
"POINT (-73.858536 40.669602)","2858 Linden Blvd","Brooklyn","Receiving","Queens","14-14 Central Ave","40.669602","-73.858536","18CVCP076Q","18CVCP070K",,,"Completed","19CCSB114","7,148","10,722"
"POINT (-73.791666 40.705591000000005)","92-23 168th Street","Queens","Generating",,,"40.705591","-73.791666","17CVCP070Q",,"Brooklyn","967 Autumn Ave, Brooklyn, NY 11208","Completed","19CCSB122","240","360"
"POINT (-73.954364 40.71602)","249 North 7th and 248 North 8th","Brooklyn","Receiving","Bronx","801 Gunhill Road","40.71602","-73.954364","12CVCP065X","12CVCP068 and 12CVCP069",,,"Completed","14CCSB019","480","720"
"POINT (-73.916382 40.825761)","316 East 162nd Street","Bronx","Generating",,,"40.825761","-73.916382","114EHAN299X and HPD","10EHAZ232X and HPD","Bronx","445 East 163rd Street (Washington Plaza)","Completed","15CCSB034","1232","1848"
"POINT (-73.827674 40.761202)","Flushing Commons","Queens","Receiving","Brooklyn","63 North 6th Street","40.761202","-73.827674","15CVCP028K","14CVCP191Q",,,"Completed","16CCSB043","1000","1500"
"POINT (-74.18725900000001 40.58285)","FKL","Staten Island","Receiving","Staten Island","Bridgeview Plaza","40.58285","-74.187259","15EHAZ218R","Sanitation",,,"Completed","17CCSB080","600","900"
"POINT (-73.805708 40.696665)","97-18 Sutphin Blvd","Queens","Generating",,,"40.696665","-73.805708","19TMP0336Q",,"Brooklyn","987 Lincoln Avenue, Brooklyn, NY 11208","Completed","19CCSB127","50","75"
,"Chestnut Commons  - 110 Dinsmore Place","Brooklyn","Generating",,,,,"16TMP0404K","N/A","Brooklyn","87-105 River Street","Complete","20CCSB158",,"0"
"POINT (-73.928937 40.768989)","30-40 21st Street","Queens","Generating",,,"40.768989","-73.928937","13CVCP111Q","NA","Staten Island","Staten Island Marine Development (SIMD)","Completed","14CCSB021","4250","6375"
"POINT (-73.934106 40.751958)","30-17 40th Avenue (LIC taxi site)","Queens","Generating",,,"40.751958","-73.934106","15EHAN037Q","DSNY","Staten Island","Fresh Kills Landfill","Completed","16CCSB050","2952","4428"
"POINT (-74.18725900000001 40.58285)","Fresh Kills","Staten Island","Receiving","Staten Island","59, 63, 67 Fillmore St","40.58285","-74.187259","13CVCP114R","DSNY",,,"Completed","13CCSB006","273","409.5"
"POINT (-73.997393 40.699547)","BBP","Brooklyn","Receiving","Brooklyn","Rheingold Block 3152","40.699547","-73.997393","15CVCP072K",,,,"Completed","16CCSB 054","1930","2895"
"POINT (-73.99312000000002 40.623069)","Empire Electric","Brooklyn","Receiving","Brooklyn","633 Marcy Avenue","40.623069","-73.99312",,"DEC",,,"Completed","17CCSB095","5000","7,500"
,"Domino Site C","Brooklyn","Receiving","Brooklyn","Domino Site E",,,"15CVCP001K","15CVCP006K",,,"Completed","15CCSB038","125","187.5"
"POINT (-73.954584 40.630759)","Brooklyn College Campus","Brooklyn","Receiving","Queens","98-04 Queens Boulevard","40.630759","-73.954584","19TMP1900Q","N/A",,,"Completed","20CCSB144","20","30"
"POINT (-73.805116 40.697029)","97-11 Sutphin Blvd","Queens","Generating",,,"40.697029","-73.805116","17TMP0431Q","DEP Project","Bronx","2264 Morris Avenue","Completed","19CCSB117","19","29"
"POINT (-74.183669 40.611356)","SIMD","Staten Island","Receiving","Staten Island","Lighthouse Point","40.611356","-74.183669","15CVCP162R",,,,"Completed","16CCSB059","30,000","45,000"
"POINT (-73.808618 40.693121)","144-15 Liberty Avenue","Queens","Generating",,,"40.693121","-73.808618","18CVCP036Q",,"Brooklyn","Empire Electric","Completed","17CCSB103","400","600"
"POINT (-73.791666 40.705591000000005)","92-23 168th Street","Queens","Generating",,,"40.705591","-73.791666","17CVCP070Q","C224099","Bronx","322 Third Avenue","Completed","19CCSB121","11,100","16,650"
"POINT (-73.805116 40.697029)","97-11 Sutphin Blvd","Queens","Generating",,,"40.697029","-73.805116","17TMP0431Q",,"Brooklyn","Nehemiah 10","Completed","19CCSB113","150","225"
"POINT (-73.952555 40.713604)","500 Metropolitan Avenue","Brooklyn","Receiving","Manhattan","300 Lafayette","40.713604","-73.952555","14EHAZ344M",,,,"Completed","17CCSB076","1000","1,500"
"POINT (-73.858075 40.728102)","98-04 Queens Boulevard","Queens","Generating",,,"40.728102","-73.858075","19TMP1900Q","18CVCP063K","Brooklyn","67 Duffield Street","Completed","20CCSB136","300","450"
"POINT (-73.809255 40.666011)","130-02 South Conduit","Queens","Generating",,,"40.666011","-73.809255","19TMP1115Q",,"Staten Island","North Park","Complete","20CCSB164","6740","10110"
"POINT (-73.933709 40.700345)","Rheingold Block 3152","Brooklyn","Generating",,,"40.700345","-73.933709","15CVCP072K",,"Staten Island","SIMD","Completed","16CCSB056","1000","1500"
"POINT (-73.969184 40.632947)","Newkirk Community Garden","Brooklyn","Receiving","Queens","98-04 Queens Boulevard","40.632947","-73.969184","19TMP1900Q","N/A",,,"Completed","20CCSB142","20","30"
"POINT (-74.18725900000001 40.58285)","Fresh Kills Landfill","Staten Island","Receiving","Manhattan","2211 3rd Avenue","40.58285","-74.187259","12EHAZ218M","DSNY",,,"Completed","16CCSB053","5000","7500"
"POINT (-74.18725900000001 40.58285)","Fresh Kills","Staten Island","Receiving","Staten Island","1243-1275 Woodrow Road","40.58285","-74.187259","12CVCP063R","DSNY",,,"Completed","13CCSB004","16140","24210"
"POINT (-73.858075 40.728102)","98-04 Queens Boulevard","Queens","Generating",,,"40.728102","-73.858075","19TMP1900Q","19TMP0599X","Bronx","872-880 East 147th Street","Completed","20CCSB148","100","150"
"POINT (-73.999048 40.721699)","42 Crosby Street","Manhattan","Generating",,,"40.721699","-73.999048","15CVCP011M","DSNY","Staten Island","Fresh Kills","Completed","15CCSB031","420","630"
"POINT (-73.909923 40.838033)","1420 College Ave","Bronx","Receiving","Queens","87-67 171st Street, Jamaica","40.838033","-73.909923","14EH-N389Q","Garden",,,"Completed","16CCSB065","100","150"
"POINT (-73.752832 40.604532)","20-10 Mott Avenue","Queens","Receiving","Queens","20-02 Mott Avenue","40.604532","-73.752832","18TMP0757Q","20CVCP029Q",,,"Complete","20CCSB168","1250","1875"
"POINT (-73.886795 40.749308)","Jackson Heights Beautification Group","Queens","Receiving","Queens","98-04 Queens Boulevard","40.749308","-73.886795","19TMP1900Q","N/A",,,"Completed","19CCSB131","20","30"
"POINT (-73.790574 40.711183)","87-67 171st Street, Jamaica","Queens","Generating",,,"40.711183","-73.790574","14EH-N389Q","OEM","Manhattan","Wards Island","Completed","16CCSB067","100","150"
"POINT (-73.947592 40.703034)","52 Throop","Brooklyn","Receiving","Brooklyn","948 Myrtle","40.703034","-73.947592",,,,,"Completed","17CCSB093","200","300"
,"GreenThumb HQ","Queens","Receiving","Queens","98-04 Queens Boulevard",,,"19TMP1900Q","N/A",,,"Completed","20CCSB133","120","180"
"POINT (-73.933709 40.700345)","Rheingold block 3152","Brooklyn","Generating",,,"40.700345","-73.933709","15CVCP072K","15CVCP073K","Brooklyn","Rheingold 3141","Completed","16CCSB061","200","300"
"POINT (-73.967589 40.707911)","431 Kent Ave (Domsey)","Brooklyn","Receiving","Brooklyn","63 North 6th Street","40.707911","-73.967589","15CVCP028K","12RH-N510K and BCP",,,"Completed","16CCSB047","660","990"
"POINT (-74.008154 40.724169)","219 Hudson Street","Manhattan","Receiving","Queens","98-04 Queens Boulevard","40.724169","-74.008154","19TMP1900Q","14TMP0213",,,"Completed","20CCSB146","100","150"
,"20-02 Mott Avenue","Queens","Generating",,,,,"18TMP0757Q","18TMP1119Q","Queens","97-01 Northern Boulevard","Completed","20CCSB151","780","1,170"
"POINT (-73.80888 40.69224)","143-18 Liberty Avenue","Queens","Generating",,,"40.69224","-73.80888","17CVCP006Q","BCP C22419","Manhattan","11 West Street","Completed","17CCSB101","1,000","1,500"
"POINT (-73.991535 40.677056)","123 3rd St, Brooklyn, NY 11231","Brooklyn","Receiving","Queens","97-18 Sutphin Blvd","40.677056","-73.991535","19TMP0336Q","18CVCP063K",,,"Completed","19CCSB127","20","30"
"POINT (-73.954774 40.670653)","1525 Bedford Avenue","Brooklyn","Receiving","Queens","40-05 Crescent Street","40.670653","-73.954774","15CVCP021Q","15EH-N295K",,,"Completed","16CCSB073","6000","9,000"
"POINT (-74.015837 40.7056)","11 West","Manhattan","Receiving","Brooklyn","984 Myrtle","40.7056","-74.015837",,"BCP",,,"Completed","17CCSB088","1000","1,500"
"POINT (-73.858075 40.728102)","98-04 Queens Boulevard","Queens","Generating",,,"40.728102","-73.858075","19TMP1900Q","15CVCP053M","Manhattan","540 West 53rd Street","Completed","20CCSB138","360","540"
"POINT (-73.966138 40.716537)","Domino A","Brooklyn","Generating",,,"40.716537","-73.966138",,,"Brooklyn","Admiral's Row","Completed","17CCSB090","2000","3,000"
"POINT (-73.91217 40.56134)","Breezy Point","Queens","Receiving","Queens","14-09 Gateway Blvd","40.56134","-73.91217","18TMP1185Q","N/A",,,"Complete","20CCSB140","320","480"
"POINT (-73.912476 40.74288)","52-01 Queens Blvd","Queens","Generating",,,"40.74288","-73.912476","12CVCP066Q","DSNY","Staten Island","Fresh Kills Landfill (1010 Muldoon Ave. SI,NY 10312)","Completed","13CCSB002","760","1140"
"POINT (-73.882295 40.833649)","Starlight Park","Bronx","Receiving","New Rochelle","New Rochelle - 24 Maple Ave","40.833649","-73.882295",,,,,"Complete","20CCSB163","645","967.5"
"POINT (-73.858075 40.728102)","98-04 Queens Boulevard","Queens","Generating",,,"40.728102","-73.858075","19TMP1900Q","14TMP0213","Manhattan","219 Hudson Street","Completed","20CCSB146","100","150"
"POINT (-74.183669 40.611356)","SIMD","Staten Island","Receiving","Brooklyn","Rheingold Block 3152","40.611356","-74.183669","15CVCP072K",,,,"Completed","16CCSB056","1000","1500"
"POINT (-73.943475 40.679757)","1426 Fulton Street","Brooklyn","Generating",,,"40.679757","-73.943475","12CVCP045K",,"Queens","Big Reuse","Completed","18CCSB110","40","60"
"POINT (-73.827674 40.761202)","Flushing Commons","Queens","Generating",,,"40.761202","-73.827674","14CVCP191Q","Resilliency","Queens","Breezy Point Cooperative","Completed","15CCSB026","13830","20745"
"POINT (-73.9211 40.8539)","Roberto Clemente State Park","Bronx","Receiving","Queens","143-18 Liberty Avenue","40.8539","-73.9211","17CVCP006Q",,,,"Completed","17CCSB106","1,000","1,500"
"POINT (-73.85475 40.70878)","69-46 Sybilla Street","Queens","Receiving","Queens","98-04 Queens Boulevard","40.70878","-73.85475","19TMP1900Q",,,,"Completed","20CCSB153","20","30"
"POINT (-73.858075 40.728102)","98-04 Queens Boulevard","Queens","Generating",,,"40.728102","-73.858075","19TMP1900Q","N/A","Queens","Jackson Heights Beautification Group","Completed","19CCSB131","20","30"
"POINT (-73.995873 40.724834)","300 Lafayette","Manhattan","Generating",,,"40.724834","-73.995873","14EHAZ344M",,"Brooklyn","500 Metropolitan Avenue","Completed","17CCSB076","1000","1,500"
"POINT (-73.966138 40.716537)","Domino Site A","Brooklyn","Generating",,,"40.716537","-73.966138","14EHAN401K","17RHAN068K","Brooklyn","Domino Waterfront Park","Completed","17CCSB083","8000","12,000"
"POINT (-73.92664 40.744670000000006)","38-01 Queens Blvd","Queens","Receiving","Queens","50-11 Queens Blvd","40.74467","-73.92664","18CVCP077Q","C241178",,,"Completed","19CCSB125","300","450"
"POINT (-73.948426 40.692978)","633 Marcy Avenue","Brooklyn","Generating",,,"40.692978","-73.948426",,"DEC","Brooklyn","Empire Electric","Completed","17CCSB095","5000","7,500"
"POINT (-73.966634 40.713436)","Domino Site E","Brooklyn","Generating",,,"40.713436","-73.966634","15CVCP001K","15CVCP006K","Brooklyn","Domino Site C","Completed","15CCSB038","125","187.5"
"POINT (-73.935274 40.756724)","37-10 Crescent Street","Queens","Generating",,,"40.756724","-73.935274","15CVCP057Q","14EHAZ317K","Brooklyn","Seaside Park","Completed","16CCSB045","3885","5827.5"
"POINT (-73.987467 40.703251)","55 Pearl Street, Brooklyn","Brooklyn","Receiving","Manhattan","5 West 125th Street","40.703251","-73.987467","11EHAN269M  13CVCP115M","13EHAN192K",,,"Completed","14CCSB011","160","240"
"POINT (-73.977901 40.626239)","886 Dahill","Brooklyn","Generating",,,"40.626239","-73.977901","17CVCP060K",,"Brooklyn","1056 Manhattan Avenue","Completed","17CCSB099","800","1,200"
"POINT (-73.790574 40.711183)","87-67 171st Street Jamaica","Queens","Generating",,,"40.711183","-73.790574","14EH-N389Q","GrowNYC/GT","Brooklyn","Hooper Street Garden","Completed","16CCSB063","450","675"
,"130-02 South Conduit","Queens","Generating",,,,,"19TMP1115Q","N/A","Queens","Gemini Fields","Complete","20CCSB161","4,000","6,000"
"POINT (-74.183669 40.611356)","SIMD","Staten Island","Receiving","Brooklyn","Domino Site E","40.611356","-74.183669","15CVCP001K","NA",,,"Completed","15CCSB039","19550","29325"
"POINT (-73.961328 40.719431)","63 North 6th Street","Brooklyn","Generating",,,"40.719431","-73.961328","15CVCP028K","12RH-N510K and BCP","Brooklyn","431 Kent Ave (Domsey)","Completed","16CCSB047","660","990"
"POINT (-73.94763200000001 40.753658)","Queens Plaza & 10th Street, LIC, NY 11101","Queens","Receiving","Queens","97-18 Sutphin Blvd","40.753658","-73.947632","19TMP0336Q",,,,"Completed","19CCSB127","100","150"
"POINT (-73.750941 40.606563)","14-14 Central Ave","Queens","Generating",,,"40.606563","-73.750941","18CVCP076Q","18CVCP070K","Brooklyn","2858 Linden Blvd","Completed","19CCSB114","7,148","10,722"
"POINT (-73.931007 40.809963)","198 E 135th Street","Bronx","Receiving","Brooklyn","1860 Eastern Parkway","40.809963","-73.931007","17TMP0413K","C203084",,,"Completed","19CCSB118","1,000","1,500"
"POINT (-73.948839 40.718027)","395 Leonard Street","Brooklyn","Receiving","Queens","23-15 Astoria Blvd.","40.718027","-73.948839","12EHAZ504Q","13EHAZ151K",,,"Completed","14CCSB009","2100","3150"
"POINT (-73.948076 40.702329)","295 Wallabout Street","Brooklyn","Receiving","Brooklyn","1134 Fulton Avenue","40.702329","-73.948076","16CVCP014K","16CVCP008K",,,"Completed","17CCSB085","250","375"
"POINT (-73.978499 40.686202)","BAM South - 113 Flatbush Avenue","Brooklyn","Generating",,,"40.686202","-73.978499","14CVCP210K","14EHAZ317K","Brooklyn","Seaside Park","Completed","15CCSB024","8500","12750"
"POINT (-74.015837 40.7056)","11 West Street","Manhattan","Receiving","Queens","143-18 Liberty Avenue","40.7056","-74.015837","17CVCP006Q","BCP C22419",,,"Completed","17CCSB101","1,000","1,500"
"POINT (-73.942695 40.807066)","5 West 125th Street","Manhattan","Generating",,,"40.807066","-73.942695","11EHAN269M","DSNY","Staten Island","Fresh Kills","Completed","13CCSB005","2,340","3510"
"POINT (-73.834251 40.759885)","2 fulton Square","Queens","Generating",,,"40.759885","-73.834251","16CVCP042Q","DEC","Brooklyn","Exxon Mobile Greenpoint Remediation Project","Completed","16CCSB051","11552","17328"
"POINT (-73.977901 40.626239)","886 Dahill","Brooklyn","Generating",,,"40.626239","-73.977901","17CVCP060K","DEC","Brooklyn","Empire Electric","Completed","17CCSB094","4000","6,000"
"POINT (-73.843333 40.747262)","Flushing Meadows Corona Park","Queens","Receiving","Queens","102-14 Liberty Avenue","40.747262","-73.843333","14CVCP234Q","Parks/DEP",,,"Completed","15CCSB033","990","1485"
"POINT (-73.87111 40.757334)","97-01 Northern Boulevard","Queens","Receiving","Queens","20-02 Mott Avenue","40.757334","-73.87111","18TMP0757Q","18TMP1119Q",,,"Completed","20CCSB151","780","1,170"
"POINT (-73.858075 40.728102)","98-04 Queens Boulevard","Queens","Generating",,,"40.728102","-73.858075","19TMP1900Q","N/A","Brooklyn","Newkirk Community Garden","Completed","20CCSB142","20","30"
"POINT (-73.790574 40.711183)","87-67 171st Street, Jamaica","Queens","Generating",,,"40.711183","-73.790574","14EH-N389Q","Garden","Bronx","1420 College Ave","Completed","16CCSB065","100","150"
,"Lighthouse Point","Staten Island","Generating",,,,,"15CVCP162R",,"Staten Island","SIMD","Completed","16CCSB059","30,000","45,000"
"POINT (-73.805708 40.696665)","97-18 Sutphin Blvd","Queens","Generating",,,"40.696665","-73.805708","19TMP0336Q","18CVCP063K","Brooklyn","123 3rd St, Brooklyn, NY 11231","Completed","19CCSB127","20","30"
"POINT (-73.983559 40.696485)","67 Duffield Street","Brooklyn","Receiving","Queens","98-04 Queens Boulevard","40.696485","-73.983559","19TMP1900Q","18CVCP063K",,,"Completed","20CCSB136","300","450"
"POINT (-73.921284 40.793212)","Wards Island","Manhattan","Receiving","Queens","148-02 94th Avenue, Jamaica","40.793212","-73.921284",,"OEM",,,"Completed","16CCSB068","100","150"
"POINT (-73.827674 40.761202)","Flushing Commons","Queens","Generating",,,"40.761202","-73.827674","14CVCP191Q","Parks/ GreenThumb","Citywide","Green Thumb","Completed","15CCSB032","125","187.5"
"POINT (-74.183669 40.611356)","Staten Island Marine Development (SIMD)","Staten Island","Receiving","Queens","30-40 21st Street","40.611356","-74.183669","13CVCP111Q","NA",,,"Completed","14CCSB021","4250","6375"
"POINT (-73.966372 40.717882)","87-105 River Street","Brooklyn","Receiving","Brooklyn","Chestnut Commons  - 110 Dinsmore Place","40.717882","-73.966372","16TMP0404K","N/A",,,"Complete","20CCSB158",,"0"
"POINT (-73.99312000000002 40.623069)","Empire Electric","Brooklyn","Receiving","Queens","144-15 Liberty Avenue","40.623069","-73.99312","18CVCP036Q",,,,"Completed","17CCSB103","400","600"
"POINT (-73.926714 40.811759)","322 Third Avenue","Bronx","Receiving","Queens","92-23 168th Street","40.811759","-73.926714","17CVCP070Q","C224099",,,"Completed","19CCSB121","11,100","16,650"
"POINT (-73.933709 40.700345)","Rheingold Block 3152","Brooklyn","Generating",,,"40.700345","-73.933709","15CVCP072K",,"Brooklyn","BBP","Completed","16CCSB 054","1930","2895"
"POINT (-73.952555 40.713604)","500 Metropolitan Avenue","Brooklyn","Receiving","Queens","178-02 Hillside Avenue","40.713604","-73.952555","15CVCP038Q","12EHAZ363K",,,"Completed","17CCSB077","4000","6,000"
"POINT (-73.805116 40.697029)","97-11 Sutphin Blvd","Queens","Generating",,,"40.697029","-73.805116","17TMP0431Q",,"Brooklyn","Ponderosa","Completed","19CCSB113","120","180"
"POINT (-73.926653 40.744442)","38-01 Queen Boulevard","Queens","Generating",,,"40.744442","-73.926653",,"DEP","Brooklyn","Admiral's Row","Completed","17CCSB092","1000","1,500"
"POINT (-73.861185 40.876007)","801 Gunhill Road","Bronx","Generating",,,"40.876007","-73.861185","12CVCP065X","12CVCP068 and 12CVCP069","Brooklyn","249 North 7th and 248 North 8th","Completed","14CCSB019","480","720"
"POINT (-74.206687 40.542095)","1243-1275 Woodrow Road","Staten Island","Generating",,,"40.542095","-74.206687","12CVCP063R","NA","Staten Island","Staten Island Marine Development (SIMD)","Completed","13CCSB004 Phase 3","3410","5115"
"POINT (-73.924759 40.757685)","34-22 35th St","Queens","Generating",,,"40.757685","-73.924759","15CVCP109Q","DSNY","Staten Island","Fresh Kills Landfill","Completed","16CCSB052","7000","10500"
,"Bridgeview Plaza","Staten Island","Generating",,,,,"15EHAZ218R","Sanitation","Staten Island","FKL","Completed","17CCSB080","600","900"
"POINT (-73.961328 40.719431)","63 North 6th Street","Brooklyn","Generating",,,"40.719431","-73.961328","15CVCP028K","14CVCP191Q","Queens","Flushing Commons","Completed","16CCSB043","1000","1500"
"POINT (-73.858075 40.728102)","98-04 Queens Boulevard","Queens","Generating",,,"40.728102","-73.858075","19TMP1900Q","N/A","Bronx","Soundview Park","Completed","20CCSB143","60","90"
"POINT (-73.951355 40.701416)","415 Marcy Avenue","Brooklyn","Receiving","Queens","98-04 Queens Boulevard","40.701416","-73.951355","19TMP1900Q","16TMP0049M",,,"Completed","20CCSB149","220","330"
"POINT (-73.983559 40.696485)","67 Duffield Street","Brooklyn","Receiving","Brooklyn","875 4th Avenue","40.696485","-73.983559","16EH-A242K","18EH-N164K",,,"Completed","19CCSB128","860","1,290"
"POINT (-73.78443 40.906085)","New Rochelle - 24 Maple Ave","New Rochelle","Generating",,,"40.906085","-73.78443",,,"Bronx","Bridge Park","Complete","20CCSB162","1955","2932.5"
"POINT (-73.933709 40.700345)","Rheingold block 3152","Brooklyn","Generating",,,"40.700345","-73.933709","15CVCP072K","Parks","Bronx","Green Thumb","Completed","16CCSB057","500","750"
"POINT (-73.969633 40.661385)","Prospect Park","Brooklyn","Receiving","Queens","98-04 Queens Boulevard","40.661385","-73.969633","19TMP1900Q","N/A",,,"Completed","20CCSB134","60","90"
"POINT (-73.954679 40.73492000000001)","1056 Manhattan Avenue","Brooklyn","Receiving","Brooklyn","886 Dahill","40.73492","-73.954679","17CVCP060K",,,,"Completed","17CCSB099","800","1,200"
"POINT (-73.973359 40.681889)","670 Pacific Street","Brooklyn","Generating",,,"40.681889","-73.973359","14CVCP217K","HPD","Bronx","391 Bronx Ave (Sound View Senior Housing)","Completed","15CCSB029","1500","2250"
,"Ravenswood","Queens","Receiving","Brooklyn","1426 Fulton Street",,,"12CVCP045K",,,,"Completed","18CCSB110","20","30"
"POINT (-73.851999 40.670379)","Gemini Fields","Queens","Receiving","Queens","130-02 South Conduit","40.670379","-73.851999","19TMP1115Q","N/A",,,"Complete","20CCSB161","4,000","6,000"
"POINT (-73.948426 40.692978)","633 Marcy Avenue","Brooklyn","Generating",,,"40.692978","-73.948426","17CVCP060K","nycha","Queens","Forest Houses","Completed","17CCSB096","150","225"
"POINT (-73.989071 40.57243)","Seaside Park","Brooklyn","Receiving","Brooklyn","BAM South - 113 Flatbush Avenue","40.57243","-73.989071","14CVCP210K","14EHAZ317K",,,"Completed","15CCSB024","8500","12750"
"POINT (-73.966634 40.713436)","Domino Site E","Brooklyn","Generating",,,"40.713436","-73.966634","15CVCP001K","NA","Staten Island","SIMD","Completed","15CCSB039","19550","29325"
"POINT (-73.791666 40.705591000000005)","92-23 168th Street","Queens","Generating",,,"40.705591","-73.791666","17CVCP070Q",,"Brooklyn","793 Cleveland St, Brooklyn, NY 11208","Completed","19CCSB122","80","120"
"POINT (-73.90778 40.675872000000005)","1860 Eastern Parkway","Brooklyn","Generating",,,"40.675872","-73.90778","17TMP0413K","C203084","Bronx","198 E 135th Street","Completed","19CCSB118","1,000","1,500"
"POINT (-73.942695 40.807066)","5 West 125th Street","Manhattan","Generating",,,"40.807066","-73.942695","11EHAN269M  13CVCP115M","13EHAN192K","Brooklyn","55 Pearl Street, Brooklyn","Completed","14CCSB011","160","240"
"POINT (-73.78443 40.906085)","New Rochelle - 24 Maple Ave","New Rochelle","Generating",,,"40.906085","-73.78443",,,"Bronx","Starlight Park","Complete","20CCSB163","645","967.5"
"POINT (-73.89412700000001 40.851084)","4387 Third Avenue","Bronx","Receiving","Queens","98-04 Queens Boulevard","40.851084","-73.894127","19TMP1900Q","19TMP0038X",,,"Completed","20CCSB132","500","750"
,"ExxonMobil Greenpoint","Brooklyn","Receiving","Queens","2 Fulton Square",,,"16CVCP042Q",,,,"Completed","16CCSB069","9000","13,500"
"POINT (-73.81261 40.734272000000004)","NYCHA Pomonok - 67-09 Kissena Blvd.","Queens","Receiving","Queens","98-04 Queens Boulevard","40.734272","-73.81261","19TMP1900Q","N/A",,,"Completed","20CCSB145","20","30"
"POINT (-73.917095 40.862153)","Sherman Creek Park","Manhattan","Receiving","Queens","98-04 Queens Boulevard","40.862153","-73.917095","19TMP1900Q","N/A",,,"Completed","20CCSB147","40","60"
"POINT (-73.982698 40.69104)","City Point (1 Dekab Avenue)","Brooklyn","Generating",,,"40.69104","-73.982698","12EH-N207K","12EH-N096K","Brooklyn","1 North 4th Street","Completed","13CCSB003","2875","4312.5"
"POINT (-73.955196 40.680711)","1134 Fulton Avenue","Brooklyn","Generating",,,"40.680711","-73.955196","16CVCP014K","16CVCP008K","Brooklyn","295 Wallabout Street","Completed","17CCSB085","250","375"
"POINT (-74.003275 40.685733)","98 Degraw","Brooklyn","Receiving","Queens","38-01 Queen Boulevard","40.685733","-74.003275",,,,,"Completed","17CCSB091","500","750"
"POINT (-74.187224 40.576528)","North Park","Staten Island","Receiving","Queens","130-02 South Conduit","40.576528","-74.187224","19TMP1115Q",,,,"Complete","20CCSB164","6740","10110"
"POINT (-73.935184 40.701129)","Rheingold Block 3141","Brooklyn","Generating",,,"40.701129","-73.935184",,,"Staten Island","SIMD","Completed","16CCSB055","30,000","45000"
"POINT (-73.91426 40.74308)","50-11 Queens Blvd","Queens","Generating",,,"40.74308","-73.91426","18CVCP077Q","C241178","Queens","38-01 Queens Blvd","Completed","19CCSB125","300","450"
"POINT (-73.953635 40.707832)","Hooper Street Garden","Brooklyn","Receiving","Queens","87-67 171st Street Jamaica","40.707832","-73.953635","14EH-N389Q","GrowNYC/GT",,,"Completed","16CCSB063","450","675"
"POINT (-73.941943 40.695969)","984 Myrtle","Brooklyn","Generating",,,"40.695969","-73.941943",,"BCP","Manhattan","11 West","Completed","17CCSB088","1000","1,500"
"POINT (-73.949291 40.722026)","501 Leonard Street","Brooklyn","Generating",,,"40.722026","-73.949291","13EHAZ318K","Greenthumb","Brooklyn","503 Presidents Street","Completed","15CCSB037","108","162"
,"#VALUE!","Staten Island","Receiving","Bronx","801 Gunhill Road",,,"12CVCP065X","DSNY",,,"Completed","13CCSB007","2775","4162.5"
"POINT (-73.80888 40.69224)","143-18 Liberty Avenue","Queens","Generating",,,"40.69224","-73.80888","17CVCP006Q",,"Bronx","Roberto Clemente State Park","Completed","17CCSB106","1,000","1,500"
"POINT (-73.864134 40.664487)","987 Lincoln Avenue, Brooklyn, NY 11208","Brooklyn","Receiving","Queens","97-18 Sutphin Blvd","40.664487","-73.864134","19TMP0336Q",,,,"Completed","19CCSB127","50","75"
"POINT (-73.961328 40.719431)","63 North 6th Street","Brooklyn","Generating",,,"40.719431","-73.961328","15CVCP028K","15EHAN368K (and BCP)","Brooklyn","1003 Greene Ave","Completed","16CCSB048","220","330"
"POINT (-73.989071 40.57243)","Seaside Park","Brooklyn","Receiving","Queens","37-10 Crescent Street","40.57243","-73.989071","15CVCP057Q","14EHAZ317K",,,"Completed","16CCSB045","3885","5827.5"
"POINT (-73.974378 40.73461)","Stuy Cove Park","Manhattan","Receiving","Queens","97-11 Sutphin Blvd","40.73461","-73.974378","17TMP0431Q",,,,"Completed","19CCSB115","60","90"
"POINT (-73.753039 40.605542)","20-02 Mott Avenue","Queens","Generating",,,"40.605542","-73.753039","18TMP0757Q","20CVCP029Q","Queens","20-10 Mott Avenue","Complete","20CCSB168","1250","1875"
"POINT (-73.935184 40.701129)","Rheingold 3141","Brooklyn","Receiving","Brooklyn","Rheingold block 3152","40.701129","-73.935184","15CVCP072K","15CVCP073K",,,"Completed","16CCSB061","200","300"
,"Former Cascade Laundry Facility","Queens","Receiving","Manhattan","300 Lafayette",,,"14EHAZ344M","BCP",,,"Completed","17CCSB074","500","750"
"POINT (-73.858075 40.728102)","98-04 Queens Boulevard","Queens","Generating",,,"40.728102","-73.858075","19TMP1900Q",,"Queens","69-46 Sybilla Street","Completed","20CCSB153","20","30"
"POINT (-73.748962 40.601275)","14-09 Gateway Blvd","Queens","Generating",,,"40.601275","-73.748962","18TMP1185Q","N/A","Queens","Breezy Point","Complete","20CCSB140","320","480"
"POINT (-73.967917 40.714696)","Domino Waterfront Park","Brooklyn","Receiving","Brooklyn","Domino Site A","40.714696","-73.967917","14EHAN401K","17RHAN068K",,,"Completed","17CCSB083","8000","12,000"
,"Green Thumb","Bronx","Receiving","Brooklyn","Rheingold block 3152",,,"15CVCP072K","Parks",,,"Completed","16CCSB057","500","750"
"POINT (-73.858075 40.728102)","98-04 Queens Boulevard","Queens","Generating",,,"40.728102","-73.858075","19TMP1900Q","N/A","Brooklyn","Prospect Park","Completed","20CCSB134","60","90"
"POINT (-73.992578 40.767218)","540 West 53rd Street","Manhattan","Receiving","Queens","98-04 Queens Boulevard","40.767218","-73.992578","19TMP1900Q","15CVCP053M",,,"Completed","20CCSB138","360","540"
"POINT (-73.953576 40.718303)","215 North 10th Street","Brooklyn","Receiving","Queens","98-04 Queens Boulevard","40.718303","-73.953576","19TMP1900Q","N/A-BCP",,,"Completed","20CCSB143","1300","1,950"
"POINT (-73.921284 40.793212)","Wards Island","Manhattan","Receiving","Queens","2 Fulton Square","40.793212","-73.921284",,"OEM",,,"Completed","16CCSB066","500","750"
