"project_number","building_id","project_description","school_name","school_address","sed_approved_final_cost","fcrtosed","borough","postcode","latitude","longitude","community_board","council_district","census_tract","bin","bbl","nta"
"18HG","R018","Lead Paint Abatement","P.S. 18 - STATEN ISLAND","221 BROADWAY","13953.00","2021-06-08T00:00:00.000","STATEN IS","10310","40.636587","-74.117509","501","49","105","5004877","5001760010","New Brighton-Silver Lake"
"16G4","X101","Lead Paint Abatement","P.S. 304 - BRONX","2750 LAFAYETTE AVENUE","25684.00","2021-06-08T00:00:00.000","BRONX","10465","40.827471","-73.829753","210","13","152","2080231","2055470001","Schuylerville-Throgs Neck-Edgewater Park"
"16GG","X151","Lead Paint Abatement","I.S. 151 - BRONX","250 EAST 156 STREET","12122.00","2021-06-08T00:00:00.000","BRONX","10451","40.82316","-73.921631","204","17","61","2002458","2024430190","East Concourse-Concourse Village"
"18HB","Q136","Lead Paint Abatement","P.S. 136 - QUEENS","201-15 115 AVENUE","16062.00","2021-06-08T00:00:00.000","QUEENS","11412","40.698279","-73.752654","412","27","520","4236757","4110180021","St. Albans"
"16MF","K185","Lead Paint Abatement","P.S. 185 - BROOKLYN","8601 RIDGE BLVD","28205.00","2021-06-08T00:00:00.000","BROOKLYN","11209","40.623986","-74.033779","310","43","60","3153416","3060430001","Bay Ridge"
"16LA","K021","Lead Paint Abatement","P.S. 21 - BROOKLYN","180 CHAUNCEY STREET","18618.00","2021-06-08T00:00:00.000","BROOKLYN","11233","40.680727","-73.926597","303","36","381","3047914","3016920017","Crown Heights North"
"16O1","X070","Lead Paint Abatement","P.S. 70 - BRONX","1691 WEEKS AVENUE","39861.00","2021-06-08T00:00:00.000","BRONX","10457","40.844253","-73.907616","204","15","22902","2007387","2027930028","Mount Hope"
"16GI","X153","Lead Paint Abatement","P.S. 153 - BRONX","650 BAYCHESTER AVENUE","13115.00","2021-06-08T00:00:00.000","BRONX","10475","40.872614","-73.833698","210","12","46201","2097470","2051410150","Co-op City"
"16FG","X059","Lead Paint Abatement","P.S. 59 - BRONX","2185 BATHGATE AVENUE","14399.00","2021-06-08T00:00:00.000","BRONX","10457","40.852774","-73.893524","206","15","395","2011538","2030490037","Claremont-Bathgate"
"18GM","M001","Lead Paint Abatement","P.S. 1 - MANHATTAN","8 HENRY STREET","19527.00","2021-06-08T00:00:00.000","MANHATTAN","10038","40.71276","-73.997489","103","1","27","1003375","1002790040","Chinatown"
"16N4","M036","Lead Paint Abatement","P.S. 36 - MANHATTAN","123 MORNINGSIDE DRIVE","15894.00","2021-06-08T00:00:00.000","MANHATTAN","10027","40.81027","-73.957482","109","7","19701","1055890","1018500002","Morningside Heights"
"16MA","K169","Lead Paint Abatement","P.S. 169 - BROOKLYN","4305 7TH AVENUE","16318.00","2021-06-08T00:00:00.000","BROOKLYN","11232","40.64629","-74.001903","307","38","92","3011002","3007320001","Sunset Park East"
"16O2","X088","Lead Paint Abatement","P.S. 88 - BRONX","1340 SHERIDAN AVENUE","11505.00","2021-06-08T00:00:00.000","BRONX","10456","40.837275","-73.913574","204","16","17902","2094533","2028300017","East Concourse-Concourse Village"
"17ON","K296","Lead Paint Abatement","I.S. 562 - BROOKLYN","125 COVERT STREET","15359.00","2021-06-08T00:00:00.000","BROOKLYN","11207","40.688387","-73.910276","304","37","413","3079027","3034160001","Bushwick South"
"16N8","M066","Lead Paint Abatement","P.S. 151 - MANHATTAN","421 EAST 88 STREET","14272.00","2021-06-08T00:00:00.000","MANHATTAN","10128","40.777911","-73.947757","108","5","14402","1050618","1015680008","Yorkville"
"17OD","K035","Lead Paint Abatement","I.S. 35 - BROOKLYN","272 MACDONOUGH STREET","11839.00","2021-06-08T00:00:00.000","BROOKLYN","11233","40.681896","-73.935963","303","36","273","3047054","3016740011","Stuyvesant Heights"
"18GT","M076","Lead Paint Abatement","P.S. 76 - MANHATTAN","220 WEST 121 STREET","11052.00","2021-06-08T00:00:00.000","MANHATTAN","10027","40.806768","-73.951061","110","9","220","1058470","1019260017","Central Harlem South"
"16GU","X444","Lead Paint Abatement","ROSE HILL PRE-K CENTER","2510 MARION AVENUE","10748.00","2021-06-08T00:00:00.000","BRONX","10458","40.861286","-73.893258","205","15","39902","2011069","2030260014","Bedford Park-Fordham North"
"1.60E+10","Q084","Lead Paint Abatement","P.S. 84 - QUEENS","22-45 41 STREET","35047.00","2021-06-08T00:00:00.000","QUEENS","11105","40.771512","-73.90633","401","22","119","4015334","4007940017","Steinway"
"16FE","X050","Lead Paint Abatement","FAIRMONT NEIGHBORHOOD SCHOOL","1550 VYSE AVENUE","16899.00","2021-06-08T00:00:00.000","BRONX","10460","40.834157","-73.887512","203","17","157","2010786","2029960010","Crotona Park East"
"1.60E+07","Q021","Lead Paint Abatement","P.S. 21 - QUEENS","147-36 26TH AVENUE","30899.00","2021-06-08T00:00:00.000","QUEENS","11354","40.774512","-73.819284","407","19","1047","4108665","4048030001","Murray Hill"
"18GZ","Q030","Lead Paint Abatement","P.S. 354 - QUEENS","126-10 BEDELL STREET","12401.00","2021-06-08T00:00:00.000","QUEENS","11434","40.68031","-73.774432","412","28","33402","4270045","4124950065","Springfield Gardens North"
"16LM","K106","Lead Paint Abatement","P.S. 106 - BROOKLYN","1328 PUTNAM AVENUE","41001.00","2021-06-08T00:00:00.000","BROOKLYN","11221","40.693879","-73.913056","304","37","435","3077286","3033770001","Bushwick North"
"16NE","M166","Lead Paint Abatement","P.S. 166 - MANHATTAN","132 WEST 89 STREET","18937.00","2021-06-08T00:00:00.000","MANHATTAN","10024","40.788865","-73.971847","107","6","173","1032308","1012190047","Upper West Side"
"16NR","Q184","Lead Paint Abatement","P.S. 184 - QUEENS","163-15 21 ROAD","19430.00","2021-06-08T00:00:00.000","QUEENS","11357","40.778095","-73.800163","407","19","1017","4129072","4057560001","Ft. Totten-Bay Terrace-Clearview"
"187V","Q081","Lead Paint Abatement","P.S. 81 - QUEENS","559 CYPRESS AVENUE","19912.00","2021-06-08T00:00:00.000","QUEENS","11385","40.703765","-73.912344","405","34","545","4082076","4034370001","Ridgewood"
"18HJ","R069","Lead Paint Abatement","P.S. 69 - STATEN ISLAND","144 KEATING PLACE","11175.00","2021-06-08T00:00:00.000","STATEN IS","10314","40.591468","-74.156705","502","51","27705","5037541","5023660073","Todt Hill-Emerson Hill-Heartland Village-Lighthouse Hill"
"16NZ","X063","Lead Paint Abatement","P.S. 63 - BRONX","1260 FRANKLIN AVENUE","53500.00","2021-06-08T00:00:00.000","BRONX","10456","40.830995","-73.902705","203","16","149","2004302","2026150014","Morrisania-Melrose"
"17O7","Q026","Lead Paint Abatement","P.S. 26 - QUEENS","195-02 69 AVENUE","17044.00","2021-06-08T00:00:00.000","QUEENS","11365","40.736922","-73.77799","408","23","1347","4153296","4071170421","Fresh Meadows-Utopia"
"16NO","Q162","Lead Paint Abatement","P.S. 162 - QUEENS","201-02 53 AVENUE","25424.00","2021-06-08T00:00:00.000","QUEENS","11364","40.749036","-73.777213","411","20","140901","4159363","4074100001","Bayside-Bayside Hills"
"16MR","K257","Lead Paint Abatement","P.S. 257 - BROOKLYN","60 COOK STREET","11324.00","2021-06-08T00:00:00.000","BROOKLYN","11206","40.702392","-73.941801","301","34","491","3071571","3031140011","East Williamsburg"
"16MU","K282","Lead Paint Abatement","P.S. 282 - BROOKLYN","180 6TH AVENUE","17953.00","2021-06-08T00:00:00.000","BROOKLYN","11217","40.67634","-73.977367","306","39","131","3019597","3009500024","Park Slope-Gowanus"
"16MD","K178","Lead Paint Abatement","P.S. 178 - BROOKLYN","2163 DEAN STREET","44585.00","2021-06-08T00:00:00.000","BROOKLYN","11233","40.675024","-73.915778","316","41","303","3038718","3014400056","Ocean Hill"
"16LV","K124","Lead Paint Abatement","P.S. 124 - BROOKLYN","515 4TH AVENUE","27380.00","2021-06-08T00:00:00.000","BROOKLYN","11215","40.667545","-73.991046","306","39","141","3023391","3010340001","Park Slope-Gowanus"
"16NT","Q848","Lead Paint Abatement","P.S. 81 - QUEENS","511 SENECA AVENUE","19447.00","2021-06-08T00:00:00.000","QUEENS","11385","40.705315","-73.911909","405","34","545","4081987","4034340001","Ridgewood"
"16MP","K250","Lead Paint Abatement","P.S. 250 - BROOKLYN","108 MONTROSE AVENUE","11056.00","2021-06-08T00:00:00.000","BROOKLYN","11206","40.707104","-73.945475","301","34","505","3071199","3030600001","East Williamsburg"
"16G7","X106","Lead Paint Abatement","P.S. 106 - BRONX","1514 OLMSTEAD AVENUE","20566.00","2021-06-08T00:00:00.000","BRONX","10462","40.836374","-73.855175","209","18","222","2041211","2039460007","Parkchester"
"1.60E+04","M061","Lead Paint Abatement","P.S. 361 - MANHATTAN","610 EAST 12 STREET","55742.00","2021-06-08T00:00:00.000","MANHATTAN","10009","40.727892","-73.978525","103","2","28","1079053","1003940012","Lower East Side"
"16F2","X019","Lead Paint Abatement","P.S. 19 - BRONX","4318 KATONAH AVENUE","25654.00","2021-06-08T00:00:00.000","BRONX","10470","40.899295","-73.8675","212","11","45102","2019463","2033860001","Woodlawn-Wakefield"
"1.60E+01","K130","Lead Paint Abatement","P.S. 130 - BROOKLYN","70 OCEAN PARKWAY","37140.00","2021-06-08T00:00:00.000","BROOKLYN","11218","40.648884","-73.975607","307","39","500","3124019","3053190001","Windsor Terrace"
"16GA","X119","Lead Paint Abatement","P.S. 119 - BRONX","1075 PUGSLEY AVENUE","11508.00","2021-06-08T00:00:00.000","BRONX","10472","40.828518","-73.856569","209","18","4001","2025696","2037890021","Soundview-Bruckner"
"16ET","R048","Lead Paint Abatement","NAPLES STREET ELEMENTARY SCHOO","1055 TARGEE STREET","21761.00","2021-06-08T00:00:00.000","STATEN IS","10304","40.60223","-74.091355","502","50","50","5046419","5031710001","Grasmere-Arrochar-Ft. Wadsworth"
"16FP","X075","Lead Paint Abatement","P.S. 75 - BRONX","984 FAILE STREET","24198.00","2021-06-08T00:00:00.000","BRONX","10459","40.822719","-73.889435","202","17","119","2006079","2027470001","Hunts Point"
"16F3","X021","Lead Paint Abatement","P.S. 21 - BRONX","715 EAST 225 STREET","18953.00","2021-06-08T00:00:00.000","BRONX","10466","40.887582","-73.859733","212","12","406","2063435","2048390039","Williamsbridge-Olinville"
"16FV","X081","Lead Paint Abatement","P.S. 81 - BRONX","5550 RIVERDALE AVENUE","41047.00","2021-06-08T00:00:00.000","BRONX","10471","40.903553","-73.905229","208","11","337","2084806","2058501550","North Riverdale-Fieldston-Riverdale"
"16L7","K009","Lead Paint Abatement","PUBLIC SCHOOL 9 THE SARAH SMIT","80 UNDERHILL AVENUE","23045.00","2021-06-08T00:00:00.000","BROOKLYN","11238","40.678297","-73.965541","308","35","205","3028204","3011450026","Prospect Heights"
"18GN","M006","Lead Paint Abatement","P.S. 6 - MANHATTAN","45 EAST 81 STREET","13248.00","2021-06-08T00:00:00.000","MANHATTAN","10028","40.777455","-73.960713","108","4","142","1046668","1014930021","Upper East Side-Carnegie Hill"
"18GA","K186","Lead Paint Abatement","P.S. 186 - BROOKLYN","7601 19 AVENUE","12030.00","2021-06-08T00:00:00.000","BROOKLYN","11214","40.611483","-73.994677","311","47","274","3160923","3062390001","Bensonhurst West"
"16M1","K151","Lead Paint Abatement","P.S. 151 - BROOKLYN","763 KNICKERBOCKER AVENUE","39045.00","2021-06-08T00:00:00.000","BROOKLYN","11207","40.693293","-73.90864","304","37","437","3078654","3034060001","Bushwick North"
"16O5","X110","Lead Paint Abatement","P.S. 110 - BRONX","580 CROTONA PARK SOUTH","14053.00","2021-06-08T00:00:00.000","BRONX","10456","40.835286","-73.900751","203","16","149","2009718","2029320001","Morrisania-Melrose"
"16ML","K214","Lead Paint Abatement","P.S. 214 - BROOKLYN","2944 PITKIN AVENUE","15147.00","2021-06-08T00:00:00.000","BROOKLYN","11208","40.676513","-73.863151","305","37","1202","3095254","3042430001","Cypress Hills-City Line"
"16NP","Q165","Lead Paint Abatement","P.S. 165 - QUEENS","70-35 150 STREET","44301.00","2021-06-08T00:00:00.000","QUEENS","11367","40.729741","-73.818446","408","24","77906","4144881","4066970012","Kew Gardens Hills"
"183U","M188","Lead Paint Abatement","P.S. 188 - MANHATTAN","442 EAST HOUSTON STREET","19245.00","2021-06-08T00:00:00.000","MANHATTAN","10002","40.719598","-73.977904","103","2","20","1004349","1003560100","Lower East Side"
"16MG","K193","Lead Paint Abatement","P.S. 193 - BROOKLYN","2515 AVENUE L","14925.00","2021-06-08T00:00:00.000","BROOKLYN","11210","40.621507","-73.950473","314","45","754","3208461","3076250001","Midwood"
"18HC","Q144","Lead Paint Abatement","P.S. 144 - QUEENS","69-20 JUNO STREET","28093.00","2021-06-08T00:00:00.000","QUEENS","11375","40.715281","-73.852412","406","29","729","4000000","4032120001","Forest Hills"
"16NF","M171","Lead Paint Abatement","P.S. 171 - MANHATTAN","19 EAST 103 STREET","19073.00","2021-06-08T00:00:00.000","MANHATTAN","10029","40.792122","-73.951961","111","8","168","1051497","1016090007","East Harlem South"
"16MH","K196","Lead Paint Abatement","P.S. 196 - BROOKLYN","207 BUSHWICK AVENUE","15070.00","2021-06-08T00:00:00.000","BROOKLYN","11206","40.708723","-73.940002","301","34","485","3071024","3030460001","Bushwick South"
"16NW","X042","Lead Paint Abatement","P.S. 42 - BRONX","1537 WASHINGTON AVENUE","40853.00","2021-06-08T00:00:00.000","BRONX","10457","40.838288","-73.902987","203","16","169","2009466","2029030023","Claremont-Bathgate"
"16O7","X126","Lead Paint Abatement","P.S. 126 - BRONX","175 WEST 166 STREET","29272.00","2021-06-08T00:00:00.000","BRONX","10452","40.835784","-73.928324","204","16","199","2003495","2025260083","Highbridge"
"16LJ","K100","Lead Paint Abatement","P.S. 100 - BROOKLYN","2951 WEST 3 STREET","28645.00","2021-06-08T00:00:00.000","BROOKLYN","11224","40.57732","-73.971313","313","48","35602","3196595","3072810001","West Brighton"
"16NI","Q089","Lead Paint Abatement","P.S. 89 - QUEENS","85-28 BRITTON AVENUE","40906.00","2021-06-08T00:00:00.000","QUEENS","11373","40.745923","-73.880205","404","25","271","4037370","4015140001","Elmhurst"
"18GO","M015","Lead Paint Abatement","P.S. 15 - MANHATTAN","333 EAST 4 STREET","48991.00","2021-06-08T00:00:00.000","MANHATTAN","10009","40.721791","-73.978986","103","2","2601","1004415","1003740020","Lower East Side"
"18HA","Q130","Lead Paint Abatement","P.S. 130 - QUEENS","200-01 42 AVENUE","26754.00","2021-06-08T00:00:00.000","QUEENS","11361","40.759517","-73.784029","411","19","1463","4137034","4062030001","Bayside-Bayside Hills"
"18HX","X091","Lead Paint Abatement","P.S. 91 - BRONX","2170 AQUEDUCT AVENUE","22861.00","2021-06-08T00:00:00.000","BRONX","10453","40.857689","-73.908349","205","14","251","2094683","2032070040","University Heights-Morris Heights"
"18H2","Q041","Lead Paint Abatement","P.S. 41 - QUEENS","214-43 35 AVENUE","39785.00","2021-06-08T00:00:00.000","QUEENS","11361","40.769601","-73.770863","411","19","1097","4135975","4061210001","Bayside-Bayside Hills"
"16MN","K225","Lead Paint Abatement","P.S. 225 - BROOKLYN","1075 OCEAN VIEW AVENUE","13450.00","2021-06-08T00:00:00.000","BROOKLYN","11235","40.579737","-73.956329","313","48","61004","3245498","3087120056","Brighton Beach"
"16NQ","Q166","Lead Paint Abatement","P.S. 166 - QUEENS","33-09 35 AVENUE","29012.00","2021-06-08T00:00:00.000","QUEENS","11106","40.757309","-73.926733","401","26","57","4008220","4006100001","Astoria"
"16LR","K116","Lead Paint Abatement","P.S. 116 - BROOKLYN","515 KNICKERBOCKER AVENUE","25888.00","2021-06-08T00:00:00.000","BROOKLYN","11237","40.697779","-73.916521","304","37","433","3075909","3033170001","Bushwick North"
"16O8","X145","Lead Paint Abatement","NEW MILLENNIUM BRONX ACADEMY O","1000 TELLER AVENUE","13362.00","2021-06-08T00:00:00.000","BRONX","10456","40.827941","-73.914374","204","16","173","2097111","2024240001","East Concourse-Concourse Village"
"16LO","K108","Lead Paint Abatement","P.S. 108 - BROOKLYN","200 LINWOOD STREET","42839.00","2021-06-08T00:00:00.000","BROOKLYN","11208","40.681268","-73.884063","305","37","117202","3087131","3039260045","Cypress Hills-City Line"
"18G9","K075","Lead Paint Abatement","P.S. 75 - BROOKLYN","95 GROVE STREET","14753.00","2021-06-08T00:00:00.000","BROOKLYN","11221","40.693313","-73.920666","304","34","419","3075879","3033140001","Bushwick South"
"16O4","X109","Lead Paint Abatement","P.S. 109 - BRONX","1771 POPHAM AVENUE","14952.00","2021-06-08T00:00:00.000","BRONX","10453","40.851414","-73.918533","205","14","20502","2094549","2028770393","University Heights-Morris Heights"
"16NL","Q122","Lead Paint Abatement","P.S. 122 - QUEENS","21-21 DITMARS BLVD","41908.00","2021-06-08T00:00:00.000","QUEENS","11105","40.780347","-73.916655","401","22","103","4019633","4008800001","Steinway"
"18H3","Q046","Lead Paint Abatement","P.S. 46 - QUEENS","64-45 218 STREET","24293.00","2021-06-08T00:00:00.000","QUEENS","11364","40.746202","-73.758752","411","23","1367","4162449","4076190001","Oakland Gardens"
"16LY","K145","Lead Paint Abatement","P.S. 145 - BROOKLYN","100 NOLL STREET","22467.00","2021-06-08T00:00:00.000","BROOKLYN","11206","40.701621","-73.93241","304","34","425","3071915","3031530011","Bushwick South"
"16GT","X435","Lead Paint Abatement","FORDHAM HS FOR THE ARTS - BRON","500 EAST FORDHAM ROAD","13552.00","2021-06-08T00:00:00.000","BRONX","10458","40.860043","-73.888267","206","15","387","2011810","2030590001","Belmont"
"16F4","X026","Lead Paint Abatement","I.S. 390 - BRONX","1930 ANDREWS AVENUE","14978.00","2021-06-08T00:00:00.000","BRONX","10453","40.854701","-73.913197","205","14","24502","2014692","2032160002","University Heights-Morris Heights"
"16GW","X819","Lead Paint Abatement","P.S. 207 - BRONX","3030 GODWIN TERRACE","16656.00","2021-06-08T00:00:00.000","BRONX","10463","40.878322","-73.906556","208","11","289","2083138","2057010105","Spuyten Duyvil-Kingsbridge"
"16FL","X067","Lead Paint Abatement","P.S. 67 - BRONX","2024 MOHEGAN AVENUE","23249.00","2021-06-08T00:00:00.000","BRONX","10460","40.843945","-73.884788","206","17","363","2013142","2031230003","East Tremont"
"16FD","X049","Lead Paint Abatement","P.S. 49 - BRONX","383 EAST 139 STREET","23674.00","2021-06-08T00:00:00.000","BRONX","10454","40.810085","-73.923102","201","8","39","2000626","2023020040","Mott Haven-Port Morris"
"16DZ","K031","Lead Paint Abatement","P.S. 31 - BROOKLYN","75 MESEROLE AVENUE","16612.00","2021-06-08T00:00:00.000","BROOKLYN","11222","40.726587","-73.95427","301","33","561","3065299","3025950001","Greenpoint"
"1.60E+03","M011","Lead Paint Abatement","P.S. 11 - MANHATTAN","320 WEST 21 STREET","21539.00","2021-06-08T00:00:00.000","MANHATTAN","10011","40.744349","-74.000253","104","3","89","1013260","1007440024","Hudson Yards-Chelsea-Flatiron-Union Square"
"16EZ","X006","Lead Paint Abatement","P.S. 6 - BRONX","1000 EAST TREMONT AVENUE","42488.00","2021-06-08T00:00:00.000","BRONX","10460","40.840755","-73.881707","206","17","359","2010892","2030050010","East Tremont"
"16G0","X095","Lead Paint Abatement","P.S. 95 - BRONX","3961 HILLMAN AVENUE","14781.00","2021-06-08T00:00:00.000","BRONX","10463","40.882898","-73.891256","208","11","281","2015472","2032520182","Van Cortlandt Village"
"16EO","R041","Lead Paint Abatement","P.S. 41 - STATEN ISLAND","216 CLAWSON STREET","16584.00","2021-06-08T00:00:00.000","STATEN IS","10306","40.574044","-74.109282","502","50","122","5052791","5036450007","New Dorp-Midland Beach"
"16EC","R005","Lead Paint Abatement","P.S. 5 - STATEN ISLAND","348 DEISIUS STREET","12478.00","2021-06-08T00:00:00.000","STATEN IS","10312","40.530169","-74.187635","503","51","176","5082407","5065660001","Annadale-Huguenot-Prince's Bay-Eltingville"
"16FU","X079","Lead Paint Abatement","I.S. 447 - BRONX","125 EAST 181 STREET","22143.00","2021-06-08T00:00:00.000","BRONX","10453","40.854872","-73.903458","205","14","23704","2013849","2031700001","Fordham South"
"16FA","X044","Lead Paint Abatement","P.S. 44 - BRONX","1825 PROSPECT AVENUE","16094.00","2021-06-08T00:00:00.000","BRONX","10457","40.842084","-73.891116","206","17","36902","2009957","2029490064","East Tremont"
"16GB","X121","Lead Paint Abatement","P.S. 121 - BRONX","2750 THROOP AVENUE","21491.00","2021-06-08T00:00:00.000","BRONX","10469","40.86608","-73.850982","211","13","348","2054253","2045260001","Allerton-Pelham Gardens"
"16G8","X107","Lead Paint Abatement","P.S. 107 - BRONX","1695 SEWARD AVENUE","14296.00","2021-06-08T00:00:00.000","BRONX","10473","40.818467","-73.868372","209","18","20","2021972","2035910050","Soundview-Castle Hill-Clason Point-Harding Park"
"16EQ","R045","Lead Paint Abatement","P.S. 45 - STATEN ISLAND","58 LAWRENCE AVENUE","29169.00","2021-06-08T00:00:00.000","STATEN IS","10310","40.628558","-74.107148","501","49","121","5007417","5002760007","New Brighton-Silver Lake"
"16FH","X060","Lead Paint Abatement","THE LONGWOOD ACADEMY OF DISCOV","888 REV. J.A. POLITE AVENUE","38524.00","2021-06-08T00:00:00.000","BRONX","10459","40.820403","-73.898912","202","17","87","2005348","2026960085","Longwood"
"16L8","K016","Lead Paint Abatement","P.S. 16 - BROOKLYN","157 WILSON STREET","11609.00","2021-06-08T00:00:00.000","BROOKLYN","11211","40.706023","-73.961476","301","33","535","3059906","3021770001","Williamsburg"
"18H1","Q034","Lead Paint Abatement","P.S. 34 - QUEENS","104-12 SPRINGFIELD BOULEVARD","23276.00","2021-06-08T00:00:00.000","QUEENS","11429","40.711753","-73.736624","413","27","582","4240503","4111510081","Queens Village"
"18HZ","X104","Lead Paint Abatement","P.S. 199 - BRONX","1449 SHAKESPEARE AVENUE","11646.00","2021-06-08T00:00:00.000","BRONX","10452","40.842943","-73.920563","204","16","21302","2088263","2028730027","Highbridge"
"17O5","K150","Lead Paint Abatement","P.S. 150 - BROOKLYN","364 SACKMAN STREET","16335.00","2021-06-08T00:00:00.000","BROOKLYN","11212","40.66896","-73.904726","316","41","908","3084012","3037440009","Brownsville"
"17O8","X161","Lead Paint Abatement","P.S. 161 - BRONX","628 TINTON AVENUE","15552.00","2021-06-08T00:00:00.000","BRONX","10455","40.814916","-73.905518","201","8","79","2004773","2026640029","Melrose South-Mott Haven North"
"16LF","K054","Lead Paint Abatement","P.S. 54 - BROOKLYN","195 SANDFORD STREET","17304.00","2021-06-08T00:00:00.000","BROOKLYN","11205","40.693018","-73.953034","303","33","241","3049020","3017650015","Bedford"
"16OB","X400","Lead Paint Abatement","BRONX INTERNATIONAL - BRONX","1110 BOSTON RD","13456.00","2021-06-08T00:00:00.000","BRONX","10456","40.827642","-73.904473","203","16","135","2004526","2026340001","Morrisania-Melrose"
"16LQ","K114","Lead Paint Abatement","P.S. 114 - BROOKLYN","1077 REMSEN AVENUE","11904.00","2021-06-08T00:00:00.000","BROOKLYN","11236","40.642545","-73.908529","318","46","964","3229159","3081600022","Canarsie"
"16NX","X055","Lead Paint Abatement","P.S. 55 - BRONX","450 ST PAULS PLACE","31801.00","2021-06-08T00:00:00.000","BRONX","10456","40.836404","-73.905014","203","16","14702","2009463","2029020001","Claremont-Bathgate"
"16NV","X035","Lead Paint Abatement","P.S. 35 - BRONX","261 EAST 163 STREET","21474.00","2021-06-08T00:00:00.000","BRONX","10451","40.827304","-73.91767","204","16","18302","2101573","2024460043","East Concourse-Concourse Village"
"18GG","K305","Lead Paint Abatement","P.S. 305 - BROOKLYN","344 MONROE STREET","16064.00","2021-06-08T00:00:00.000","BROOKLYN","11216","40.686076","-73.945229","303","36","265","3051458","3018190014","Bedford"
"16MK","K213","Lead Paint Abatement","P.S. 213 - BROOKLYN","580 HEGEMAN AVENUE","18936.00","2021-06-08T00:00:00.000","BROOKLYN","11207","40.66051","-73.890288","305","42","1104","3097334","3043240001","East New York"
"16MY","K335","Lead Paint Abatement","P.S. 335 - BROOKLYN","130 ROCHESTER AVENUE","18411.00","2021-06-08T00:00:00.000","BROOKLYN","11213","40.674656","-73.927794","308","36","307","3035887","3013550023","Crown Heights North"
"16NH","Q087","Lead Paint Abatement","P.S. 87 - QUEENS","67-54 80 STREET","52109.00","2021-06-08T00:00:00.000","QUEENS","11379","40.711815","-73.871238","405","30","621","4091737","4037820027","Middle Village"
"18HE","Q721","Lead Paint Abatement","P.S. 16 - QUEENS","41-15 104 STREET","17700.00","2021-06-08T00:00:00.000","QUEENS","11368","40.748987","-73.86123","404","21","403","4048820","4019850001","North Corona"
"16MI","K203","Lead Paint Abatement","P.S. 203 - BROOKLYN","5101 AVENUE M","17686.00","2021-06-08T00:00:00.000","BROOKLYN","11234","40.621436","-73.925989","318","46","680","3218626","3078490001","Flatlands"
"16M5","K158","Lead Paint Abatement","P.S. 158 - BROOKLYN","400 ASHFORD STREET","11696.00","2021-06-08T00:00:00.000","BROOKLYN","11207","40.672579","-73.884803","305","37","1150","3089176","3040150001","East New York"
"16LW","K127","Lead Paint Abatement","P.S. 127 - BROOKLYN","7805 7 AVENUE","20040.00","2021-06-08T00:00:00.000","BROOKLYN","11228","40.624132","-74.018826","310","43","206","3150481","3059730001","Dyker Heights"
"18I2","X178","Lead Paint Abatement","P.S. 178 - BRONX","850 BAYCHESTER AVENUE","13775.00","2021-06-08T00:00:00.000","BRONX","10475","40.875894","-73.833863","210","12","46201","2116161","2051410150","Co-op City"
"18HR","X041","Lead Paint Abatement","P.S. 41 - BRONX","3352 OLINVILLE AVENUE","11985.00","2021-06-08T00:00:00.000","BRONX","10467","40.874313","-73.868157","212","12","374","2056898","2046240015","Williamsbridge-Olinville"
"18H4","Q066","Lead Paint Abatement","P.S. 66 - QUEENS","85-05 102 STREET","83709.00","2021-06-08T00:00:00.000","QUEENS","11418","40.697973","-73.846619","409","32","24","4000000","4091830001","Richmond Hill"
"18GY","Q014","Lead Paint Abatement","P.S. 14 - QUEENS","107-01 OTIS AVENUE","21618.00","2021-06-08T00:00:00.000","QUEENS","11368","40.74056","-73.854131","404","21","439","4437311","4019540037","Corona"
"18HY","X094","Lead Paint Abatement","P.S. 94 - BRONX","3530 KINGS COLLEGE PLACE","21417.00","2021-06-08T00:00:00.000","BRONX","10467","40.880522","-73.87572","207","11","431","2018628","2033560042","Norwood"
"18H6","Q085","Lead Paint Abatement","P.S. 85 - QUEENS","23-70 31 STREET","29315.00","2021-06-08T00:00:00.000","QUEENS","11105","40.772863","-73.914708","401","22","115","4017485","4008420031","Steinway"
"18GD","K206","Lead Paint Abatement","P.S. 206 - BROOKLYN","2200 GRAVESEND NECK ROAD","14358.00","2021-06-08T00:00:00.000","BROOKLYN","11229","40.597369","-73.948946","315","48","59401","3201080","3073810201","Sheepshead Bay-Gerritsen Beach-Manhattan Beach"
"16MC","K176","Lead Paint Abatement","P.S. 176 - BROOKLYN","1225 69 STREET","23423.00","2021-06-08T00:00:00.000","BROOKLYN","11219","40.624611","-74.005378","310","43","196","3143190","3057740001","Dyker Heights"
"16M4","K155","Lead Paint Abatement","P.S. 155 - BROOKLYN","1355 HERKIMER STREET","23063.00","2021-06-08T00:00:00.000","BROOKLYN","11233","40.677415","-73.908734","316","37","369","3042263","3015520043","Ocean Hill"
"16ME","K184","Lead Paint Abatement","P.S. 184 - BROOKLYN","273 NEWPORT STREET","18338.00","2021-06-08T00:00:00.000","BROOKLYN","11212","40.659966","-73.904901","316","42","918","3082391","3036060001","Brownsville"
"16LN","K107","Lead Paint Abatement","P.S. 107 - BROOKLYN","1301 8TH AVENUE","22565.00","2021-06-08T00:00:00.000","BROOKLYN","11215","40.663251","-73.981289","306","39","167","3026517","3011010001","Park Slope-Gowanus"
"16O6","X114","Lead Paint Abatement","P.S. 114 - BRONX","1155 CROMWELL AVENUE","16242.00","2021-06-08T00:00:00.000","BRONX","10452","40.834776","-73.923067","204","16","63","2003022","2024950100","West Concourse"
"16LE","K048","Lead Paint Abatement","P.S. 48 - BROOKLYN","6015 18 AVENUE","27444.00","2021-06-08T00:00:00.000","BROOKLYN","11204","40.621871","-73.987396","312","44","244","3132140","3055190001","Borough Park"
"16OA","X166","Lead Paint Abatement","BRONX EARLY COLLEGE ACADEMY","250 EAST 164 STREET","15681.00","2021-06-08T00:00:00.000","BRONX","10456","40.828696","-73.917668","204","16","18302","2002497","2024460043","East Concourse-Concourse Village"
"16NJ","Q090","Lead Paint Abatement","P.S. 90 - QUEENS","86-50 109 STREET","23640.00","2021-06-08T00:00:00.000","QUEENS","11418","40.697033","-73.839213","409","32","128","4192167","4092040028","Richmond Hill"
"18HW","X068","Lead Paint Abatement","P.S. 68 - BRONX","4011 MONTICELLO AVENUE","12778.00","2021-06-08T00:00:00.000","BRONX","10466","40.891732","-73.838471","212","12","426","2067852","2049860081","Woodlawn-Wakefield"
"16NM","Q133","Lead Paint Abatement","P.S. 133 - QUEENS","248-05 86 AVENUE","17016.00","2021-06-08T00:00:00.000","QUEENS","11426","40.731729","-73.717859","413","23","157101","4175739","4086160001","Bellerose"
"18H9","Q116","Lead Paint Abatement","P.S. 116 - QUEENS","107-25 WREN PLACE","20610.00","2021-06-08T00:00:00.000","QUEENS","11433","40.700606","-73.782302","412","27","414","4218416","4102500001","South Jamaica"
"16N3","K848","Lead Paint Abatement","P.S. 149 - BROOKLYN","373 PENNSYLVANIA AVENUE","18590.00","2021-06-08T00:00:00.000","BROOKLYN","11207","40.668362","-73.894954","305","42","1156","3084298","3037720006","East New York (Pennsylvania Ave)"
"18HV","X061","Lead Paint Abatement","P.S. 61 - BRONX","1550 CROTONA PARK EAST","40425.00","2021-06-08T00:00:00.000","BRONX","10460","40.836575","-73.892817","203","17","153","2009865","2029390045","Crotona Park East"
"18HO","X009","Lead Paint Abatement","P.S. 9 - BRONX","230 EAST 183 STREET","25187.00","2021-06-08T00:00:00.000","BRONX","10458","40.857067","-73.898936","205","15","38301","2013561","2031500010","Fordham South"
"18H5","Q076","Lead Paint Abatement","P.S. 76 - QUEENS","36-36 10 STREET","16288.00","2021-06-08T00:00:00.000","QUEENS","11106","40.760852","-73.941143","401","26","39","4004331","4003540001","Queensbridge-Ravenswood-Long Island City"
"18GE","K229","Lead Paint Abatement","P.S. 229 - BROOKLYN","1400 BENSON AVENUE","12735.00","2021-06-08T00:00:00.000","BROOKLYN","11228","40.610963","-74.013376","311","43","170","3167212","3063910024","Bath Beach"
"16MX","K307","Lead Paint Abatement","P.S. 307 - BROOKLYN","209 YORK STREET","10975.00","2021-06-08T00:00:00.000","BROOKLYN","11201","40.701343","-73.982314","302","33","21","3000158","3000560007","DUMBO-Vinegar Hill-Downtown Brooklyn-Boerum Hill"
"16NG","Q009","Lead Paint Abatement","Q009 SPED - QUEENS","58-74 57 STREET","119308.00","2021-06-08T00:00:00.000","QUEENS","11378","40.718935","-73.912208","405","30","535","4059130","4026310106","Maspeth"
"16NU","X028","Lead Paint Abatement","P.S. 28 - BRONX","1861 ANTHONY AVENUE","85893.00","2021-06-08T00:00:00.000","BRONX","10457","40.848057","-73.903522","205","15","23302","2007603","2028040031","Mount Hope"
"16O3","X090","Lead Paint Abatement","THE FAMILY SCHOOL - BRONX","1116 SHERIDAN AVENUE","15040.00","2021-06-08T00:00:00.000","BRONX","10456","40.831992","-73.91796","204","16","18102","2002745","2024560100","East Concourse-Concourse Village"
"16NY","X058","Lead Paint Abatement","P.S. 58 - BRONX","459 EAST 176 STREET","38106.00","2021-06-08T00:00:00.000","BRONX","10457","40.846162","-73.899264","206","15","395","2009540","2029090032","Claremont-Bathgate"
"16NN","Q152","Lead Paint Abatement","P.S. 152 - QUEENS","33-52 62 STREET","41677.00","2021-06-08T00:00:00.000","QUEENS","11377","40.753037","-73.900123","402","26","293","4027102","4011840014","Woodside"
"187W","Q269","Lead Paint Abatement","P.S. 143 - QUEENS","86-37 53RD AVENUE","17390.00","2021-06-08T00:00:00.000","QUEENS","11373","40.735609","-73.878535","404","25","475","4064938","4028640036","Elmhurst"
"18GB","K200","Lead Paint Abatement","P.S. 200 - BROOKLYN","1940 BENSON AVENUE","17696.00","2021-06-08T00:00:00.000","BROOKLYN","11214","40.603188","-74.001408","311","43","282","3167818","3064070008","Bath Beach"
"16M9","K165","Lead Paint Abatement","P.S. 165 - BROOKLYN","76 LOTT AVENUE","23224.00","2021-06-08T00:00:00.000","BROOKLYN","11212","40.65744","-73.911053","316","42","896","3082726","3036220023","Brownsville"
"183T","K086","Lead Paint Abatement","P.S. 86 - BROOKLYN","220 IRVING AVENUE","22585.00","2021-06-08T00:00:00.000","BROOKLYN","11237","40.700774","-73.91748","304","37","431","3075109","3032890027","Bushwick North"
"16LD","K029","Lead Paint Abatement","P.S. 29 - BROOKLYN","425 HENRY STREET","12472.00","2021-06-08T00:00:00.000","BROOKLYN","11201","40.686951","-73.99806","306","39","45","3255627","3003110001","Carroll Gardens-Columbia Street-Red Hook"
"16LL","K105","Lead Paint Abatement","P.S. 105 - BROOKLYN","1031 59 STREET","30994.00","2021-06-08T00:00:00.000","BROOKLYN","11219","40.632936","-74.00374","312","38","214","3140612","3057020001","Borough Park"
"16LK","K102","Lead Paint Abatement","P.S. 102 - BROOKLYN","211 72 STREET","28299.00","2021-06-08T00:00:00.000","BROOKLYN","11209","40.63402","-74.029036","310","43","68","3146491","3058900001","Bay Ridge"
"16OZ","M146","Lead Paint Abatement","P.S. 146 - MANHATTAN","421 EAST 106 STREET","11499.00","2021-06-08T00:00:00.000","MANHATTAN","10029","40.789295","-73.939262","111","8","162","1052999","1017000001","East Harlem South"
"16NK","Q094","Lead Paint Abatement","P.S. 94 - QUEENS","41-77 LITTLE NECK PKWY","12706.00","2021-06-08T00:00:00.000","QUEENS","11363","40.771186","-73.739252","411","19","1479","4169468","4081350029","Douglas Manor-Douglaston-Little Neck"
"18HP","X025","Lead Paint Abatement","P.S. 25 - BRONX","811 EAST 149 STREET","14789.00","2021-06-08T00:00:00.000","BRONX","10455","40.812619","-73.906063","201","8","79","2004772","2026640001","Melrose South-Mott Haven North"
"18H7","Q086","Lead Paint Abatement","P.S. 86 - QUEENS","87-41 PARSONS BOULEVARD","12621.00","2021-06-08T00:00:00.000","QUEENS","11432","40.708898","-73.803938","408","24","448","4438678","4097740001","Briarwood-Jamaica Hills"
"18H0","Q031","Lead Paint Abatement","P.S. 31 - QUEENS","211-45 46 ROAD","19234.00","2021-06-08T00:00:00.000","QUEENS","11361","40.757064","-73.770122","411","19","1447","4156949","4073160018","Bayside-Bayside Hills"
"16LT","K120","Lead Paint Abatement","P.S. 120 - BROOKLYN","18 BEAVER STREET","12512.00","2021-06-08T00:00:00.000","BROOKLYN","11206","40.700609","-73.93834","304","34","389","3071806","3031370026","Bushwick South"
"16L9","K020","Lead Paint Abatement","P.S. 20 - BROOKLYN","225 ADELPHI STREET","18518.00","2021-06-08T00:00:00.000","BROOKLYN","11205","40.690765","-73.971376","302","35","183","3058531","3020910003","Fort Greene"
"16GK","X156","Lead Paint Abatement","CONCOURSE VILLAGE ELEMENTARY S","750 CONCOURSE VILLAGE WEST","15681.00","2021-06-08T00:00:00.000","BRONX","10451","40.823174","-73.923326","204","17","61","2002454","2024430079","East Concourse-Concourse Village"
"16FN","X073","Lead Paint Abatement","P.S. 73 - BRONX","1020 ANDERSON AVENUE","17132.00","2021-06-08T00:00:00.000","BRONX","10452","40.832706","-73.926838","204","8","189","2003051","2025040082","Highbridge"
"16F8","X036","Lead Paint Abatement","P.S. 36 - BRONX","1070 CASTLE HILL AVENUE","15722.00","2021-06-08T00:00:00.000","BRONX","10472","40.829344","-73.850428","209","18","78","2026706","2038170001","Westchester-Unionport"
"16EE","R011","Lead Paint Abatement","P.S. 11 - STATEN ISLAND","50 JEFFERSON STREET","14664.00","2021-06-08T00:00:00.000","STATEN IS","10304","40.590562","-74.097704","502","50","9602",,,"Old Town-Dongan Hills-South Beach"
"16FC","X047","Lead Paint Abatement","P.S. 47 - BRONX","1794 EAST 172 STREET","17741.00","2021-06-08T00:00:00.000","BRONX","10472","40.832902","-73.866848","209","18","76","2025622","2037860016","West Farms-Bronx River"
"16FM","X072","Lead Paint Abatement","P.S. 72 - BRONX","2951 DEWEY AVENUE","14343.00","2021-06-08T00:00:00.000","BRONX","10465","40.822604","-73.818247","210","13","158","2077162","2054400001","Schuylerville-Throgs Neck-Edgewater Park"
"16G5","X103","Lead Paint Abatement","P.S. 103 - BRONX","4125 CARPENTER AVENUE","18871.00","2021-06-08T00:00:00.000","BRONX","10466","40.892151","-73.861466","212","12","420","2062883","2048230001","Williamsbridge-Olinville"
"16F5","X027","Lead Paint Abatement","P.S. 277 - BRONX","519 ST ANNS AVENUE","30896.00","2021-06-08T00:00:00.000","BRONX","10455","40.813517","-73.913402","201","8","43","2000114","2022740023","Mott Haven-Port Morris"
"16F7","X033","Lead Paint Abatement","P.S. 33 - BRONX","2424 JEROME AVENUE","40877.00","2021-06-08T00:00:00.000","BRONX","10468","40.86185","-73.90176","205","14","239","2014099","2031880020","Fordham South"
"16EB","Q159","Lead Paint Abatement","P.S. 159 - QUEENS","205-01 33 AVENUE","31957.00","2021-06-08T00:00:00.000","QUEENS","11361","40.76936","-73.783943","411","19","1099","4134525","4060380013","Bayside-Bayside Hills"
"16DY","K015","Lead Paint Abatement","P.S. 15 - BROOKLYN","71 SULLIVAN STREET","22508.00","2021-06-08T00:00:00.000","BROOKLYN","11231","40.677343","-74.011558","306","38","53","3008585","3005660001","Carroll Gardens-Columbia Street-Red Hook"
"1.60E+05","M115","Lead Paint Abatement","P.S. 115 - MANHATTAN","586 WEST 177 STREET","13749.00","2021-06-08T00:00:00.000","MANHATTAN","10033","40.846542","-73.935205","112","10","261","1063228","1021330040","Washington Heights South"
"16EJ","R030","Lead Paint Abatement","P.S. 30 - STATEN ISLAND","200 WARDWELL AVE","12451.00","2021-06-08T00:00:00.000","STATEN IS","10314","40.618439","-74.132645","501","50","201","5113069","5004230009","Westerleigh"
"1.60E+09","Q071","Lead Paint Abatement","P.S. 71 - QUEENS","62-85 FOREST AVENUE","50638.00","2021-06-08T00:00:00.000","QUEENS","11385","40.711203","-73.905286","405","30","595","4083519","4034920007","Ridgewood"
"16EP","R042","Lead Paint Abatement","P.S. 42 - STATEN ISLAND","380 GENESEE AVENUE","19290.00","2021-06-08T00:00:00.000","STATEN IS","10312","40.552523","-74.169464","503","51","17012","5074394","5056050001","Annadale-Huguenot-Prince's Bay-Eltingville"
"16FF","X057","Lead Paint Abatement","P.S. 57 - BRONX","2111 CROTONA AVENUE","20551.00","2021-06-08T00:00:00.000","BRONX","10457","40.848472","-73.888561","206","15","373","2012359","2030810026","East Tremont"
"16G3","X100","Lead Paint Abatement","P.S. 100 - BRONX","800 TAYLOR AVENUE","20164.00","2021-06-08T00:00:00.000","BRONX","10473","40.821409","-73.862976","209","18","42","2022550","2036410001","Soundview-Castle Hill-Clason Point-Harding Park"
"16GE","X138","Lead Paint Abatement","P.S. 138 - BRONX","2060 LAFAYETTE AVENUE","20411.00","2021-06-08T00:00:00.000","BRONX","10473","40.822665","-73.853366","209","18","74","2022289","2036090016","Soundview-Castle Hill-Clason Point-Harding Park"
"1.60E+02","K202","Lead Paint Abatement","P.S. 202 - BROOKLYN","982 HEGEMAN AVENUE","17797.00","2021-06-08T00:00:00.000","BROOKLYN","11208","40.666417","-73.876563","305","42","1116","3098664","3044770001","East New York"
"1.60E+08","Q032","Lead Paint Abatement","P.S. 32 - QUEENS","171-11 35 AVENUE","20652.00","2021-06-08T00:00:00.000","QUEENS","11358","40.764763","-73.794683","407","19","1141","4118954","4052560001","Murray Hill"
"1.60E+06","Q019","Lead Paint Abatement","P.S. 19 - QUEENS","98-02 ROOSEVELT AVENUE","28948.00","2021-06-08T00:00:00.000","QUEENS","11368","40.749381","-73.867354","404","21","409","4000000","4016070001","North Corona"
"16GD","X134","Lead Paint Abatement","P.S. 134 - BRONX","1330 BRISTOW STREET","21022.00","2021-06-08T00:00:00.000","BRONX","10459","40.831194","-73.894773","203","17","153","2010273","2029650082","Crotona Park East"
"16EI","R022","Lead Paint Abatement","P.S. 22 - STATEN ISLAND","1860 FOREST AVENUE","38307.00","2021-06-08T00:00:00.000","STATEN IS","10303","40.625369","-74.15097","501","49","30302","5107239","5017060001","Mariner's Harbor-Arlington-Port Ivory-Graniteville"
"16F1","X018","Lead Paint Abatement","P.S. 18 - BRONX","502 MORRIS AVENUE","28302.00","2021-06-08T00:00:00.000","BRONX","10451","40.816406","-73.92329","201","8","51","2000816","2023240008","Mott Haven-Port Morris"
"16F9","X043","Lead Paint Abatement","P.S. 43 - BRONX","165 BROWN PLACE","88900.00","2021-06-08T00:00:00.000","BRONX","10454","40.806351","-73.921196","201","8","25","2000205","2022800040","Mott Haven-Port Morris"
"16FZ","X092","Lead Paint Abatement","X352 SPED - BRONX","700 EAST 179 STREET","15552.00","2021-06-08T00:00:00.000","BRONX","10457","40.846711","-73.889815","206","17","371","2012620","2030920014","East Tremont"
"16FW","X086","Lead Paint Abatement","P.S. 86 - BRONX","2756 RESERVOIR AVENUE","16176.00","2021-06-08T00:00:00.000","BRONX","10468","40.869835","-73.89874","207","11","409","2100971","2032470070","Van Cortlandt Village"
"16G6","X105","Lead Paint Abatement","P.S. 105 - BRONX","725 BRADY AVENUE","49036.00","2021-06-08T00:00:00.000","BRONX","10462","40.852398","-73.866617","211","13","22404","2048794","2042880001","Pelham Parkway"
"16GH","X152","Lead Paint Abatement","P.S. 152 - BRONX","1007 EVERGREEN AVENUE","23608.00","2021-06-08T00:00:00.000","BRONX","10472","40.824054","-73.880039","209","17","52","2023336","2037110001","Soundview-Bruckner"
"16LZ","K147","Lead Paint Abatement","P.S. 147 - BROOKLYN","325 BUSHWICK AVENUE","17534.00","2021-06-08T00:00:00.000","BROOKLYN","11206","40.705204","-73.939407","301","34","485","3071418","3030910001","Bushwick South"
"16EA","Q154","Lead Paint Abatement","P.S. 154 - QUEENS","75-02 162 STREET","33311.00","2021-06-08T00:00:00.000","QUEENS","11366","40.726769","-73.806894","408","24","1257","4148003","4068340001","Kew Gardens Hills"
"16F0","X016","Lead Paint Abatement","P.S. 16 - BRONX","4550 CARPENTER AVENUE","12325.00","2021-06-08T00:00:00.000","BRONX","10470","40.902205","-73.854829","212","11","414","2070894","2050760031","Woodlawn-Wakefield"
"16FJ","X065","Lead Paint Abatement","P.S. 65 - BRONX","677 EAST 141 STREET","29469.00","2021-06-08T00:00:00.000","BRONX","10454","40.807335","-73.912731","201","8","33","2003834","2025710001","Mott Haven-Port Morris"
"188U","R450","Asbestos  abatement","CURTIS HS - STATEN ISLAND","105 HAMILTON AVENUE","73245.00","2021-06-07T00:00:00.000","STATEN IS","10301","40.644735","-74.081222","501","49","7","5106483","5000220001","West New Brighton-New Brighton-St. George"
"16OJ","M128","Asbestos  abatement","P.S. 128 - MANHATTAN","560 WEST 169 STREET","25340.00","2021-06-07T00:00:00.000","MANHATTAN","10032","40.841359","-73.938593","112","10","251","1062994","1021250001","Washington Heights South"
"188P","K272","Asbestos  abatement","P.S. 272 - BROOKLYN","101-24 SEAVIEW AVENUE","157961.00","2021-06-07T00:00:00.000","BROOKLYN","11236","40.635916","-73.886412","318","46","1034","3235262","3083290250","Canarsie"
"16Q1","K194","Asbestos  abatement","P.S. 194 - BROOKLYN","3117 AVENUE W","146553.00","2021-06-07T00:00:00.000","BROOKLYN","11229","40.596757","-73.933499","315","46","570","3201629","3073930001","Sheepshead Bay-Gerritsen Beach-Manhattan Beach"
"16Q6","R008","Asbestos  abatement","P.S. 8 - STATEN ISLAND","112 LINDENWOOD ROAD","24872.00","2021-06-07T00:00:00.000","STATEN IS","10308","40.547692","-74.151755","503","51","15601","5066295","5052210001","Great Kills"
"16OM","K277","Asbestos  abatement","P.S. 277 - BROOKLYN","2529 GERRITSEN AVENUE","89198.00","2021-06-07T00:00:00.000","BROOKLYN","11229","40.596145","-73.928793","318","46","666","3242369","3085900650","park-cemetery-etc-Brooklyn"
"16Q7","K128","Asbestos  abatement","P.S. 128 - BROOKLYN","2075 84 STREET","29671.00","2021-06-07T00:00:00.000","BROOKLYN","11214","40.604871","-73.995545","311","47","288","3165232","3063290032","Bensonhurst West"
"16QE","Q054","Asbestos  abatement","P.S. 54 - QUEENS","86-02 127 STREET","74021.00","2021-06-07T00:00:00.000","QUEENS","11418","40.70292","-73.824221","409","29","14201","4193916","4092800001","Richmond Hill"
"17PR","K268","Asbestos  abatement","P.S. 268 - BROOKLYN","133 EAST 53 STREET","144526.00","2021-06-07T00:00:00.000","BROOKLYN","11203","40.657131","-73.928018","317","41","866","3100292","3046230028","Rugby-Remsen Village"
"16QC","X153","Asbestos  abatement","P.S. 153 - BRONX","650 BAYCHESTER AVENUE","186098.00","2021-06-07T00:00:00.000","BRONX","10475","40.872614","-73.833698","210","12","46201","2097470","2051410150","Co-op City"
"16PK","K435","Asbestos  abatement","PERFORMING ARTS AND TECH. HS -","400 PENNSYLVANIA AVENUE","92215.00","2021-06-07T00:00:00.000","BROOKLYN","11207","40.667456","-73.894747","305","42","1156","3084440","3037880001","East New York (Pennsylvania Ave)"
"16P0","K218","Asbestos  abatement","I.S. 218 - BROOKLYN","370 FOUNTAIN AVENUE","16404.00","2021-06-07T00:00:00.000","BROOKLYN","11208","40.670724","-73.874208","305","42","1118","3095977","3042780001","East New York"
"16OY","Q192","Asbestos  abatement","I.S. 192 - QUEENS","109-89 204 STREET","110817.00","2021-06-07T00:00:00.000","QUEENS","11412","40.70646","-73.753579","412","27","508","4234318","4109440301","Hollis"
"16OL","K176","Asbestos  abatement","P.S. 176 - BROOKLYN","1225 69 STREET","73213.00","2021-06-07T00:00:00.000","BROOKLYN","11219","40.624611","-74.005378","310","43","196","3143190","3057740001","Dyker Heights"
"16QB","X025","Asbestos  abatement","P.S. 25 - BRONX","811 EAST 149 STREET","142956.00","2021-06-07T00:00:00.000","BRONX","10455","40.812619","-73.906063","201","8","79","2004772","2026640001","Melrose South-Mott Haven North"
"16P5","Q009","Asbestos  abatement","Q009 SPED - QUEENS","58-74 57 STREET","237547.00","2021-06-07T00:00:00.000","QUEENS","11378","40.718935","-73.912208","405","30","535","4059130","4026310106","Maspeth"
"16PJ","Q061","Asbestos  abatement","I.S. 61 - QUEENS","98-50 50 AVENUE","141807.00","2021-06-07T00:00:00.000","QUEENS","11368","40.742668","-73.863307","404","21","44302","4046834","4018910032","Corona"
"16P3","Q008","Asbestos  abatement","J.H.S. 8 - QUEENS","108-35 167 STREET","260799.00","2021-06-07T00:00:00.000","QUEENS","11433","40.69719","-73.787192","412","27","258","4216655","4101780001","South Jamaica"
"16RH","Q152","Asbestos  abatement","P.S. 152 - QUEENS","33-52 62 STREET","44775.00","2021-06-07T00:00:00.000","QUEENS","11377","40.753037","-73.900123","402","26","293","4027102","4011840014","Woodside"
"16RR","X435","Asbestos  abatement","FORDHAM HS FOR THE ARTS - BRON","500 EAST FORDHAM ROAD","18283.00","2021-06-07T00:00:00.000","BRONX","10458","40.860043","-73.888267","206","15","387","2011810","2030590001","Belmont"
"16RG","K150","Asbestos  abatement","P.S. 150 - BROOKLYN","364 SACKMAN STREET","49050.00","2021-06-07T00:00:00.000","BROOKLYN","11212","40.66896","-73.904726","316","41","908","3084012","3037440009","Brownsville"
"16R9","Q053","Asbestos  abatement","I.S. 53 - QUEENS","10-45 NAMEOKE STREET","59056.00","2021-06-07T00:00:00.000","QUEENS","11691","40.603622","-73.749097","414","31","103202","4298234","4155570025","Far Rockaway-Bayswater"
"17KP","Q085","Asbestos  abatement","P.S. 85 - QUEENS","23-70 31 STREET","21206.00","2021-06-07T00:00:00.000","QUEENS","11105","40.772863","-73.914708","401","22","115","4017485","4008420031","Steinway"
"17OR","Q134","Asbestos  abatement","P.S. 134 - QUEENS","203-02 109TH AVENUE","195041.00","2021-06-07T00:00:00.000","QUEENS","11412","40.70799","-73.755269","412","27","508","4440330","4109060001","Hollis"
"17KX","M475","Indoor Building Improvement - Conversion of Administrative Space into Classrooms","HS FOR HEALTH PROF & HUMAN SER","345 EAST 15 STREET","765161.00","2021-06-07T00:00:00.000","MANHATTAN","10003","40.732447","-73.983031","106","2","48","1020419","1009220008","Gramercy"
"18PO","Q084","Asbestos  abatement","P.S. 84 - QUEENS","22-45 41 STREET","39839.00","2021-06-07T00:00:00.000","QUEENS","11105","40.771512","-73.90633","401","22","119","4015334","4007940017","Steinway"
"18PR","Q084","Asbestos  abatement","P.S. 84 - QUEENS","22-45 41 STREET","37764.00","2021-06-07T00:00:00.000","QUEENS","11105","40.771512","-73.90633","401","22","119","4015334","4007940017","Steinway"
"16OO","X033","Asbestos  abatement","P.S. 33 - BRONX","2424 JEROME AVENUE","106559.00","2021-06-07T00:00:00.000","BRONX","10468","40.86185","-73.90176","205","14","239","2014099","2031880020","Fordham South"
"16PU","M117","Asbestos  abatement","I.S. 12 - MANHATTAN","240 EAST 109 STREET","83799.00","2021-06-07T00:00:00.000","MANHATTAN","10029","40.79307","-73.942303","111","8","170","1052433","1016560100","East Harlem South"
"18OH","X130","Asbestos  abatement","P.S. 130 - BRONX","750 PROSPECT AVENUE","29998.00","2021-06-07T00:00:00.000","BRONX","10455","40.817721","-73.902421","202","17","85","2005168","2026880001","Longwood"
"18OY","K050","Asbestos  abatement","J.H.S. 50 - BROOKLYN","183 SOUTH 3 STREET","13850.00","2021-06-07T00:00:00.000","BROOKLYN","11211","40.711704","-73.960275","301","34","523","3063128","3024190001","North Side-South Side"
"18O5","K033","Asbestos  abatement","K368 SPED - BROOKLYN","70 TOMPKINS AVENUE","65359.00","2021-06-07T00:00:00.000","BROOKLYN","11206","40.697152","-73.946641","303","36","257","3048517","3017430018","Bedford"
"18O4","Q018","Asbestos  abatement","P.S. 18 - QUEENS","86-35 235 COURT","90859.00","2021-06-07T00:00:00.000","QUEENS","11427","40.732112","-73.73246","413","23","1621","4166561","4079550002","Bellerose"
"18O6","K270","Asbestos  abatement","P.S. 270 - BROOKLYN","241 EMERSON PLACE","20759.00","2021-06-07T00:00:00.000","BROOKLYN","11205","40.690202","-73.961478","302","35","193","3055378","3019330102","Clinton Hill"
"18NZ","M166","Asbestos  abatement","P.S. 166 - MANHATTAN","132 WEST 89 STREET","69236.00","2021-06-07T00:00:00.000","MANHATTAN","10024","40.788865","-73.971847","107","6","173","1032308","1012190047","Upper West Side"
"18NL","Q440","Asbestos  abatement","FOREST HILLS HS - QUEENS","67-01 110 STREET","56804.00","2021-06-07T00:00:00.000","QUEENS","11375","40.729402","-73.845637","406","29","747","4052143","4021890002","Forest Hills"
"18O1","M042","Asbestos  abatement","P.S. 42 - MANHATTAN","71 HESTER STREET","31139.00","2021-06-07T00:00:00.000","MANHATTAN","10002","40.715905","-73.990895","103","1","16","1003998","1003090001","Chinatown"
"18OW","M092","Asbestos  abatement","P.S. 92 - MANHATTAN","222 WEST 134 STREET","35430.00","2021-06-07T00:00:00.000","MANHATTAN","10030","40.815016","-73.945123","110","9","226","1058808","1019390011","Central Harlem North-Polo Grounds"
"18P4","Q196","Asbestos  abatement","P.S. 196 - QUEENS","71-25 113 STREET","106103.00","2021-06-07T00:00:00.000","QUEENS","11375","40.722782","-73.837946","406","29","75702","4052713","4022480100","Forest Hills"
"18PM","X022","Asbestos  abatement","I.S. 22 - BRONX","270 EAST 167 STREET","16973.00","2021-06-07T00:00:00.000","BRONX","10456","40.833131","-73.914027","204","16","175","2002410","2024380050","East Concourse-Concourse Village"
"16ON","X101","Asbestos  abatement","P.S. 304 - BRONX","2750 LAFAYETTE AVENUE","167800.00","2021-06-07T00:00:00.000","BRONX","10465","40.827471","-73.829753","210","13","152","2080231","2055470001","Schuylerville-Throgs Neck-Edgewater Park"
"16OH","M342","Emergency Stabilization","THE RIVERSIDE SCHOOL FOR MAKER","300 WEST 61ST STREET","119823.00","2021-06-07T00:00:00.000","MANHATTAN","10023","40.772883","-73.989609","107","6","151","1088870","1011717510","Lincoln Square"
"17KK","K102","Asbestos  abatement","P.S. 102 - BROOKLYN","211 72 STREET","49540.00","2021-06-07T00:00:00.000","BROOKLYN","11209","40.63402","-74.029036","310","43","68","3146491","3058900001","Bay Ridge"
"17NB","M028","Asbestos  abatement","P.S. 28 - MANHATTAN","475 WEST 155 STREET","87782.00","2021-06-07T00:00:00.000","MANHATTAN","10032","40.831227","-73.942143","112","7","239","1076739","1021070026","Washington Heights South"
"16PB","Q160","Asbestos  abatement","P.S. 160 - QUEENS","109-59 INWOOD STREET","84687.00","2021-06-07T00:00:00.000","QUEENS","11435","40.688103","-73.800415","412","28","196","4258143","4119420302","South Jamaica"
"16RU","M007","Asbestos  abatement","P.S. 7 - MANHATTAN","160 EAST 120 STREET","79359.00","2021-06-07T00:00:00.000","MANHATTAN","10035","40.801007","-73.939349","111","8","196","1083501","1017680021","East Harlem North"
"16RL","M042","Asbestos  abatement","P.S. 42 - MANHATTAN","71 HESTER STREET","63130.00","2021-06-07T00:00:00.000","MANHATTAN","10002","40.715905","-73.990895","103","1","16","1003998","1003090001","Chinatown"
"16RK","Q149","Asbestos  abatement","P.S. 149 - QUEENS","93-11 34TH AVENUE","215382.00","2021-06-07T00:00:00.000","QUEENS","11372","40.754837","-73.874605","403","25","273","4035441","4014410015","Jackson Heights"
"16PF","M117","Asbestos  abatement","I.S. 12 - MANHATTAN","240 EAST 109 STREET","59483.00","2021-06-07T00:00:00.000","MANHATTAN","10029","40.79307","-73.942303","111","8","170","1052433","1016560100","East Harlem South"
"16RE","X167","Asbestos  abatement","P.S. 214 - BRONX","1970 WEST FARMS ROAD","27466.00","2021-06-07T00:00:00.000","BRONX","10460","40.839565","-73.880358","206","17","60","2094603","2030210038","Crotona Park East"
"16PC","Q054","Asbestos  abatement","P.S. 54 - QUEENS","86-02 127 STREET","89803.00","2021-06-07T00:00:00.000","QUEENS","11418","40.70292","-73.824221","409","29","14201","4193916","4092800001","Richmond Hill"
"16P6","Q119","Asbestos  abatement","I.S. 119 - QUEENS","74-01 78 AVENUE","61140.00","2021-06-07T00:00:00.000","QUEENS","11385","40.704406","-73.875183","405","30","63301","4092660","4038120020","Glendale"
"16OT","X405","Asbestos  abatement","HERBERT H. LEHMAN HS - X","3000 EAST TREMONT AVENUE","205513.00","2021-06-07T00:00:00.000","BRONX","10461","40.840702","-73.838545","210","13","194","2074045","2053680001","Schuylerville-Throgs Neck-Edgewater Park"
"16OU","K176","Asbestos  abatement","P.S. 176 - BROOKLYN","1225 69 STREET","54515.00","2021-06-07T00:00:00.000","BROOKLYN","11219","40.624611","-74.005378","310","43","196","3143190","3057740001","Dyker Heights"
"16OQ","K057","Asbestos  abatement","WHITELAW REID ACADEMY OF ARTS","125 STUYVESANT AVENUE","25223.00","2021-06-07T00:00:00.000","BROOKLYN","11221","40.691274","-73.933697","303","36","291","3043822","3016160001","Stuyvesant Heights"
"16R5","K099","Asbestos  abatement","P.S. 99 - BROOKLYN","1120 EAST 10 STREET","67940.00","2021-06-07T00:00:00.000","BROOKLYN","11230","40.621565","-73.965595","312","44","454","3171478","3065350011","Ocean Parkway South"
"16RQ","K149","Asbestos  abatement","P.S. 149 - BROOKLYN","700 SUTTER AVENUE","16360.00","2021-06-07T00:00:00.000","BROOKLYN","11207","40.669719","-73.892822","305","42","1158","3084348","3037740016","East New York (Pennsylvania Ave)"
"16QQ","K027","Asbestos  abatement","RED HOOK NEIGHBORHOOD SCHOOL","27 HUNTINGTON STREET","33376.00","2021-06-07T00:00:00.000","BROOKLYN","11231","40.677564","-74.005166","306","38","59","3008342","3005250001","Carroll Gardens-Columbia Street-Red Hook"
"16QJ","K009","Asbestos  abatement","PUBLIC SCHOOL 9 THE SARAH SMIT","80 UNDERHILL AVENUE","79795.00","2021-06-07T00:00:00.000","BROOKLYN","11238","40.678297","-73.965541","308","35","205","3028204","3011450026","Prospect Heights"
"16QF","M199","Asbestos  abatement","P.S. 199 - MANHATTAN","270 WEST 70 STREET","28176.00","2021-06-07T00:00:00.000","MANHATTAN","10023","40.778059","-73.984449","107","6","155","1030351","1011580040","Lincoln Square"
"18O7","K104","Asbestos  abatement","P.S. 104 - BROOKLYN","9115 5TH AVENUE","45970.00","2021-06-07T00:00:00.000","BROOKLYN","11209","40.618415","-74.028842","310","43","160","3154775","3060880001","Bay Ridge"
"16QI","K425","Asbestos  abatement","JAMES MADISON HS - BROOKLYN","3787 BEDFORD AVENUE","38413.00","2021-06-07T00:00:00.000","BROOKLYN","11229","40.609912","-73.948512","315","48","642","3182721","3067880001","Madison"
"16OK","M855","Emergency Stabilization","ELEANOR ROOSEVELT HS - MANHATT","411 EAST 76 STREET","24455.00","2021-06-07T00:00:00.000","MANHATTAN","10021","40.770187","-73.953608","108","5","132","1045949","1014710005","Lenox Hill-Roosevelt Island"
"18JA","Q115","Asbestos  abatement","P.S. 115 - QUEENS","80-51 261 STREET","198071.00","2021-06-07T00:00:00.000","QUEENS","11004","40.744099","-73.709845","413","23","157902","4178127","4087170001","Glen Oaks-Floral Park-New Hyde Park"
"16PX","M187","Asbestos  abatement","P.S. 187 - MANHATTAN","349 CABRINI BLVD","22050.00","2021-06-07T00:00:00.000","MANHATTAN","10040","40.856693","-73.937093","112","10","273","1064371","1021790365","Washington Heights North"
"18JC","X100","Asbestos  abatement","P.S. 100 - BRONX","800 TAYLOR AVENUE","173662.00","2021-06-07T00:00:00.000","BRONX","10473","40.821409","-73.862976","209","18","42","2022550","2036410001","Soundview-Castle Hill-Clason Point-Harding Park"
"18O8","K127","Asbestos  abatement","P.S. 127 - BROOKLYN","7805 7 AVENUE","55997.00","2021-06-07T00:00:00.000","BROOKLYN","11228","40.624132","-74.018826","310","43","206","3150481","3059730001","Dyker Heights"
"18D7","Q014","Asbestos  abatement","P.S. 14 - QUEENS","107-01 OTIS AVENUE","22824.00","2021-06-07T00:00:00.000","QUEENS","11368","40.74056","-73.854131","404","21","439","4437311","4019540037","Corona"
"18DB","X120","Asbestos  abatement","I.S. 301 - BRONX","890 CAULDWELL AVENUE","18236.00","2021-06-07T00:00:00.000","BRONX","10456","40.822474","-73.907194","203","16","185","2004496","2026310048","Morrisania-Melrose"
"18D3","Q420","Asbestos  abatement","G. WASHINGTON CARVER HS FOR SC","143-10 SPRINGFIELD BOULEVARD","26458.00","2021-06-07T00:00:00.000","QUEENS","11413","40.668235","-73.756839","412","31","330","4280845","4130570056","Springfield Gardens North"
"18CO","Q811","Asbestos  abatement","Q811 SPED - QUEENS","61-25 MARATHON PARKWAY","13420.00","2021-06-07T00:00:00.000","QUEENS","11362","40.756778","-73.729487","411","23","152902","4173060","4083610001","Douglas Manor-Douglaston-Little Neck"
"18CV","K128","Asbestos  abatement","P.S. 128 - BROOKLYN","2075 84 STREET","35566.00","2021-06-07T00:00:00.000","BROOKLYN","11214","40.604871","-73.995545","311","47","288","3165232","3063290032","Bensonhurst West"
"18D6","Q138","Asbestos  abatement","P.S. 138 - QUEENS","251-11 WELLER AVENUE","18441.00","2021-06-07T00:00:00.000","QUEENS","11422","40.659728","-73.735176","413","31","660","4288640","4135780001","Rosedale"
"18CL","M118","Asbestos  abatement","P.S. 333 - MANHATTAN","154 WEST 93 STREET","17278.00","2021-06-07T00:00:00.000","MANHATTAN","10025","40.791709","-73.970802","107","6","177","1032522","1012230005","Upper West Side"
"188X","K186","Asbestos  abatement","P.S. 186 - BROOKLYN","7601 19 AVENUE","57861.00","2021-06-07T00:00:00.000","BROOKLYN","11214","40.611483","-73.994677","311","47","274","3160923","3062390001","Bensonhurst West"
"18CM","Q229","Asbestos  abatement","P.S. 229 - QUEENS","67-25 51 ROAD","18334.00","2021-06-07T00:00:00.000","QUEENS","11377","40.734294","-73.897557","405","30","513","4440274","4024230001","Maspeth"
"188N","X192","Asbestos  abatement","I.S. 371 - BRONX","650 HOLLYWOOD AVENUE","53257.00","2021-06-07T00:00:00.000","BRONX","10465","40.826526","-73.818417","210","13","158","2077130","2054380001","Schuylerville-Throgs Neck-Edgewater Park"
"1879","X008","Asbestos  abatement","P.S. 8 - BRONX","3010 BRIGGS AVENUE","67883.00","2021-06-07T00:00:00.000","BRONX","10458","40.872612","-73.883574","207","11","415","2094734","2032990060","Bedford Park-Fordham North"
"188O","Q192","Asbestos  abatement","I.S. 192 - QUEENS","109-89 204 STREET","54830.00","2021-06-07T00:00:00.000","QUEENS","11412","40.70646","-73.753579","412","27","508","4234318","4109440301","Hollis"
"18CN","Q008","Asbestos  abatement","J.H.S. 8 - QUEENS","108-35 167 STREET","15341.00","2021-06-07T00:00:00.000","QUEENS","11433","40.69719","-73.787192","412","27","258","4216655","4101780001","South Jamaica"
"18O9","X061","Asbestos  abatement","P.S. 61 - BRONX","1550 CROTONA PARK EAST","54960.00","2021-06-07T00:00:00.000","BRONX","10460","40.836575","-73.892817","203","17","153","2009865","2029390045","Crotona Park East"
"17OV","K176","Asbestos  abatement","P.S. 176 - BROOKLYN","1225 69 STREET","38202.00","2021-06-07T00:00:00.000","BROOKLYN","11219","40.624611","-74.005378","310","43","196","3143190","3057740001","Dyker Heights"
"184I","X069","Asbestos  abatement","P.S. 69 - BRONX","560 THIERIOT AVENUE","31046.00","2021-06-07T00:00:00.000","BRONX","10473","40.816693","-73.860904","209","18","16","2021482","2035240020","Soundview-Castle Hill-Clason Point-Harding Park"
"184C","Q018","Asbestos  abatement","P.S. 18 - QUEENS","86-35 235 COURT","31922.00","2021-06-07T00:00:00.000","QUEENS","11427","40.732112","-73.73246","413","23","1621","4166561","4079550002","Bellerose"
"184J","K293","Asbestos  abatement","DIGITAL ARTS AND CINEMA TECHNO","284 BALTIC STREET","18005.00","2021-06-07T00:00:00.000","BROOKLYN","11201","40.685419","-73.993351","306","33","69","3006401","3004020001","DUMBO-Vinegar Hill-Downtown Brooklyn-Boerum Hill"
"1847","K104","Asbestos  abatement","P.S. 104 - BROOKLYN","9115 5TH AVENUE","88200.00","2021-06-07T00:00:00.000","BROOKLYN","11209","40.618415","-74.028842","310","43","160","3154775","3060880001","Bay Ridge"
"17UH","K580","Asbestos  abatement","GEORGE WESTINGHOUSE VOC. HS","105 JOHNSON STREET","26016.00","2021-06-07T00:00:00.000","BROOKLYN","11201","40.694926","-73.986015","302","33","13","3348041","3001310001","DUMBO-Vinegar Hill-Downtown Brooklyn-Boerum Hill"
"1848","R050","Asbestos  abatement","P.S. 50 - STATEN ISLAND","200 ADELAIDE AVENUE","15594.00","2021-06-07T00:00:00.000","STATEN IS","10306","40.561691","-74.124622","503","50","13204","5063495","5047160060","Oakwood-Oakwood Beach"
"185X","R026","Asbestos  abatement","P.S. 26 - STATEN ISLAND","4108 VICTORY BOULEVARD","24106.00","2021-06-07T00:00:00.000","STATEN IS","10314","40.591702","-74.190648","502","50","29102","5107386","5026340001","New Springville-Bloomfield-Travis"
"17UA","K128","Asbestos  abatement","P.S. 128 - BROOKLYN","2075 84 STREET","44167.00","2021-06-07T00:00:00.000","BROOKLYN","11214","40.604871","-73.995545","311","47","288","3165232","3063290032","Bensonhurst West"
"17U1","K169","Asbestos  abatement","P.S. 169 - BROOKLYN","4305 7TH AVENUE","23565.00","2021-06-07T00:00:00.000","BROOKLYN","11232","40.64629","-74.001903","307","38","92","3011002","3007320001","Sunset Park East"
"17UB","Q124","Asbestos  abatement","P.S. 124 - QUEENS","129-15 150 AVENUE","15860.00","2021-06-07T00:00:00.000","QUEENS","11420","40.665058","-73.811701","410","28","84602","4257530","4118820001","South Ozone Park"
"17TO","K804","Asbestos  abatement","COBBLE  HILL SCHL OF AMER. STU","347 BALTIC STREET","21118.00","2021-06-07T00:00:00.000","BROOKLYN","11201","40.684524","-73.990993","306","33","69","3006356","3003970011","DUMBO-Vinegar Hill-Downtown Brooklyn-Boerum Hill"
"17TE","Q158","Asbestos  abatement","J.H.S. 158 - QUEENS","46-35 OCEANIA STREET","18982.00","2021-06-07T00:00:00.000","QUEENS","11361","40.756139","-73.772862","411","19","1447","4438325","4073120001","Bayside-Bayside Hills"
"17UC","Q216","Asbestos  abatement","J.H.S. 216 - QUEENS","64-20 175 STREET","12144.00","2021-06-07T00:00:00.000","QUEENS","11365","40.737517","-73.794031","408","24","1341","4149078","4069030001","Fresh Meadows-Utopia"
"1860","Q219","Asbestos  abatement","P.S. 219 - QUEENS","144-39 GRAVETT ROAD","12166.00","2021-06-07T00:00:00.000","QUEENS","11367","40.735275","-73.823778","408","24","809","4448708","4065070001","Kew Gardens Hills"
"18P5","M661","Asbestos  abatement","MNHT COMPR. NIGHT & DAY HS - M","240 2ND AVENUE","89040.00","2021-06-07T00:00:00.000","MANHATTAN","10003","40.732716","-73.984665","106","2","48","1020416","1009210064","Gramercy"
"17T4","Q188","Asbestos  abatement","P.S. 188 - QUEENS","218-12 HARTLAND AVENUE","19090.00","2021-06-07T00:00:00.000","QUEENS","11364","40.736177","-73.753159","411","23","129104","4164350","4077740165","Oakland Gardens"
"17RU","K848","Asbestos  abatement","P.S. 149 - BROOKLYN","373 PENNSYLVANIA AVENUE","76321.00","2021-06-07T00:00:00.000","BROOKLYN","11207","40.668362","-73.894954","305","42","1156","3084298","3037720006","East New York (Pennsylvania Ave)"
"17T5","K176","Asbestos  abatement","P.S. 176 - BROOKLYN","1225 69 STREET","39566.00","2021-06-07T00:00:00.000","BROOKLYN","11219","40.624611","-74.005378","310","43","196","3143190","3057740001","Dyker Heights"
"17RP","K127","Asbestos  abatement","P.S. 127 - BROOKLYN","7805 7 AVENUE","38259.00","2021-06-07T00:00:00.000","BROOKLYN","11228","40.624132","-74.018826","310","43","206","3150481","3059730001","Dyker Heights"
"17RL","K138","Asbestos  abatement","P.S. 138 - BROOKLYN","760 PROSPECT PLACE","30162.00","2021-06-07T00:00:00.000","BROOKLYN","11216","40.67438","-73.951443","308","36","31701","3330794","3012330026","Crown Heights North"
"17RQ","Q114","Asbestos  abatement","P.S. 114 - QUEENS","134-01 CRONSTON AVE","61603.00","2021-06-07T00:00:00.000","QUEENS","11694","40.578261","-73.854403","414","32","928","4305615","4162570001","Breezy Point-Belle Harbor-Rockaway Park-Broad Channel"
"17T7","M116","Asbestos  abatement","P.S. 116 - MANHATTAN","210 EAST 33 STREET","153982.00","2021-06-07T00:00:00.000","MANHATTAN","10016","40.744838","-73.978116","106","2","70","1020080","1009130007","Murray Hill-Kips Bay"
"17RG","Q054","Asbestos  abatement","P.S. 54 - QUEENS","86-02 127 STREET","15802.00","2021-06-07T00:00:00.000","QUEENS","11418","40.70292","-73.824221","409","29","14201","4193916","4092800001","Richmond Hill"
"17RB","K515","Asbestos  abatement","BROOKLYN COMMUNITY HIGH SCHOOL","6565 FLATLANDS AVENUE","119315.00","2021-06-07T00:00:00.000","BROOKLYN","11236","40.633285","-73.916735","318","46","950","3224139","3079980005","Canarsie"
"17RJ","K117","Asbestos  abatement","BROOKLYN COMMUNITY ARTS & MEDI","300 WILLOUGHBY AVENUE","37729.00","2021-06-07T00:00:00.000","BROOKLYN","11205","40.692642","-73.958794","303","33","235","3055165","3019260010","Clinton Hill"
"17RK","M166","Asbestos  abatement","P.S. 166 - MANHATTAN","132 WEST 89 STREET","91191.00","2021-06-07T00:00:00.000","MANHATTAN","10024","40.788865","-73.971847","107","6","173","1032308","1012190047","Upper West Side"
"16PV","M087","Asbestos  abatement","P.S. 87 - MANHATTAN","160 WEST 78 STREET","125418.00","2021-06-07T00:00:00.000","MANHATTAN","10024","40.781958","-73.977638","107","6","161","1030196","1011490007","Upper West Side"
"17R5","K312","Asbestos  abatement","P.S. 312 - BROOKLYN","7103 AVENUE T","39885.00","2021-06-07T00:00:00.000","BROOKLYN","11234","40.621413","-73.908987","318","46","69602","3236665","3083930001","Georgetown-Marine Park-Bergen Beach-Mill Basin"
"17T9","X047","Asbestos  abatement","P.S. 47 - BRONX","1794 EAST 172 STREET","20891.00","2021-06-07T00:00:00.000","BRONX","10472","40.832902","-73.866848","209","18","76","2025622","2037860016","West Farms-Bronx River"
"1861","K016","Asbestos  abatement","P.S. 16 - BROOKLYN","157 WILSON STREET","39720.00","2021-06-07T00:00:00.000","BROOKLYN","11211","40.706023","-73.961476","301","33","535","3059906","3021770001","Williamsburg"
"18OA","K025","Asbestos  abatement","P.S. 25 - BROOKLYN","787 LAFAYETTE AVENUE","24597.00","2021-06-07T00:00:00.000","BROOKLYN","11221","40.691037","-73.941342","303","36","281","3049858","3017870014","Stuyvesant Heights"
"17OX","R032","Asbestos  abatement","P.S. 32 - STATEN ISLAND","232 BARLOW AVENUE","239086.00","2021-06-07T00:00:00.000","STATEN IS","10308","40.558966","-74.155517","503","51","14608","5070651","5054440012","Great Kills"
"16IF","Q018","Asbestos  abatement","P.S. 18 - QUEENS","86-35 235 COURT","15344.00","2021-06-07T00:00:00.000","QUEENS","11427","40.732112","-73.73246","413","23","1621","4166561","4079550002","Bellerose"
"17QL","K145","Asbestos  abatement","P.S. 145 - BROOKLYN","100 NOLL STREET","73116.00","2021-06-07T00:00:00.000","BROOKLYN","11206","40.701621","-73.93241","304","34","425","3071915","3031530011","Bushwick South"
"17QN","Q053","Asbestos  abatement","I.S. 53 - QUEENS","10-45 NAMEOKE STREET","27106.00","2021-06-07T00:00:00.000","QUEENS","11691","40.603622","-73.749097","414","31","103202","4298234","4155570025","Far Rockaway-Bayswater"
"16KY","K540","Asbestos  abatement","JOHN DEWEY HS - BROOKLYN","50 AVENUE X","70159.00","2021-06-07T00:00:00.000","BROOKLYN","11223","40.589268","-73.981738","313","47","308","3194998","3071850020","Gravesend"
"16IH","Q124","Asbestos  abatement","P.S. 124 - QUEENS","129-15 150 AVENUE","12682.00","2021-06-07T00:00:00.000","QUEENS","11420","40.665058","-73.811701","410","28","84602","4257530","4118820001","South Ozone Park"
"16L2","K068","Asbestos  abatement","I.S. 68 - BROOKLYN","956 EAST 82 STREET","109011.00","2021-06-07T00:00:00.000","BROOKLYN","11236","40.635553","-73.91079","318","46","956","3224947","3080180001","Canarsie"
"16KZ","Q072","Asbestos  abatement","J.H.S. 72 - QUEENS","133-25 GUY R BREWER BOULEVARD","455927.00","2021-06-07T00:00:00.000","QUEENS","11434","40.673769","-73.775951","412","28","33402","4270059","4124950270","Springfield Gardens North"
"16IV","M460","Building System Improvement - Reconstruction of Electrical Systems","GRAMERCY ARTS HS - MANHATTAN","40 IRVING PLACE","521678.00","2021-06-07T00:00:00.000","MANHATTAN","10003","40.735494","-73.987659","106","2","50","1017828","1008720057","Gramercy"
"16IO","X143","Asbestos  abatement","I.S. 244 - BRONX","120 WEST 231 STREET","21918.00","2021-06-07T00:00:00.000","BRONX","10463","40.875916","-73.90111","208","14","273","2015547","2032530141","Van Cortlandt Village"
"16J9","R455","Asbestos  abatement","TOTTENVILLE HS - STATEN ISLAND","100 LUTEN AVENUE","70656.00","2021-06-07T00:00:00.000","STATEN IS","10312","40.528092","-74.192032","503","51","198","5082634","5066130001","Annadale-Huguenot-Prince's Bay-Eltingville"
"16IR","Q225","Asbestos  abatement","P.S. 317 - QUEENS","1-90 BEACH 110 STREET","38409.00","2021-06-07T00:00:00.000","QUEENS","11694","40.580928","-73.831836","414","32","938","4303853","4161810001","Breezy Point-Belle Harbor-Rockaway Park-Broad Channel"
"16HO","Q052","Asbestos  abatement","P.S. 52 - QUEENS","178-37 146 TERRACE","11010.00","2021-06-07T00:00:00.000","QUEENS","11434","40.661122","-73.766733","413","31","320","4285972","4133530020","Springfield Gardens South-Brookville"
"16J8","M460","Asbestos  abatement","GRAMERCY ARTS HS - MANHATTAN","40 IRVING PLACE","44884.00","2021-06-07T00:00:00.000","MANHATTAN","10003","40.735494","-73.987659","106","2","50","1017828","1008720057","Gramercy"
"17PJ","K176","Asbestos  abatement","P.S. 176 - BROOKLYN","1225 69 STREET","61135.00","2021-06-07T00:00:00.000","BROOKLYN","11219","40.624611","-74.005378","310","43","196","3143190","3057740001","Dyker Heights"
"17QB","M140","Asbestos  abatement","P.S. 140 - MANHATTAN","123 RIDGE STREET","61043.00","2021-06-07T00:00:00.000","MANHATTAN","10002","40.71925","-73.983056","103","1","2201","1004091","1003440001","Lower East Side"
"17Q5","Q280","Asbestos  abatement","P.S. 280 - QUEENS","34-20 94TH STREET","28809.00","2021-06-07T00:00:00.000","QUEENS","11372","40.754241","-73.873769","403","25","273","4541605","4014540018","Jackson Heights"
"17QC","K201","Asbestos  abatement","I.S. 201 - BROOKLYN","8010 12 AVENUE","25413.00","2021-06-07T00:00:00.000","BROOKLYN","11228","40.618676","-74.012722","310","43","166","3162973","3062780022","Dyker Heights"
"17QD","K176","Asbestos  abatement","P.S. 176 - BROOKLYN","1225 69 STREET","59426.00","2021-06-07T00:00:00.000","BROOKLYN","11219","40.624611","-74.005378","310","43","196","3143190","3057740001","Dyker Heights"
"17QF","K420","Asbestos  abatement","CYPRESS HILLS COLLEGIATE - K","999 JAMAICA AVENUE","20963.00","2021-06-07T00:00:00.000","BROOKLYN","11208","40.691146","-73.868328","305","37","1180","3090738","3040940001","park-cemetery-etc-Brooklyn"
"17QT","Q014","Asbestos  abatement","P.S. 14 - QUEENS","107-01 OTIS AVENUE","31923.00","2021-06-07T00:00:00.000","QUEENS","11368","40.74056","-73.854131","404","21","439","4437311","4019540037","Corona"
"16I9","Q205","Asbestos  abatement","P.S. 205 - QUEENS","75-25 BELL BLVD","44397.00","2021-06-07T00:00:00.000","QUEENS","11364","40.737678","-73.756791","411","23","129103","4164007","4077530001","Oakland Gardens"
"17PH","X061","Asbestos  abatement","P.S. 61 - BRONX","1550 CROTONA PARK EAST","45046.00","2021-06-07T00:00:00.000","BRONX","10460","40.836575","-73.892817","203","17","153","2009865","2029390045","Crotona Park East"
"16HZ","X039","Asbestos  abatement","LONGWOOD PREPARATORY ACADEMY","965 LONGWOOD AVENUE","111364.00","2021-06-07T00:00:00.000","BRONX","10459","40.817512","-73.898212","202","17","87","2005616","2027100001","Longwood"
"16DP","K270","Asbestos  abatement","P.S. 270 - BROOKLYN","241 EMERSON PLACE","135828.00","2021-06-07T00:00:00.000","BROOKLYN","11205","40.690202","-73.961478","302","35","193","3055378","3019330102","Clinton Hill"
"17QI","M011","Asbestos  abatement","P.S. 11 - MANHATTAN","320 WEST 21 STREET","46788.00","2021-06-07T00:00:00.000","MANHATTAN","10011","40.744349","-74.000253","104","3","89","1013260","1007440024","Hudson Yards-Chelsea-Flatiron-Union Square"
"16H4","Q094","Asbestos  abatement","P.S. 94 - QUEENS","41-77 LITTLE NECK PKWY","27256.00","2021-06-07T00:00:00.000","QUEENS","11363","40.771186","-73.739252","411","19","1479","4169468","4081350029","Douglas Manor-Douglaston-Little Neck"
"16I3","K425","Asbestos  abatement","JAMES MADISON HS - BROOKLYN","3787 BEDFORD AVENUE","48477.00","2021-06-07T00:00:00.000","BROOKLYN","11229","40.609912","-73.948512","315","48","642","3182721","3067880001","Madison"
"16I2","X161","Asbestos  abatement","P.S. 161 - BRONX","628 TINTON AVENUE","16673.00","2021-06-07T00:00:00.000","BRONX","10455","40.814916","-73.905518","201","8","79","2004773","2026640029","Melrose South-Mott Haven North"
"17Q0","X101","Asbestos  abatement","P.S. 304 - BRONX","2750 LAFAYETTE AVENUE","39571.00","2021-06-07T00:00:00.000","BRONX","10465","40.827471","-73.829753","210","13","152","2080231","2055470001","Schuylerville-Throgs Neck-Edgewater Park"
"17PW","K153","Asbestos  abatement","P.S. 153 - BROOKLYN","1970 HOMECREST AVENUE","112282.00","2021-06-07T00:00:00.000","BROOKLYN","11229","40.601617","-73.959779","315","48","556","3196677","3072910030","Homecrest"
"16DW","X470","Asbestos  abatement","UNIVERSITY HEIGHTS HS - BRONX","701 ST ANNS AVENUE","23066.00","2021-06-07T00:00:00.000","BRONX","10455","40.81825","-73.91103","201","17","71","2001153","2023590240","Melrose South-Mott Haven North"
"16DQ","K127","Asbestos  abatement","P.S. 127 - BROOKLYN","7805 7 AVENUE","17655.00","2021-06-07T00:00:00.000","BROOKLYN","11228","40.624132","-74.018826","310","43","206","3150481","3059730001","Dyker Heights"
"16DV","K021","Asbestos  abatement","P.S. 21 - BROOKLYN","180 CHAUNCEY STREET","230822.00","2021-06-07T00:00:00.000","BROOKLYN","11233","40.680727","-73.926597","303","36","381","3047914","3016920017","Crown Heights North"
"16DR","X440","Asbestos  abatement","DEWITT CLINTON HS - X","100 W MOSHOLU PKWY S","215682.00","2021-06-07T00:00:00.000","BRONX","10468","40.882178","-73.88691","207","11","409","2095215","2032510201","Van Cortlandt Village"
"16IL","X141","Asbestos  abatement","M.S./H.S. 141 - BRONX","660 WEST 237 STREET","17390.00","2021-06-07T00:00:00.000","BRONX","10463","40.888338","-73.913486","208","11","309","2085870","2059180376","North Riverdale-Fieldston-Riverdale"
"17QU","Q849","Asbestos  abatement","I.S. 77 - QUEENS","976 SENECA AVENUE","22767.00","2021-06-07T00:00:00.000","QUEENS","11385","40.699516","-73.90214","405","34","555","4085922","4035630023","Ridgewood"
"17QP","K420","Asbestos  abatement","CYPRESS HILLS COLLEGIATE - K","999 JAMAICA AVENUE","13756.00","2021-06-07T00:00:00.000","BROOKLYN","11208","40.691146","-73.868328","305","37","1180","3090738","3040940001","park-cemetery-etc-Brooklyn"
"16IM","K162","Asbestos  abatement","I.S. 162 - BROOKLYN","1390 WILLOUGHBY AVENUE","63254.00","2021-06-07T00:00:00.000","BROOKLYN","11237","40.707229","-73.919805","304","34","445","3073018","3032120001","Bushwick North"
"17Q3","Q088","Asbestos  abatement","P.S. 88 - QUEENS","60-85 CATALPA AVENUE","140950.00","2021-06-07T00:00:00.000","QUEENS","11385","40.703779","-73.896374","405","30","585","4085173","4035340012","Ridgewood"
"17Q9","K236","Asbestos  abatement","P.S. 236 - BROOKLYN","6302 AVENUE U","93152.00","2021-06-07T00:00:00.000","BROOKLYN","11234","40.615998","-73.912989","318","46","698","3326821","3084640001","Georgetown-Marine Park-Bergen Beach-Mill Basin"
"16IG","X079","Asbestos  abatement","I.S. 447 - BRONX","125 EAST 181 STREET","18970.00","2021-06-07T00:00:00.000","BRONX","10453","40.854872","-73.903458","205","14","23704","2013849","2031700001","Fordham South"
"17P8","M460","Asbestos  abatement","THE HIGH SCHOOL FOR LANGUAGE A","40 IRVING PLACE","139900.00","2021-06-07T00:00:00.000","MANHATTAN","10003","40.735494","-73.987659","106","2","50","1017828","1008720057","Gramercy"
"16HP","M083","Asbestos  abatement","P.S. 83 - MANHATTAN","219 EAST 109 STREET","43532.00","2021-06-07T00:00:00.000","MANHATTAN","10029","40.793194","-73.942548","111","8","180","1052436","1016590012","East Harlem North"
"17QO","Q849","Asbestos  abatement","I.S. 77 - QUEENS","976 SENECA AVENUE","17647.00","2021-06-07T00:00:00.000","QUEENS","11385","40.699516","-73.90214","405","34","555","4085922","4035630023","Ridgewood"
"16HK","X142","Asbestos  abatement","I.S. 529 - BRONX","3750 BAYCHESTER AVENUE","43983.00","2021-06-07T00:00:00.000","BRONX","10466","40.884953","-73.840524","212","12","484","2066190","2049350001","Eastchester-Edenwald-Baychester"
"16HX","X011","Asbestos  abatement","P.S. 11 - BRONX","1257 OGDEN AVENUE","31766.00","2021-06-07T00:00:00.000","BRONX","10452","40.839378","-73.925714","204","16","201","2003519","2025290081","Highbridge"
"16I4","K275","Asbestos  abatement","I.S. 518 - BROOKLYN","985 ROCKAWAY AVENUE","18742.00","2021-06-07T00:00:00.000","BROOKLYN","11212","40.656068","-73.907245","316","42","922","3082940","3036360007","Brownsville"
"16HY","K014","Asbestos  abatement","I.S. 14 - BROOKLYN","2424 BATCHELDER STREET","49874.00","2021-06-07T00:00:00.000","BROOKLYN","11235","40.593521","-73.937672","315","48","596","3203617","3074240001","Sheepshead Bay-Gerritsen Beach-Manhattan Beach"
"16I1","K273","Asbestos  abatement","P.S. 273 - BROOKLYN","923 JEROME STREET","12719.00","2021-06-07T00:00:00.000","BROOKLYN","11207","40.657922","-73.879354","305","42","1078","3097973","3044010001","East New York"
"17QJ","M165","Asbestos  abatement","P.S. 165 - MANHATTAN","234 WEST 109 STREET","69426.00","2021-06-07T00:00:00.000","MANHATTAN","10025","40.802917","-73.965613","107","7","195","1056676","1018800013","Morningside Heights"
"16HH","K455","Asbestos  abatement","BOYS & GIRLS HS - BROOKLYN","1700 FULTON STREET","54153.00","2021-06-07T00:00:00.000","BROOKLYN","11213","40.67944","-73.932407","303","36","271","3047996","3017010001","Crown Heights North"
"16ID","K127","Asbestos  abatement","P.S. 127 - BROOKLYN","7805 7 AVENUE","31054.00","2021-06-07T00:00:00.000","BROOKLYN","11228","40.624132","-74.018826","310","43","206","3150481","3059730001","Dyker Heights"
"16IQ","K287","Emergency Stabilization","P.S. 287 - BROOKLYN","50 NAVY STREET","489468.00","2021-06-07T00:00:00.000","BROOKLYN","11201","40.697901","-73.98054","302","35","23","3000203","3001110001","DUMBO-Vinegar Hill-Downtown Brooklyn-Boerum Hill"
"16IC","Q415","Asbestos  abatement","BENJAMIN N. CARDOZO HS - QUEEN","57-00 223 STREET","16872.00","2021-06-07T00:00:00.000","QUEENS","11364","40.752333","-73.75599","411","23","138501","4161735","4075290001","Oakland Gardens"
"16IP","Q040","Asbestos  abatement","P.S. 40 - QUEENS","109-20 UNION HALL STREET","40954.00","2021-06-07T00:00:00.000","QUEENS","11433","40.694125","-73.790675","412","28","260","4263341","4121510001","South Jamaica"
"16JY","R027","Asbestos  abatement","I.S. 27 - STATEN ISLAND","11 CLOVE LAKE PLACE","16476.00","2021-06-07T00:00:00.000","STATEN IS","10310","40.628128","-74.117062","501","49","125","5008403","5003080001","West New Brighton-New Brighton-St. George"
"17QY","K435","Asbestos  abatement","PERFORMING ARTS AND TECH. HS -","400 PENNSYLVANIA AVENUE","24871.00","2021-06-07T00:00:00.000","BROOKLYN","11207","40.667456","-73.894747","305","42","1156","3084440","3037880001","East New York (Pennsylvania Ave)"
"16IA","R020","Asbestos  abatement","P.S. 20 - STATEN ISLAND","161 PARK AVENUE","20591.00","2021-06-07T00:00:00.000","STATEN IS","10302","40.636598","-74.132919","501","49","207","5106979","5010200001","Port Richmond"
"16HF","K094","Asbestos  abatement","P.S. 94 - BROOKLYN","5010 6TH AVENUE","119514.00","2021-06-07T00:00:00.000","BROOKLYN","11220","40.64366","-74.008252","307","38","98","3332126","3007920026","Sunset Park East"
"16K8","Q101","Indoor Building Improvement - Conversion of Administrative Space into Classrooms","P.S. 101 - QUEENS","2 RUSSELL PLACE","468520.00","2021-06-07T00:00:00.000","QUEENS","11375","40.715462","-73.843974","406","29","723","4078312","4032700001","Forest Hills"
"16KT","Q185","Asbestos  abatement","J.H.S. 185 - QUEENS","147-26 25 DRIVE","57425.00","2021-06-07T00:00:00.000","QUEENS","11354","40.775253","-73.819347","407","19","1047","4108664","4048020001","Murray Hill"
"16K6","K157","Emergency Stabilization","P.S. 157 - BROOKLYN","850 KENT AVENUE","222438.00","2021-06-07T00:00:00.000","BROOKLYN","11205","40.695417","-73.959571","303","33","1237","3054671","3018970013","Bedford"
"16L0","Q707","Asbestos  abatement","R. F. KENNEDY COMM. MIDDLE/HS-","75-40 PARSONS BOULEVARD","65418.00","2021-06-07T00:00:00.000","QUEENS","11366","40.725603","-73.810697","408","24","77908","4147452","4068090056","Kew Gardens Hills"
"17Q4","R007","Asbestos  abatement","I.S. 7 - STATEN ISLAND","1270 HUGUENOT AVENUE","14040.00","2021-06-07T00:00:00.000","STATEN IS","10312","40.523757","-74.185941","503","51","198","5082345","5065440001","Annadale-Huguenot-Prince's Bay-Eltingville"
"17QA","X149","Asbestos  abatement","I.S. 221 - BRONX","360 EAST 145 STREET","20165.00","2021-06-07T00:00:00.000","BRONX","10454","40.813983","-73.920782","201","8","43","2097038","2023060054","Mott Haven-Port Morris"
"16L5","K154","Asbestos  abatement","P.S. 154 - BROOKLYN","1625 11TH AVENUE","88502.00","2021-06-07T00:00:00.000","BROOKLYN","11215","40.657472","-73.97618","307","39","171","3121871","3052570001","Windsor Terrace"
"16KX","K203","Asbestos  abatement","P.S. 203 - BROOKLYN","5101 AVENUE M","97284.00","2021-06-07T00:00:00.000","BROOKLYN","11234","40.621436","-73.925989","318","46","680","3218626","3078490001","Flatlands"
"16JZ","Q400","Indoor Building Improvement - Conversion of Administrative Space into Classrooms","Q752 SPED - QUEENS","156-10 BAISLEY BLVD","776645.00","2021-06-07T00:00:00.000","QUEENS","11434","40.675633","-73.783342","412","28","294","4265978","4122610001","Springfield Gardens North"
"16II","Q455","Asbestos  abatement","NEWTOWN HS - QUEENS","48-01 90 STREET","23516.00","2021-06-07T00:00:00.000","QUEENS","11373","40.741122","-73.874721","404","25","461","4045629","4018490001","Elmhurst"
"16KR","K210","Asbestos  abatement","I.S. 394 - BROOKLYN","188 ROCHESTER AVENUE","95320.00","2021-06-07T00:00:00.000","BROOKLYN","11213","40.672762","-73.927973","308","36","347","3036289","3013670022","Crown Heights North"
"16HA","M827","Asbestos  abatement","PATHWAYS TO GRADUATION - CITYW","500 8TH AVENUE","168058.00","2021-06-07T00:00:00.000","MANHATTAN","10018","40.752943","-73.992904","105","3","109","1014421","1007850001","Midtown-Midtown South"
"17PC","Q053","Asbestos  abatement","I.S. 53 - QUEENS","10-45 NAMEOKE STREET","603449.00","2021-06-07T00:00:00.000","QUEENS","11691","40.603622","-73.749097","414","31","103202","4298234","4155570025","Far Rockaway-Bayswater"
"16HG","K211","Asbestos  abatement","I.S. 211 - BROOKLYN","1001 EAST 100 STREET","209266.00","2021-06-07T00:00:00.000","BROOKLYN","11236","40.643278","-73.896212","318","46","988","3326732","3082270001","Canarsie"
"16HM","Q440","Asbestos  abatement","FOREST HILLS HS - QUEENS","67-01 110 STREET","38143.00","2021-06-07T00:00:00.000","QUEENS","11375","40.729402","-73.845637","406","29","747","4052143","4021890002","Forest Hills"
"17OY","Q435","Asbestos  abatement","MARTIN VAN BUREN HS - QUEENS","230-17 HILLSIDE AVENUE","14917.00","2021-06-07T00:00:00.000","QUEENS","11427","40.733066","-73.738756","413","23","1301","4166101","4079300002","Bellerose"
"17PE","K142","Asbestos  abatement","I.S. 448 - BROOKLYN","610 HENRY STREET","254800.00","2021-06-07T00:00:00.000","BROOKLYN","11231","40.68007","-74.001377","306","39","63","3336036","3003690001","Carroll Gardens-Columbia Street-Red Hook"
"16KU","M200","Asbestos  abatement","P.S. 200 - MANHATTAN","2589 7TH AVENUE","19093.00","2021-06-07T00:00:00.000","MANHATTAN","10039","40.824495","-73.936997","110","9","236","1060198","1020160100","Central Harlem North-Polo Grounds"
"17QH","Q040","Asbestos  abatement","P.S. 40 - QUEENS","109-20 UNION HALL STREET","97306.00","2021-06-07T00:00:00.000","QUEENS","11433","40.694125","-73.790675","412","28","260","4263341","4121510001","South Jamaica"
"16I5","K020","Asbestos  abatement","P.S. 20 - BROOKLYN","225 ADELPHI STREET","28554.00","2021-06-07T00:00:00.000","BROOKLYN","11205","40.690765","-73.971376","302","35","183","3058531","3020910003","Fort Greene"
"17QK","Q455","Asbestos  abatement","NEWTOWN HS - QUEENS","48-01 90 STREET","12158.00","2021-06-07T00:00:00.000","QUEENS","11373","40.741122","-73.874721","404","25","461","4045629","4018490001","Elmhurst"
"16IB","Q095","Asbestos  abatement","P.S. 95 - QUEENS","179-01 90TH AVENUE","22526.00","2021-06-07T00:00:00.000","QUEENS","11432","40.710624","-73.783423","412","27","468","4446042","4099140001","Jamaica"
"16IE","M017","Asbestos  abatement","P.S. 212 - MANHATTAN","328 WEST 48 STREET","38238.00","2021-06-07T00:00:00.000","MANHATTAN","10036","40.761448","-73.988019","104","3","127","1025092","1010380014","Clinton"
"17PP","Q329","Asbestos  abatement","EAST ELMHURST COMMUNITY SCHOOL","26-25 97TH STREET","13567.00","2021-06-07T00:00:00.000","QUEENS","11369","40.761557","-73.872239","403","21","361","4437125","4013770016","East Elmhurst"
"17PM","R008","Asbestos  abatement","P.S. 8 - STATEN ISLAND","112 LINDENWOOD ROAD","39260.00","2021-06-07T00:00:00.000","STATEN IS","10308","40.547692","-74.151755","503","51","15601","5066295","5052210001","Great Kills"
"17R1","Q032","Asbestos  abatement","P.S. 32 - QUEENS","171-11 35 AVENUE","29229.00","2021-06-07T00:00:00.000","QUEENS","11358","40.764763","-73.794683","407","19","1141","4118954","4052560001","Murray Hill"
"17R2","X057","Asbestos  abatement","P.S. 57 - BRONX","2111 CROTONA AVENUE","47623.00","2021-06-07T00:00:00.000","BRONX","10457","40.848472","-73.888561","206","15","373","2012359","2030810026","East Tremont"
"16KQ","X048","Asbestos  abatement","P.S. 48 - BRONX","1290 SPOFFORD AVENUE","21709.00","2021-06-07T00:00:00.000","BRONX","10474","40.814425","-73.886953","202","17","93","2006680","2027660001","Hunts Point"
"17R8","X081","Asbestos  abatement","P.S. 81 - BRONX","5550 RIVERDALE AVENUE","26758.00","2021-06-07T00:00:00.000","BRONX","10471","40.903553","-73.905229","208","11","337","2084806","2058501550","North Riverdale-Fieldston-Riverdale"
"16KM","Q126","Asbestos  abatement","I.S. 126 - QUEENS","31-51 21 STREET","39910.00","2021-06-07T00:00:00.000","QUEENS","11106","40.766264","-73.930709","401","22","77","4006382","4005530001","Astoria"
"16KI","X073","Asbestos  abatement","P.S. 73 - BRONX","1020 ANDERSON AVENUE","143928.00","2021-06-07T00:00:00.000","BRONX","10452","40.832706","-73.926838","204","8","189","2003051","2025040082","Highbridge"
"16KW","K035","Asbestos  abatement","I.S. 35 - BROOKLYN","272 MACDONOUGH STREET","76598.00","2021-06-07T00:00:00.000","BROOKLYN","11233","40.681896","-73.935963","303","36","273","3047054","3016740011","Stuyvesant Heights"
"16KV","K306","Asbestos  abatement","P.S. 306 - BROOKLYN","970 VERMONT STREET","513245.00","2021-06-07T00:00:00.000","BROOKLYN","11207","40.655997","-73.886547","305","42","1104","3097873","3043920001","East New York"
"16L1","Q485","Asbestos  abatement","GROVER CLEVELAND HS - QUEENS","21-27 HIMROD STREET","11700.00","2021-06-07T00:00:00.000","QUEENS","11385","40.711033","-73.908814","405","30","595","4080227","4033630001","Ridgewood"
"17RN","K212","Asbestos  abatement","P.S. 212 - BROOKLYN","87 BAY 49 STREET","34043.00","2021-06-07T00:00:00.000","BROOKLYN","11214","40.587616","-73.985948","313","47","314","3187407","3069170001","Gravesend"
"16L3","X098","Asbestos  abatement","I.S. 98 - BRONX","1619 BOSTON RD","67730.00","2021-06-07T00:00:00.000","BRONX","10460","40.8359","-73.890458","203","17","155","2009867","2029390093","Crotona Park East"
"17RT","K495","Asbestos  abatement","ORIGINS HIGH SCHOOL","3000 AVENUE X","83383.00","2021-06-07T00:00:00.000","BROOKLYN","11235","40.594124","-73.937696","315","48","626","3203631","3074250002","Sheepshead Bay-Gerritsen Beach-Manhattan Beach"
"17T0","K176","Asbestos  abatement","P.S. 176 - BROOKLYN","1225 69 STREET","26101.00","2021-06-07T00:00:00.000","BROOKLYN","11219","40.624611","-74.005378","310","43","196","3143190","3057740001","Dyker Heights"
"17T3","Q074","Asbestos  abatement","I.S. 74 - QUEENS","61-15 OCEANIA STREET","26317.00","2021-06-07T00:00:00.000","QUEENS","11364","40.745201","-73.767446","411","23","1367","4163953","4077230001","Oakland Gardens"
"17RR","K058","Asbestos  abatement","P.S. 58 - BROOKLYN","330 SMITH STREET","20825.00","2021-06-07T00:00:00.000","BROOKLYN","11231","40.680415","-73.994754","306","39","77","3007547","3004490015","Carroll Gardens-Columbia Street-Red Hook"
"17TD","K261","Asbestos  abatement","P.S. 261 - BROOKLYN","314 PACIFIC STREET","101750.00","2021-06-07T00:00:00.000","BROOKLYN","11201","40.687466","-73.988288","302","33","43","3001070","3001880014","DUMBO-Vinegar Hill-Downtown Brooklyn-Boerum Hill"
"17TN","R600","Asbestos  abatement","RALPH R. MCKEE CAREER AND TECH","290 ST MARKS PLACE","23902.00","2021-06-07T00:00:00.000","STATEN IS","10301","40.642793","-74.07873","501","49","9","5000314","5000190004","West New Brighton-New Brighton-St. George"
"17TM","Q014","Asbestos  abatement","P.S. 14 - QUEENS","107-01 OTIS AVENUE","26638.00","2021-06-07T00:00:00.000","QUEENS","11368","40.74056","-73.854131","404","21","439","4437311","4019540037","Corona"
"17TT","Q130","Asbestos  abatement","P.S. 130 - QUEENS","200-01 42 AVENUE","12070.00","2021-06-07T00:00:00.000","QUEENS","11361","40.759517","-73.784029","411","19","1463","4137034","4062030001","Bayside-Bayside Hills"
"17TZ","X082","Asbestos  abatement","I.S. 232 - BRONX","1700 MACOMBS ROAD","73961.00","2021-06-07T00:00:00.000","BRONX","10453","40.849532","-73.916077","205","14","21502","2008460","2028660070","University Heights-Morris Heights"
"17U6","K251","Asbestos  abatement","P.S. 251 - BROOKLYN","1037 EAST 54 STREET","100202.00","2021-06-07T00:00:00.000","BROOKLYN","11234","40.632524","-73.924417","318","46","722","3214729","3077580001","Flatlands"
"17U9","M510","Asbestos  abatement","CASCADES CTR FOR TCHING & LNG","198 FORSYTH STREET","77943.00","2021-06-07T00:00:00.000","MANHATTAN","10002","40.72252","-73.990728","103","1","3601","1005626","1004220072","Chinatown"
"17UD","Q445","Asbestos  abatement","WILLIAM C. BRYANT HS - QUEENS","48-10 31 AVENUE","42195.00","2021-06-07T00:00:00.000","QUEENS","11103","40.75823","-73.910514","401","26","163","4013655","4007380002","Astoria"
"17UG","Q038","Asbestos  abatement","P.S. 38 - QUEENS","135-21 241 STREET","23842.00","2021-06-07T00:00:00.000","QUEENS","11422","40.671561","-73.734043","413","31","638","4284236","4132220001","Rosedale"
"183V","X070","Asbestos  abatement","P.S. 70 - BRONX","1691 WEEKS AVENUE","110623.00","2021-06-07T00:00:00.000","BRONX","10457","40.844253","-73.907616","204","15","22902","2007387","2027930028","Mount Hope"
"1846","R016","Asbestos  abatement","P.S. 16 - STATEN ISLAND","195 DANIEL LOW TERRACE","16340.00","2021-06-07T00:00:00.000","STATEN IS","10301","40.63943","-74.080005","501","49","11","5000291","5000180015","West New Brighton-New Brighton-St. George"
"1849","K176","Asbestos  abatement","P.S. 176 - BROOKLYN","1225 69 STREET","40837.00","2021-06-07T00:00:00.000","BROOKLYN","11219","40.624611","-74.005378","310","43","196","3143190","3057740001","Dyker Heights"
"184B","K410","Asbestos  abatement","ABRAHAM LINCOLN HS - BROOKLYN","2800 OCEAN PARKWAY","14109.00","2021-06-07T00:00:00.000","BROOKLYN","11235","40.581681","-73.967308","313","47","354","3196293","3072540001","West Brighton"
"16L4","K176","Asbestos  abatement","P.S. 176 - BROOKLYN","1225 69 STREET","17215.00","2021-06-07T00:00:00.000","BROOKLYN","11219","40.624611","-74.005378","310","43","196","3143190","3057740001","Dyker Heights"
"184G","K154","Asbestos  abatement","P.S. 154 - BROOKLYN","1625 11 AVENUE","42583.00","2021-06-07T00:00:00.000","BROOKLYN","11215","40.657472","-73.97618","307","39","171","3121871","3052570001","Windsor Terrace"
"16K0","M188","Asbestos  abatement","P.S. 188 - MANHATTAN","442 EAST HOUSTON STREET","227396.00","2021-06-07T00:00:00.000","MANHATTAN","10002","40.719598","-73.977904","103","2","20","1004349","1003560100","Lower East Side"
"16HE","K600","Asbestos  abatement","CLARA BARTON HS - K","901 CLASSON AVENUE","25404.00","2021-06-07T00:00:00.000","BROOKLYN","11225","40.669567","-73.961962","309","35","213","3029702","3011880001","Crown Heights South"
"188D","K048","Asbestos  abatement","P.S. 48 - BROOKLYN","6015 18 AVENUE","114516.00","2021-06-07T00:00:00.000","BROOKLYN","11204","40.621871","-73.987396","312","44","244","3132140","3055190001","Borough Park"
"188L","Q415","Asbestos  abatement","BENJAMIN N. CARDOZO HS - QUEEN","57-00 223 STREET","213893.00","2021-06-07T00:00:00.000","QUEENS","11364","40.752333","-73.75599","411","23","138501","4161735","4075290001","Oakland Gardens"
"188R","X420","Asbestos  abatement","WORLD CULTURES HS - X","1300 BOYNTON AVENUE","65436.00","2021-06-07T00:00:00.000","BRONX","10472","40.831601","-73.878912","209","18","56","2027459","2038640001","West Farms-Bronx River"
"188V","R049","Asbestos  abatement","I.S. 49 - STATEN ISLAND","101 WARREN STREET","63994.00","2021-06-07T00:00:00.000","STATEN IS","10304","40.620347","-74.081643","501","49","29","5014184","5005560080","Stapleton-Rosebank"
"1891","X167","Asbestos  abatement","P.S. 214 - BRONX","1970 WEST FARMS ROAD","33931.00","2021-06-07T00:00:00.000","BRONX","10460","40.839565","-73.880358","206","17","60","2094603","2030210038","Crotona Park East"
"18CC","K288","Asbestos  abatement","P.S. 288 - BROOKLYN","2950 WEST 25 STREET","36072.00","2021-06-07T00:00:00.000","BROOKLYN","11224","40.574411","-73.99194","313","47","342","3189538","3070540045","Seagate-Coney Island"
"17MP","K090","Asbestos  abatement","P.S. 90 - BROOKLYN","2840 WEST 12 STREET","85187.00","2021-06-07T00:00:00.000","BROOKLYN","11224","40.578255","-73.979628","313","47","350","3196558","3072660040","West Brighton"
"18CU","M028","Asbestos  abatement","P.S. 28 - MANHATTAN","475 WEST 155 STREET","79078.00","2021-06-07T00:00:00.000","MANHATTAN","10032","40.831227","-73.942143","112","7","239","1076739","1021070026","Washington Heights South"
"18CX","Q178","Asbestos  abatement","P.S. 178 - QUEENS","189-10 RADNOR ROAD","11861.00","2021-06-07T00:00:00.000","QUEENS","11423","40.724479","-73.777454","408","23","1277","4156558","4072770001","Jamaica Estates-Holliswood"
"18D2","Q415","Asbestos  abatement","BENJAMIN N. CARDOZO HS - QUEEN","57-00 223 STREET","19989.00","2021-06-07T00:00:00.000","QUEENS","11364","40.752333","-73.75599","411","23","138501","4161735","4075290001","Oakland Gardens"
"17KO","Q159","Asbestos  abatement","P.S. 159 - QUEENS","205-01 33 AVENUE","90579.00","2021-06-07T00:00:00.000","QUEENS","11361","40.76936","-73.783943","411","19","1099","4134525","4060380013","Bayside-Bayside Hills"
"18DK","K002","Indoor Building Improvement - Conversion of Administrative Space into Classrooms","I.S. 2 - BROOKLYN","655 PARKSIDE AVENUE","205041.00","2021-06-07T00:00:00.000","BROOKLYN","11226","40.656183","-73.951583","309","40","802","3378201","3050500051","Prospect Lefferts Gardens-Wingate"
"17MZ","X205","Asbestos  abatement","P.S. 205 - BRONX","2475 SOUTHERN BLVD","18379.00","2021-06-07T00:00:00.000","BRONX","10458","40.855263","-73.881139","206","15","393","2086808","2031150021","Belmont"
"17TA","X024","Asbestos  abatement","P.S. 24 - BRONX","660 WEST 236 STREET","24245.00","2021-06-07T00:00:00.000","BRONX","10463","40.887111","-73.913697","208","11","309","2085869","2059170140","North Riverdale-Fieldston-Riverdale"
"17TG","Q192","Asbestos  abatement","I.S. 192 - QUEENS","109-89 204 STREET","215256.00","2021-06-07T00:00:00.000","QUEENS","11412","40.70646","-73.753579","412","27","508","4234318","4109440301","Hollis"
"17TH","Q124","Asbestos  abatement","P.S. 124 - QUEENS","129-15 150 AVENUE","71322.00","2021-06-07T00:00:00.000","QUEENS","11420","40.665058","-73.811701","410","28","84602","4257530","4118820001","South Ozone Park"
"17T1","K180","Asbestos  abatement","P.S. 180 - BROOKLYN","5601 16TH AVENUE","31191.00","2021-06-07T00:00:00.000","BROOKLYN","11204","40.627029","-73.989672","312","44","470","3130809","3054920001","Borough Park"
"17TK","M198","Asbestos  abatement","P.S. 198 - MANHATTAN","1700 3RD AVENUE","319637.00","2021-06-07T00:00:00.000","MANHATTAN","10128","40.784826","-73.949611","108","5","15801","1048492","1015240023","Upper East Side-Carnegie Hill"
"17NQ","K154","Asbestos  abatement","P.S. 154 - BROOKLYN","1625 11TH AVENUE","453965.00","2021-06-07T00:00:00.000","BROOKLYN","11215","40.657472","-73.97618","307","39","171","3121871","3052570001","Windsor Terrace"
"17TJ","Q042","Asbestos  abatement","P.S. 42 - QUEENS","488 BEACH 66 STREET","288965.00","2021-06-07T00:00:00.000","QUEENS","11692","40.594538","-73.795304","414","31","964","4302817","4160390014","Hammels-Arverne-Edgemere"
"16RV","K106","Asbestos  abatement","P.S. 106 - BROOKLYN","1328 PUTNAM AVENUE","42006.00","2021-06-07T00:00:00.000","BROOKLYN","11221","40.693879","-73.913056","304","37","435","3077286","3033770001","Bushwick North"
"16RY","X005","Asbestos  abatement","P.S. 5 - BRONX","564 JACKSON AVENUE","46743.00","2021-06-07T00:00:00.000","BRONX","10455","40.813728","-73.908886","201","8","73","2004548","2026420001","Melrose South-Mott Haven North"
"17OA","X229","Asbestos  abatement","THE NEW AMERICAN ACADEMY AT RO","275 HARLEM RIVER PARK BRIDGE","121239.00","2021-06-07T00:00:00.000","BRONX","10453","40.852536","-73.921467","205","16","53","2009253","2028820130","University Heights-Morris Heights"
"18NE","K106","Asbestos  abatement","P.S. 106 - BROOKLYN","1328 PUTNAM AVENUE","32569.00","2021-06-07T00:00:00.000","BROOKLYN","11221","40.693879","-73.913056","304","37","435","3077286","3033770001","Bushwick North"
"18NN","Q117","Asbestos  abatement","P.S. 117 - QUEENS","85-15 143RD STREET","39063.00","2021-06-07T00:00:00.000","QUEENS","11435","40.709463","-73.813376","408","24","232","4208040","4097230150","Briarwood-Jamaica Hills"
"18NX","K268","Asbestos  abatement","P.S. 268 - BROOKLYN","133 EAST 53 STREET","164514.00","2021-06-07T00:00:00.000","BROOKLYN","11203","40.657131","-73.928018","317","41","866","3100292","3046230028","Rugby-Remsen Village"
"17TP","K011","Asbestos  abatement","P.S. 11 - BROOKLYN","419 WAVERLY AVENUE","29263.00","2021-06-07T00:00:00.000","BROOKLYN","11238","40.685491","-73.966291","302","35","199","3332865","3019620010","Clinton Hill"
"18O2","K391","Asbestos  abatement","I.S. 722 - BROOKLYN","790 EAST NEW YORK AVENUE","24890.00","2021-06-07T00:00:00.000","BROOKLYN","11203","40.662447","-73.936382","309","41","876","3107129","3048060001","Prospect Lefferts Gardens-Wingate"
"16L6","K114","Asbestos  abatement","P.S. 114 - BROOKLYN","1077 REMSEN AVENUE","114590.00","2021-06-07T00:00:00.000","BROOKLYN","11236","40.642545","-73.908529","318","46","964","3229159","3081600022","Canarsie"
"16RN","K114","Asbestos  abatement","P.S. 114 - BROOKLYN","1077 REMSEN AVENUE","128034.00","2021-06-07T00:00:00.000","BROOKLYN","11236","40.642545","-73.908529","318","46","964","3229159","3081600022","Canarsie"
"16RI","M110","Asbestos  abatement","P.S. 110 - MANHATTAN","285 DELANCY STREET","16364.00","2021-06-07T00:00:00.000","MANHATTAN","10002","40.715915","-73.979893","103","1","12","1004066","1003310140","Lower East Side"
"16RO","K110","Asbestos  abatement","P.S. 110 - BROOKLYN","124 MONITOR STREET","65784.00","2021-06-07T00:00:00.000","BROOKLYN","11222","40.723897","-73.942312","301","33","591","3067144","3026880042","Greenpoint"
"17U2","K021","Asbestos  abatement","P.S. 21 - BROOKLYN","180 CHAUNCEY STREET","125521.00","2021-06-07T00:00:00.000","BROOKLYN","11233","40.680727","-73.926597","303","36","381","3047914","3016920017","Crown Heights North"
