Name,Address,City,State,Postcode,Borough,Installation,Phone,Last_Updated_Date,Last_Updated_Time,Latitude,Longitude,Community Board,Council District,Census Tract,BIN,BBL,NTA,Location1,Zip Codes,Community Districts,Borough Boundaries,City Council Districts,Police Precincts
Trizz Taximeter Repair Corp,519 west 27 street ,New York,New York,10001,NY,Install,646-336-7625,04/17/2018,00:46.5,40.75069,-74.00345,4,3,99,1012406,1006990022,Hudson Yards-Chelsea-Flatiron-Union Square                                 ,"(40.75069, -74.00345)",11722,12,4,10,6
Skillman Auto Upholstery,"37-11, 126 street",Corona ,New York,11368,Queens,Manufacture & Install,718-458-4321,04/17/2018,00:46.5,40.75757,-73.844348,7,21,38301,4568145,4018250001,park-cemetery-etc-Queens                                                   ,"(40.75757, -73.844348)",14510,22,3,21,68
Brooklyn Partitions,1542 Atlantic Avenue,Brooklyn ,New York,11213,Brooklyn,Manufacture & Install,718-773-9246,04/17/2018,00:46.5,40.677952,-73.940398,8,36,311,3029907,3012040018,Crown Heights North                                                        ,"(40.677952, -73.940398)",17615,16,2,49,49
Taxicabs Partitions Inc,1415 Inwood Avenue ,Bronx,New York,10452,Bronx,Manufacture & Install,718-538-7272,04/17/2018,00:46.5,40.841012,-73.918712,4,16,219,2008305,2028570051,Highbridge                                                                 ,"(40.841012, -73.918712)",10930,50,5,42,27
Rogers Taxi Partitions,2714 Beverly Road,Brooklyn ,New York,11226,Brooklyn,Manufacture & Install,718-693-5033,04/17/2018,00:46.5,40.644984,-73.951277,17,45,826,3328255,3051710005,Erasmus                                                                    ,"(40.644984, -73.951277)",13510,61,2,26,40
Oldee Taxi Inst Corp,24-50 47th St,Astoria,New York,11102,Queens,Manufacture & install,718-729-6533,04/17/2018,00:46.5,40.766255,-73.905381,1,22,141,4013579,4007320022,Astoria                                                                    ,"(40.766255, -73.905381)",16860,39,3,4,72
American Taxi Meter ,"21-46, 44 th Drive ",Long Island City,New York,11101,Queens,Install,718-937-4600,04/17/2018,00:46.5,40.74802,-73.946947,2,26,7,4000659,4000780037,Hunters Point-Sunnyside-West Maspeth                                       ,"(40.74802, -73.946947)",16858,53,3,33,66
Metro Meter  Shop Inc,"11-11, 34th Ave",Long Island City,New York,11106,Queens,Install,718-786-8585,04/17/2018,00:46.5,40.764539,-73.937617,1,26,85,4439051,4003180001,Queensbridge-Ravenswood-Long Island City                                   ,"(40.764539, -73.937617)",16863,39,3,33,72
Millennium Taximeters Corp,48-02 Van Dam Street ,Long Island City,New York,11101,Queens,Install,718-729-3442,04/17/2018,00:46.5,40.740809,-73.934362,2,26,199,4003543,4002840014,Hunters Point-Sunnyside-West Maspeth                                       ,"(40.740809, -73.934362)",16858,53,3,33,66
