"objectid","globalid","seating_interest_sidewalk","restaurant_name","legal_business_name","doing_business_as_dba","bulding_number","street","borough","zip","business_address","food_service_establishment","sidewalk_dimensions_length","sidewalk_dimensions_width","sidewalk_dimensions_area","roadway_dimensions_length","roadway_dimensions_width","roadway_dimensions_area","approved_for_sidewalk_seating","approved_for_roadway_seating","qualify_alcohol","sla_serial_number","sla_license_type","landmark_district_or_building","landmarkdistrict_terms","healthcompliance_terms","time_of_submission","latitude","longitude","community_board","council_district","census_tract","bin","bbl","nta"
"100","c4b3155b-31a0-4e95-846f-fce09f245437","sidewalk","Pomp and Circumstance Hospitality","Pomp and Circumstance Hospitality LLC","Pomp and Circumstance Hospitality LLC","577","Lorimer Street","Brooklyn","11211","577 Lorimer Street, Brooklyn, NY","50094274","15","9","135",,,,"yes","no","yes","1318850","OP","no",,"yes","2020-06-19T11:04:00.000","40.714264","-73.949416","1","34","501","3068653","3027560028","East Williamsburg"
"1000","753495d8-4429-43e5-85a3-dcf6230ef749","both","Charm Kao","193 Schemerhorn INC","Charm Kao","193","Schermerhorn St.","Brooklyn","11201","193 Schermerhorn St., Brooklyn, NY","50087605","5","20","100","24","8","192","yes","yes","no",,,"no",,"yes","2020-06-19T14:35:00.000","40.689107","-73.986352","2","33","37","3000493","3001640041","DUMBO-Vinegar Hill-Downtown Brooklyn-Boerum Hill"
"10000","{3842B5C5-EF04-41A4-8216-D6EA627DCE5E}","openstreets","SAKE BAR HAGI 46","HAMA NEW YORK, INC.","SAKE BAR HAGI 46","358","W. 46TH STREET","Manhattan","10036","358  W. 46TH STREET, Manhattan, NY","50041331",,,,,,,"no","no","yes","Jul-22","OP","no",,"yes","2020-08-07T13:28:00.000","40.760463","-73.989528","4","3","121","1025025","1010360057","Clinton"
"10001","{C212A0FC-C115-4425-8F95-931B12C5F86A}","openstreets","Yum yum too","Boythaicorp","Boythaicorp","662","9ave","Manhattan","10036","662 9ave, Manhattan, NY","50088036",,,,,,,"no","no","yes","Jul-02","OP","no",,"yes","2020-08-07T13:34:00.000","40.761081","-73.990683","4","3","127","1025038","1010370001","Clinton"
"10002","{DA48265D-7730-416F-8E1C-EBC8C8ACE2C2}","openstreets","Xochil Pizza Corp","Xochil Pizza Corp","Xochil Pizza Corp","4632","5th Avenue","Brooklyn","11220","4632  5th Avenue , Brooklyn, NY","50011100",,,,,,,"no","no","no",,,"no",,"yes","2020-08-07T13:43:00.000","40.64714","-74.008216","7","38","80",,,"Sunset Park West"
"10003","{46F009AC-1DF9-4F39-8973-01E407466B67}","openstreets","BECKETTS BAR","81 PEARL STREET V ENTURE LTD","81 PEARL STREET V ENTURE LTD","81","PEARL STREET","Manhattan","10004","81 PEARL STREET, Manhattan, NY","50004654",,,,,,,"no","no","yes","Jan-32","OP","yes","yes","yes","2020-08-07T13:48:00.000","40.704023","-74.0102","1","1","9","1000838","1000290024","Battery Park City-Lower Manhattan"
"10004","{DA22A48D-3C12-4E33-895C-2E6F02CA4370}","openstreets","Rico Pollo 3","Rico Pollo 3","Rico Pollo 3","4523","5th Avenue","Brooklyn","11220","4523 5th Avenue , Brooklyn, NY","50090510",,,,,,,"no","no","no",,,"no",,"yes","2020-08-07T13:58:00.000","40.64773","-74.007575","7","38","96","3329833","3007480001","Sunset Park East"
"10005","{B9E7740C-95B7-4992-81F5-437B17FF0627}","both","Patisserie Fouet","Patisserie Fouet","YS Pastry LLC","1009402","13th Street","Manhattan","10003","1009402 13th Street, Manhattan, NY","50088038","21","8","168","21","8","168","yes","yes","yes","Sep-74","OP","no",,"yes","2020-08-07T13:59:00.000",,,,,,,,
"10006","{D90EC6E8-6D48-4A26-8DD0-2C64E4CB168A}","openstreets","Tropical Sensation Restaurant","Tropical Sensation","Tropical Sensation","953","Amsterdam Ave.","Manhattan","10025","953 Amsterdam Ave., Manhattan, NY","41297129",,,,,,,"no","no","yes","Apr-90","OP","no",,"yes","2020-08-07T14:03:00.000","40.800935","-73.965333","7","7","193","1055979","1018610062","Morningside Heights"
"10007","{D727EBEB-48A4-4BAE-85E1-44F3355A8DDA}","sidewalk","MANHATTANVILLE COFFEE","MANHATTANVILLE COFFEE, LLC","MANHATTANVILLE COFFEE, LLC","142","EDGECOMBE AVE","Manhattan","10030","142 EDGECOMBE AVE, Manhattan, NY","50074795","40","5","200",,,,"yes","no","no",,,"no",,"yes","2020-08-07T14:12:00.000","40.821318","-73.944732","10","9","259","1060761","1020437503","Central Harlem North-Polo Grounds"
"10008","{98EE33AB-C829-47A7-8176-5343120C8056}","sidewalk","Bodrum Turkish Meditrranean Restaurant","TB 584 AMSTERDAM REST. CORP","Bodrum Turkish Mediterranean Restaurant","584","AMSTERDAM AVE","Manhattan","10024","584  AMSTERDAM AVE, Manhattan, NY","41239252","48","10","480",,,,"yes","no","yes","May-45","OP","no",,"yes","2020-08-07T14:13:00.000","40.78916","-73.973952","7","6","175","1033295","1012360032","Upper West Side"
"10009","{007F35C7-3419-4A92-8E8A-4EA4A148C90D}","openstreets","El Rey Del Pescado","El Rey Del Pescado","El Rey Del Pescado","4515","5th Ave","Brooklyn","11200","4515  5th Ave , Brooklyn, NY","50100328",,,,,,,"no","no","yes","Jun-86","OP","no",,"yes","2020-08-07T14:14:00.000","40.647761","-74.007542","7","38","96","3011588","3007480004","Sunset Park East"
"1001","28927cac-eb8a-44c2-8df3-02bdaec4fdb1","both","Treadwell Park & Black Hound Bar","301 South LLC","Treadwell Park & Black Hound Bar","301","South End Avenue","Manhattan","10280","301 South End Avenue, Manhattan, NY","41699341","144","5","720","144","8","1152","yes","yes","yes","1256140; 1256141","OP","no",,"yes","2020-06-19T14:16:00.000","40.710233","-74.016333","1","1","31704","1085492","1000160001","Battery Park City-Lower Manhattan"
"10010","{0D45F856-FFE6-4F0E-8F33-6F8797650F0A}","openstreets","La Cabana","La Cabana","La Cabana","4503","5th Ave","Brooklyn","11220","4503  5th Ave , Brooklyn, NY","41348986",,,,,,,"no","no","yes","May-98","OP","no",,"yes","2020-08-07T14:19:00.000","40.64781","-74.007492","7","38","96","3011647","3007480107","Sunset Park East"
"10011","{9D4D45FB-0F0D-4355-8B29-5CBA468A1F87}","openstreets","Nourish Thai","Heng Heng group INC","Nourish Thai","637A","Vanderbilt Ave","Brooklyn","11215","637A Vanderbilt Ave , Brooklyn, NY","50062426",,,,,,,"no","no","yes","Aug-71","RW","yes","yes","yes","2020-08-07T14:35:00.000","40.678042","-73.968714","8","35","205","3028480","3011520005","Prospect Heights"
"10012","{8929558A-8896-42E3-8076-91435B7726E7}","sidewalk","Chez Josephine","Chez Josephine LTD","Chez Josephine LTD","414","W 42nd St","Manhattan","10036","414  W 42nd St, Manhattan, NY","40384671","20","11","220",,,,"yes","no","yes","Dec-13","OP","no",,"yes","2020-08-07T14:39:00.000","40.758712","-73.993326","4","3","115","1026332","1010510040","Clinton"
"10013","{CC8E130C-5859-4FCE-8E9B-9C14CE769011}","roadway","La Flor Restaurant and Cafe","La Flor Restaurant Cafe Corp.","La Flor Restaurant Cafe Corp.","53-02","Roosevelt Avenue","Queens","11377","53-02  Roosevelt Avenue, Queens, NY","50038174",,,,"30","8","240","no","yes","yes","Oct-86","RW","no",,"yes","2020-08-07T14:41:00.000","40.74451","-73.911345","2","26","251","4030921","4013220065","Woodside"
"10014","{41F74F8B-0C67-4093-826F-EC5E3AB3DBBF}","openstreets","ABC El Salvadorin Grocery INC","ABC El Salvadorin Grocery Inc","ABC El Salvadorin Grocery Inc","4620","5th","Brooklyn","11220","4620 5th , Brooklyn, NY","50103003",,,,,,,"no","no","no",,,"no",,"yes","2020-08-07T14:51:00.000",,,,,,,,
"10015","{F26CB212-F0FA-423A-820C-D961862B2589}","both","A-Pou's Taste","Cyber LLC","Cyber LLC","963","Grand St","Brooklyn","11211","963 Grand St, Brooklyn, NY","50070157","10","12","120","10","8","80","yes","yes","yes","May-03","RW","no",,"yes","2020-08-07T14:51:00.000","40.713085","-73.936027","1","34","481","3070478","3029240044","East Williamsburg"
"10016","{F232C84F-5235-4093-885C-A6F6B08B9AEB}","sidewalk","Public House NYC","Public House NYC, LLC","Public House NYC, LLC","622","3rd avenue","Manhattan","10017","622 3rd avenue, Manhattan, NY","41259512","48","30","1440",,,,"yes","no","yes","Feb-41","OP","no",,"yes","2020-08-07T14:55:00.000","40.749581","-73.975324","6","4","80","1089024","1012950033","Murray Hill-Kips Bay"
"10017","{BAD229EC-7B1F-4A6C-83AE-C26434856778}","openstreets","Arco Cafe","Nuoro LLC","Arco Cafe","886","Amsterdam ave","Manhattan","10025","886  Amsterdam ave, Manhattan, NY","50087864",,,,,,,"no","no","yes","Feb-95","OP","no",,"yes","2020-08-07T15:09:00.000","40.798751","-73.966956","7","7","191","1056565","1018750029","Upper West Side"
"10018","{B39F757B-86F2-423D-830A-91B0AA1E6922}","both","Soda Bar","Taiga Restaurant Corp","Taiga Restaurant Corp","629","Vanderbilt Ave.","Brooklyn","11238","629  Vanderbilt Ave., Brooklyn, NY","40881088","42","7","294","42","8","336","yes","yes","yes","Aug-94","OP","yes","yes","yes","2020-08-07T15:49:00.000","40.678287","-73.968623","8","35","205","3028485","3011520010","Prospect Heights"
"10019","{5432EDEE-1520-4DC9-8147-78C5C1323079}","both","Brazmex Cafe","Brazmex Cafe","Brazmex Cafe","241","Beach 116 Street","Queens","11694","241 Beach 116 Street, Queens, NY","50101886","13","13","169","13","8","104","yes","yes","no",,,"no",,"yes","2020-08-07T15:49:00.000","40.58055","-73.83764","14","32","93402","4304446","4162120022","Breezy Point-Belle Harbor-Rockaway Park-Broad Channel"
"1002","15375146-0904-48d9-82ad-707258454689","both","I SODI","I SODI LLC","I SODI","105","CHRISTOPHER STREET","Manhattan","10014","105  CHRISTOPHER STREET, Manhattan, NY","413116656","45","12","540","45","12","540","yes","yes","yes","12002148","OP","yes","yes","yes","2020-06-19T14:40:00.000","40.73331","-74.004868","2","3","73","1076912","1006190038","West Village"
"10020","{67358302-4035-4842-887A-98BEA5DCDD3B}","both","Dalongyi Hot Pot","DL&Y LLC","DL&Y LLC","40-44","elizabeth street","Manhattan","10013","40-44 elizabeth street, Manhattan, NY","50092177","56","4","224","56","7","392","yes","yes","yes","Feb-16","OP","no",,"yes","2020-08-07T15:58:00.000","40.716803","-73.996811","2","1","41","1002603","1002030002","SoHo-TriBeCa-Civic Center-Little Italy"
"10021","{3C8DA83D-31AF-4B2C-8060-8D1A42E3FFE6}","sidewalk","Gerizim Burger Factory","Gerizim Burger Factory","Gerizim Burger Factory","560","Ralph","Brooklyn","11233","560  Ralph, Brooklyn, NY","50037266","15","5","75",,,,"yes","no","no",,,"no",,"yes","2020-08-07T16:00:00.000",,,,,,,,
"10022","{F1247218-BCAA-4DE1-8BF5-82FFAE61C3FA}","both","Don Giovanni","Marilyn 18 rest inc","Don Giovanni ristorante","358","west 44th","Manhattan","10036","358 west 44th, Manhattan, NY","50097296","32","6","192","33","8","264","yes","yes","no",,,"no",,"yes","2020-08-07T16:07:00.000",,,,,,,,
"10023","{80934DA8-1BF0-408A-855B-BF9E125D7D92}","openstreets","Taiwan pork chop house","Taiwan pork chop house","Taiwan pork chop house","3","Doyers","Manhattan","10013","3 Doyers , Manhattan, NY","50005809",,,,,,,"no","no","no",,,"yes","yes","yes","2020-08-07T16:19:00.000","40.714258","-73.997857","3","1","29","1001703","1001620033","Chinatown"
"10024","{EDFA343E-D5E2-4CD2-8DEC-428B8B385446}","both","Gerizim Burger Factory","Gerizim Burger Factory","Gerizim Burger Factory","560","Ralph","Brooklyn","11233","560 Ralph , Brooklyn, NY","50037266","15","5","75","34","5","170","yes","yes","no",,,"no",,"yes","2020-08-07T16:23:00.000",,,,,,,,
"10025","{1327B8C3-8357-47FC-8EDB-05DDD310005D}","both","Gerizim Burger Factory","Gerizim Burger Factory","Gerizim Burger Factory","560","Ralph","Brooklyn","11233","560 Ralph, Brooklyn, NY","50037266","15","5","75","30","5","150","yes","yes","no",,,"no",,"yes","2020-08-07T16:40:00.000",,,,,,,,
"10026","{4B935FDB-7915-4664-842F-DAED781A0C8A}","sidewalk","Triangle Apple, LLC dba Applebee's Neighborhood Grill & Bar","Triangle Apple, LLC","Applebee's Neighborhood Grill & Bar","2201","Nostrand Ave","Brooklyn","11210","2201 Nostrand Ave, Brooklyn, NY","41378990","74","18","1332",,,,"yes","no","yes","Oct-28","OP","no",,"yes","2020-08-07T16:54:00.000","40.631039","-73.947487","14","45","774","3396696","3075767501","Flatbush"
"10027","{0DB633AD-76C9-46ED-8904-F164F467FA97}","sidewalk","Sammy's Original Shrimp Box","Sammy's S.B. Rest. Corp","Sammy's Original Shrimp Box","64","City Island Avenue","Bronx","10464","64  City Island Avenue , Bronx, NY","41397464","90","7","630",,,,"yes","no","yes","Jan-49","OP","no",,"yes","2020-08-07T16:55:00.000","40.8396","-73.783632","10","13","516","2082404","2056380011","Pelham Bay-Country Club-City Island"
"10028","{8FA72C2A-C1F3-4CE8-8BF7-A544F064F6F6}","both","Bar Bruno","Tessa and Lucho Inc","Bar Bruno","520","Henry Street","Brooklyn","11231","520 Henry Street, Brooklyn, NY","41577501","85","6","510","51","8","408","yes","yes","yes","Jun-27","OP","no",,"yes","2020-08-07T17:08:00.000","40.683374","-73.999784","6","39","63","3004484","3003430023","Carroll Gardens-Columbia Street-Red Hook"
"10029","{DFC54A72-91C4-4026-8EBD-1F01B9BF61CD}","openstreets","GUPSHUP","GPH NY LLC","GUPSHUP","113-115","E 18 STREET","Manhattan","10003","113-115 E 18 STREET, Manhattan, NY","50085326",,,,,,,"no","no","yes","May-87","OP","no",,"yes","2020-08-07T17:08:00.000","40.7368","-73.987746","5","2","50","1017863","1008740010","Gramercy"
"1003","a323f70c-c586-42a7-8f87-53b230fb1a95","both","Tito Murphy's","CDDF Inc.","Tito Murphys","346","West 46th.","Manhattan","10036","346 West 46th., Manhattan, NY","41312094","34","12","408","34","10","340","yes","yes","yes","1199101","OP","no",,"yes","2020-06-19T14:05:00.000",,,,,,,,
"10030","{6E7851A1-FA88-498E-8A47-18DDDFBC81BE}","openstreets","Groove","125 Hospitality LLC","125 Hospitality LLC","125","Macdougal St","Manhattan","10012","125 Macdougal St, Manhattan, NY","50060161",,,,,,,"no","no","yes","Nov-58","OP","no",,"yes","2020-08-07T17:13:00.000","40.730527","-74.000054","2","1","65","1008764","1005430060","West Village"
"10031","{16970672-86EA-4027-8F8A-5C7F9B212164}","sidewalk","Taste of Lahore Inc","Taste of Lahore Inc","Taste of Lahore","73-10","Northern Blvd","Queens","11372","73-10 Northern Blvd, Queens, NY","41700337","35","15","525",,,,"yes","no","no",,,"no",,"yes","2020-08-07T17:31:00.000","40.754694","-73.89353","3","25","289","4028633","4012460001","Jackson Heights"
"10032","{2DDC4737-F8FF-4E41-8161-A1C863CFCF54}","sidewalk","Universal Halal Inc","Universal Halal Inc","Universal Halal Cuisine","128-16","Liberty Avenue","Queens","11419","128-16 Liberty Avenue, Queens, NY","50039475","20","15","300",,,,"yes","no","no",,,"no",,"yes","2020-08-07T17:37:00.000","40.689053","-73.816891","10","28","15802","4204761","4095820006","South Ozone Park"
"10033","{2D48EC64-B0AA-4656-824F-81FF1532498F}","both","chasers bar and grill","inbing inc","inbing inc","60-63","flushing ave","Queens","11378","60-63   flushing ave, Queens, NY","41395526","35","7","245","35","8","280","yes","yes","yes","Jun-84","OP","no",,"yes","2020-08-07T17:38:00.000","40.720129","-73.90558","5","30","525","4060285","4026980046","Maspeth"
"10034","{6AEDE8E7-FE75-445B-869E-B862E577B04C}","roadway","Enoteca On Court","Marco Polo takeout LLC","Marco Polo takeout LLC","347","Court Street","Brooklyn","11231","347 Court Street, Brooklyn, NY","41296556",,,,"12","8","96","no","yes","yes","Feb-75","OP","no",,"yes","2020-08-07T17:52:00.000","40.682232","-73.995951","6","39","75","3007222","3004350008","Carroll Gardens-Columbia Street-Red Hook"
"10035","{A1BF41DB-FC16-491B-8699-4FB62FDA32AA}","both","Beto's Restaurant Inc","Beto's Restaurant Inc","Beto's Restaurant","835","East 152 St Frnt 3","Bronx","10455","835 East 152 St Frnt 3, Bronx, NY","41700337","10","12","120","10","8","80","yes","yes","no",,,"no",,"yes","2020-08-07T18:04:00.000",,,,,,,,
"10036","{FE63E11B-1E7A-437F-820E-B4FA74C8E009}","both","la villa pizza","di bella corp","la villa pizza","261","5th ave","Brooklyn","11215","261 5th ave, Brooklyn, NY","40952129","40","8","320","40","8","320","yes","yes","yes","Dec-06","OP","no",,"yes","2020-08-07T18:06:00.000","40.674461","-73.981881","6","39","133","3020608","3009650009","Park Slope-Gowanus"
"10037","{8687F20F-B974-4D00-8ABC-686AE06FD4E9}","both","Marco Polo Ristorante","345 Court street Corp","345 Court street Corp","345","Court street","Brooklyn","11231","345 Court street, Brooklyn, NY","40376495","24","8","192","14","8","112","yes","yes","yes","Nov-71","OP","no",,"yes","2020-08-07T18:09:00.000","40.68229","-73.995922","6","39","75","3007223","3004350009","Carroll Gardens-Columbia Street-Red Hook"
"10038","{595E6DAF-2D64-408A-8267-E12CC39C1C19}","both","Gerizim Burger Factory","Gerizim Burger Factory","Gerizim Burger Factory","560","Ralph","Brooklyn","11233","560 Ralph, Brooklyn, NY","50037266","15","5","75","30","5","150","yes","yes","no",,,"no",,"yes","2020-08-07T19:14:00.000",,,,,,,,
"10039","{2535F30E-AC40-4D67-85A4-DFE910102D8F}","sidewalk","Evolve","Reddrover group LLC","Evolve bar and lounge","221","221 E 58TH ST","Manhattan","10022","221 221 E 58TH ST, Manhattan, NY","41296528","24","15","360",,,,"yes","no","yes","B0902391","TW","no",,"yes","2020-08-07T20:16:00.000",,,,,,,,
"1004","d72969d8-aa89-485a-82f2-eabe10d22131","both","Raku Soho","San Roku LLC","Raku Soho","48","Macdougal St.","Manhattan","10012","48 Macdougal St., Manhattan, NY","50071943","16","13","208","16","8","128","yes","yes","yes","1301272","RW","yes","yes","yes","2020-06-19T14:40:00.000","40.727321","-74.002738","2","3","49","1008063","1005180006","SoHo-TriBeCa-Civic Center-Little Italy"
"10040","{8CB2A498-EF0D-45B5-8729-A54948CF48C1}","both","Silvia L Duran","Silvia L Duran","Silvia L Duran","1555","St Nicholas Avenue","Manhattan","10040","1555 St Nicholas Avenue, Manhattan, NY","50002057","44","12","528","44","8","352","yes","yes","yes","Dec-38","OP","no",,"yes","2020-08-07T20:34:00.000","40.8535","-73.930687","12","10","279","1063997","1021680015","Washington Heights North"
"10041","{A174043F-74AD-47BB-80BB-AE4A93C90A2F}","sidewalk","El Nuevo Pollo Sabroso","Pollos Sabroso Corp","Pollos Sabroso Corp","1779","Westchester Ave","Bronx","10472","1779 Westchester Ave , Bronx, NY","41306447","24","8","192",,,,"yes","no","no",,,"no",,"yes","2020-08-07T20:36:00.000","40.83167","-73.867128","9","18","76","2025620","2037860001","West Farms-Bronx River"
"10042","{EF4FF471-7FBF-47E9-81B8-4D6244066E34}","both","SLAINTE","PGT REST CORP.","PGT REST CORP.","304","BOWERY","Manhattan","10012","304 BOWERY, Manhattan, NY","41012338","24","11","264","24","8","192","yes","yes","yes","Dec-32","OP","yes","yes","yes","2020-08-07T21:13:00.000","40.724655","-73.992427","2","1","5502","1008204","1005217503","West Village"
"10043","{1DCCC01F-33DD-44E8-859C-068952ABF1CC}","sidewalk","Tacos Y Mas","Tacos Y Mas Inc.","Tacos Y Mas Inc.","1831","Mott Ave","Queens","11691","1831 Mott Ave, Queens, NY","50070043","30","13","390",,,,"yes","no","no",,,"no",,"yes","2020-08-07T21:54:00.000","40.603102","-73.750756","14","31","101001","4298248","4155600030","Far Rockaway-Bayswater"
"10044","{16F69F40-97BE-4A3F-8CF0-B7DB1C2F4FCE}","both","luv.n.oven pizzeria","lad-st-felix corp","lad-st-felix corp","120","Dekalb ave","Brooklyn","11217","120 Dekalb ave, Brooklyn, NY","50085607","45","5","225","45","8","360","yes","yes","no",,,"no",,"yes","2020-08-07T22:22:00.000","40.689787","-73.977669","2","35","33","3340923","3020970039","Fort Greene"
"10045","{72A65A0B-8F77-4036-82AC-910FD693D3AC}","both","Thai101","Batavia nyc2 INC","Thai101","39-15","Bel Blvd","Queens","11361","39-15  Bel Blvd, Queens, NY","50000950","16","8","128","16","8","128","yes","yes","yes","Jan-86","OP","no",,"yes","2020-08-08T01:21:00.000",,,,,,,,
"10046","{749CFC3E-2DF2-4041-81A0-4CD1358EEE53}","sidewalk","Mally's Deli & Grocery corp.","Mally's Deli & Grocery corp.","Mally's Deli & Grocery corp.","199","Knickerbocker av","Brooklyn","11237","199  Knickerbocker av , Brooklyn, NY","50036711","23","17","391",,,,"yes","no","yes","Sep-85","EB","yes","yes","yes","2020-08-08T01:36:00.000","40.703528","-73.92663","4","34","427","3072343","3031750006","Bushwick North"
"10047","{87D00DDC-509C-4D07-81B1-5D2C03B84107}","openstreets","Thai101","Batavia NYC2Inc","Thai101","39-15","Bell Blvd","Queens","11361","39-15  Bell Blvd, Queens, NY","50000950",,,,,,,"no","no","yes","Jan-86","OP","no",,"yes","2020-08-08T01:47:00.000","40.76506","-73.771745","11","19","1123","4137620","4062410010","Bayside-Bayside Hills"
"10048","{245F97CB-F82F-4AE9-8C74-A660ABB42B7F}","both","Meltingpot Cusine","MELTINGPOT CUSINE","MELTINGPOT CUSINE","685","Broadway","Brooklyn","11206","685  Broadway, Brooklyn, NY","50102329","30","15","450","30","8","240","yes","yes","no",,,"no",,"yes","2020-08-08T08:41:00.000","40.701819","-73.943727","1","34","491","3071598","3031190008","East Williamsburg"
"10049","{313AA95C-03C9-4FCA-844B-C6D3F9DE7240}","openstreets","LENA","Gizona corporation","LENA","1west","8 street","Manhattan","10011","1west 8 street, Manhattan, NY","50008108",,,,,,,"no","no","yes","Jul-00","TW","yes","yes","yes","2020-08-08T09:23:00.000",,,,,,,,
"1005","fd4d6674-f491-43cd-89c9-7013d586350b","roadway","The Kettle Black","PER Tavern Corp","PER Tavern Corp","8622","3rd Ave","Brooklyn","11209","8622  3rd Ave, Brooklyn, NY","41035072",,,,"73","8","584","no","yes","yes","1150419","OP","no",,"yes","2020-06-19T14:38:00.000","40.62324","-74.031164","10","43","60","3153441","3060430047","Bay Ridge"
"10050","{68594F7F-8B93-4E27-838B-E3A060BAA3B1}","both","Le Bilboquet","Le Bilboquet NY LLC","Le Bilboquet","22","East 60th Street","Manhattan","10022","22 East 60th Street, Manhattan, NY","50001109","41","4","164","41","8","328","yes","yes","yes","Nov-70","OP","no",,"yes","2020-08-08T10:13:00.000","40.764091","-73.970684","8","4","11401","1040761","1013740047","Upper East Side-Carnegie Hill"
"10051","{3E301D0C-8010-4405-81FC-7677B593CB37}","openstreets","TASTY HAND-PULLED NOODLES","NEW TASTY HAND-PULLED NOODLES INC.","TASTY HAND-PULLED NOODLES","1","DOYERS STREET","Manhattan","10013","1 DOYERS STREET, Manhattan, NY","41641642",,,,,,,"no","no","no",,,"no",,"yes","2020-08-08T10:53:00.000","40.714094","-73.997634","3","1","29","1001725","1001620133","Chinatown"
"10052","{6FE32D11-BBC9-426D-846B-4B42E08A29A6}","both","Tiramisu restaurant","Tiramisu restaurant llc","Tiramisu restaurant","1410","Third avenue","Manhattan","10028","1410  Third avenue, Manhattan, NY","40520857","58","8","464","38","8","304","yes","yes","yes","Jul-13","OP","no",,"yes","2020-08-08T11:04:00.000","40.77511","-73.956703","8","5","140","1047521","1015090033","Upper East Side-Carnegie Hill"
"10053","{7BABFD9C-096B-48BB-8D16-6121FE461D4D}","both","NUTRICION SALUD Y VIDA","MARIA DEL ROCIO MEJIA JIMENEZ","MARIA DEL ROCIO MEJIA JIMENEZ","650","MELROSE AVE","Bronx","10455","650  MELROSE AVE , Bronx, NY","41720417","16","11","176","16","8","128","yes","yes","no",,,"no",,"yes","2020-08-08T11:07:00.000","40.818605","-73.916611","1","17","67","2001356","2023740073","Melrose South-Mott Haven North"
"10054","{A7E77848-584F-4B44-84A9-F73BE3658CF9}","openstreets","Dive 106","Seinfeld Squared LLC","Dive 106","938","Amsterdam","Manhattan","10025","938 Amsterdam, Manhattan, NY","50076821",,,,,,,"no","no","yes","Jan-83","OP","no",,"yes","2020-08-08T11:22:00.000",,,,,,,,
"10055","{3E8FDB13-5909-419B-8068-960F4BEDA0E5}","openstreets","OMAR'S","OMAR'S LES LLC","OMAR'S LES LLC","302","BROOME STREET","Manhattan","10002","302 BROOME STREET, Manhattan, NY","50099170",,,,,,,"no","no","yes","Jan-20","OP","no",,"yes","2020-08-08T11:31:00.000","40.718735","-73.992211","3","1","18","1066637","1004197501","Chinatown"
"10056","{B6539D82-6A85-48C2-8B69-534FE7EC8DEC}","sidewalk","DUNKIN DONUTS","NYC Broadway Foods Inc","DUNKIN DONUTS","2414","BROADWAY","Manhattan","10024","2414 BROADWAY, Manhattan, NY","50094935","15","3","45",,,,"yes","no","no",,,"no",,"yes","2020-08-08T12:08:00.000","40.790014","-73.97515","7","6","175","1033301","1012360044","Upper West Side"
"10057","{158EABEF-DF86-4B85-8906-B36672674BA9}","sidewalk","DUNKIN DONUTS","NYC 155 FOODS INC","DUNKIN DONUTS","900","SAINT NICHOLAS AVENUE","Manhattan","10032","900 SAINT NICHOLAS AVENUE, Manhattan, NY","50044842","15","3","45",,,,"yes","no","no",,,"no",,"yes","2020-08-08T12:10:00.000","40.831005","-73.94132","12","7","239","1062481","1021070003","Washington Heights South"
"10058","{4CC562DA-2D62-4287-86AE-36D715058C88}","both","Pizzatown","Pizzatown","Pizzatown","85","5th Avenue","Brooklyn","11217","85   5th Avenue , Brooklyn, NY","41710581","3","5","15","8","8","64","yes","yes","yes","Dec-00","EB","no",,"yes","2020-08-08T12:38:00.000","40.68004","-73.977993","6","39","12902","3018852","3009380007","Park Slope-Gowanus"
"10059","{5A0F9168-3D6D-4179-89A6-5FDD32EB850C}","both","Fleming By Le Bilboquet","27 East Restaurant Holdings LLC","Fleming By Le Bilboquet","27","East 62nd Street","Manhattan","10065","27 East 62nd Street, Manhattan, NY","50078577","36","4","144","36","8","288","yes","yes","yes","Sep-75","OP","no",,"yes","2020-08-08T12:54:00.000","40.76537","-73.969781","8","4","11401","1040895","1013770024","Upper East Side-Carnegie Hill"
"1006","34271bf0-45e2-4881-8991-30f7842c5017","both","The Bronx Beer Hall","The Bronx Beer Hall","The Bronx Beer Hall","2344","Arthur Avenue","Bronx","10460","2344  Arthur Avenue , Bronx, NY","50042128","20","4","80","12","6","72","yes","yes","yes","1265496","TW","yes","yes","yes","2020-06-19T14:41:00.000","40.854247","-73.888674","6","15","391","2012125","2030730013","Belmont"
"10060","{D3D23D24-5613-49F8-883F-AE5BE6F9D031}","both","Cafe Bilboquet","26 East 60th Street Hospitality LLC","Cafe Bilboquet","26","East 60th Street","Manhattan","10022","26 East 60th Street, Manhattan, NY","50061117","12","4","48","12","8","96","yes","yes","yes","Jan-60","RW","no",,"yes","2020-08-08T13:01:00.000","40.764069","-73.97063","8","4","11401","1040760","1013740046","Upper East Side-Carnegie Hill"
"10061","{FFCD8EF6-21E4-4A77-88B5-2DED86BFEB1F}","sidewalk","MASK POT INC","MASK POT INC","MASK POT INC","13620","ROOSEVELT AVE","Queens","11354","13620 ROOSEVELT AVE, Queens, NY","50069477","5","5","25",,,,"yes","no","no",,,"no",,"yes","2020-08-08T13:15:00.000","40.759785","-73.829236","7","20","853","4113546","4050190005","Flushing"
"10062","{8FA3857C-DC6C-419D-8F27-5C1E6F12D821}","sidewalk","Tea and Burger","Wonderful Express Inc.","Tea and Burger","7202","New Utrecht Ave","Brooklyn","11228","7202 New Utrecht Ave, Brooklyn, NY","50039187","30","15","450",,,,"yes","no","no",,,"yes","yes","yes","2020-08-08T13:18:00.000","40.61809","-73.999308","11","43","190","3158360","3061910035","Bensonhurst West"
"10063","{9EC763BF-BA2A-4E00-88DF-20B8C6336A09}","sidewalk","MASK POT INC","MASK POT INC","MASK POT INC","4021","MAIN STREET","Queens","11354","4021 MAIN STREET, Queens, NY","50069477","5","5","25",,,,"yes","no","no",,,"no",,"yes","2020-08-08T13:35:00.000","40.758924","-73.829809","7","20","853","4113546","4050190005","Flushing"
"10064","{685C0A6A-1F8D-4398-8B9C-E558B03FD0E8}","sidewalk","TAKE YOUR HAND BROOKLYN INC","TAKE YOUR HAND BROOKLYN INC","TAKE YOUR HAND BROOKLYN INC","5701","8TH AVE STORE A","Brooklyn","11220","5701  8TH AVE STORE A, Brooklyn, NY","50099249","8","8","64",,,,"yes","no","no",,,"no",,"yes","2020-08-08T13:41:00.000","40.637108","-74.007865","12","38","104","3140168","3056930010","Sunset Park East"
"10065","{69D34ADC-77B6-4449-8567-CD4ECB6885E8}","both","Bar Culaccino","RTA Holdings LLC","Bar Culaccino","235","West 56th Street","Manhattan","10019","235  West 56th Street, Manhattan, NY","50087039","24","6","144","24","6","144","yes","yes","yes","Aug-81","TW","no",,"yes","2020-08-08T13:43:00.000","40.765611","-73.982322","5","3","137","1070014","1010287501","Midtown-Midtown South"
"10066","{8B7B81C3-E9E0-46B1-87F4-9C6A90098E5C}","sidewalk","Akino","Kendo Sushi Inc","Akino","82-80","Broadway","Queens","11373","82-80 Broadway, Queens, NY","50072230","20","15","300",,,,"yes","no","no",,,"no",,"yes","2020-08-08T13:57:00.000","40.741501","-73.880563","4","25","485","4439095","4015350095","Elmhurst-Maspeth"
"10067","{4D48DE2B-ABE9-4363-8709-ACBAE2A336C8}","both","Royal Falafel and shawarma","Royal Falafel and shawarma Inc.","Royal Falafel and shawarma Inc.","230","Calyer st","Brooklyn","11222","230  Calyer st , Brooklyn, NY","50087942","40","6","240","40","8","320","yes","yes","no",,,"no",,"yes","2020-08-08T14:02:00.000","40.7291","-73.950332","1","33","573","3065413","3026000012","Greenpoint"
"10068","{7929121A-ADA1-466F-8ADA-6FBC836AB048}","both","Chasers bar and grill","inbinginc","chasers","5980","58th rd","Queens","11378","5980 58th rd, Queens, NY","41395526","40","10","400","40","8","320","yes","yes","yes","Jun-84","OP","no",,"yes","2020-08-08T14:19:00.000","40.720491","-73.905561","5","30","525","4060285","4026980046","Maspeth"
"10069","{406182F2-FF8C-4CE8-8F24-CAD2D3500BC6}","sidewalk","Cholula Deli","Mi Pequena Cholula Deli","Mi Pequena Cholula Deli","1481","Myrtle Ave","Brooklyn","11237","1481 Myrtle Ave, Brooklyn, NY","41554812","25","8","200",,,,"yes","no","no",,,"yes","yes","yes","2020-08-08T14:27:00.000","40.698995","-73.916631","4","37","433","3075722","3033090037","Bushwick North"
"1007","acd6967e-22e5-434d-8397-355b839c6505","sidewalk","battista ristorante","battista ristorante corp","battista ristorante corp","4602","avenue N","Brooklyn","11234","4602 avenue N, Brooklyn, NY","50067599","25","15","375",,,,"yes","no","yes","1306387","OP","no",,"yes","2020-06-19T14:41:00.000","40.618714","-73.930599","18","46","674","3220816","3078910037","Flatlands"
"10070","{6F359CA4-CD41-40AF-80F2-30E9D3E78A80}","sidewalk","The Gem Saloon","East Drogheda Inc","The Gem Saloon","375","3rd Avenue","Manhattan","10016","375 3rd Avenue, Manhattan, NY","50058670","37","6","222",,,,"yes","no","yes","Dec-38","OP","no",,"yes","2020-08-08T14:28:00.000","40.741438","-73.981235","6","2","66","1019868","1009080001","Murray Hill-Kips Bay"
"10071","{89D50D55-5086-4DDE-8CA0-7B6AFC5A7D23}","sidewalk","cafe metro","162 bake, LLC","162 bake, LLC","162","56th street","Manhattan","10019","162 56th street , Manhattan, NY","50067418","30","9","270",,,,"yes","no","no",,,"no",,"yes","2020-08-08T15:05:00.000",,,,,,,,
"10072","{572FA49B-27D1-4ED3-843A-B80BB3E782B9}","sidewalk","fresh&co","475 bake, LLC","475 bake, LLC","475","lexington","Manhattan","10017","475 lexington, Manhattan, NY","50044051","20","8","160",,,,"yes","no","no",,,"no",,"yes","2020-08-08T15:15:00.000",,,,,,,,
"10073","{B946019D-351D-431A-85AB-2093E163BE23}","roadway","Angaar","3 Flow INC","3 Flow INC","283","Columbus ave","Manhattan","10022","283 Columbus ave, Manhattan, NY","50087688",,,,"30","8","240","no","yes","yes","Jun-01","OP","no",,"yes","2020-08-08T16:57:00.000","40.778278","-73.978148","7","6","157","1028649","1011260001","Lincoln Square"
"10074","{691B7417-B059-4B32-8BF3-1D5677F1A95A}","both","Helena Fusion Restaurant","El encuentro Inc","El encuentro Inc","8404","37th ave","Queens","11372","8404 37th ave , Queens, NY","50105381","13","18","234","13","8","104","yes","yes","yes","Nov-91","OP","yes","yes","yes","2020-08-08T17:06:00.000","40.749951","-73.882284","3","21","281","4036228","4014720001","Jackson Heights"
"10075","{C7326999-AD5E-401B-80AB-1BF0AB5C9204}","both","Wild Birds","Wild Birds LLC","Wild Birds","951","Dean St.","Brooklyn","11238","951 Dean St. , Brooklyn, NY","50101679","120","18","2160","34","7","238","yes","yes","yes","Apr-09","OP","no",,"yes","2020-08-08T17:10:00.000","40.678185","-73.958352","8","35","305","3027784","3011340097","Crown Heights North"
"10076","{8362237D-4B79-4C95-89A2-669FF54BE88B}","roadway","The Little One","Make It One Inc.","The Little One","150","East Broadway","Manhattan","10002","150  East Broadway, Manhattan, NY","50071476",,,,"10","8","80","no","yes","no",,,"no",,"yes","2020-08-08T17:41:00.000","40.714006","-73.990849","3","1","6","1003593","1002830066","Lower East Side"
"10077","{94287CCE-E1A4-490A-8653-A562151A8704}","openstreets","Taiwan Bear House","Little Fat Bear LLC","Taiwan Bear House","11","Pell","Manhattan","10013","11 Pell, Manhattan, NY","50035490",,,,,,,"no","no","no",,,"no",,"yes","2020-08-08T17:47:00.000","40.714739","-73.997681","3","1","29","1082460","1001620051","Chinatown"
"10078","{F50ABB54-9022-4194-8639-AF46A582DFE7}","both","Mingle Restaurant Inc","Mingle Restaurant Inc","Lucky Chen","13553","Northern Blvd","Queens","11354","13553  Northern Blvd, Queens, NY","50069847","52","4","208","52","8","416","yes","yes","yes","Oct-71","RW","no",,"yes","2020-08-09T08:54:00.000","40.763022","-73.831715","7","20","869","4112124","4049580044","Flushing"
"10079","{3307A5D9-49F2-4130-8257-898420D54075}","both","Silver Star Restaurant","1236 Second Avenue Restaurant Corp","Silver Star Restaurant","300 1/2","65th Street","Manhattan","10065","300 1/2  65th Street, Manhattan, NY","40736836","30","8","240","9","8","72","yes","yes","yes","May-20","OP","no",,"yes","2020-08-09T11:49:00.000",,,,,,,,
"1008","58fe606c-4c24-4784-88cc-07189d6fb293","sidewalk","Spot Dessert Bar","ACO BAKERY ST MARKS LLC","Spot Dessert Bar","3916","Prince Street","Queens","11354","3916 Prince Street , Queens, NY","50058388","12","4","48",,,,"yes","no","no",,,"no",,"yes","2020-06-19T14:42:00.000","40.759485","-73.832244","7","20","871","4539244","4049737501","Flushing"
"10080","{AE9FB02C-3DFB-40BD-8A6F-4A4C77B3B916}","sidewalk","Jobito Bronx","Jobito Bronx","Jobito Bronx","2001","Jerome ave","Bronx","10453","2001  Jerome ave , Bronx, NY","50102443","5","8","40",,,,"yes","no","no",,,"no",,"yes","2020-08-09T12:40:00.000","40.852916","-73.908178","5","14","243","2008405","2028630046","University Heights-Morris Heights"
"10081","{4076496F-BAD2-435B-8C29-46CD89CCDF5E}","both","Ben & Teena's Ice Cream","Ben & Teena's Ice Cream","Ben & Teena's Ice Cream","39-33","Bell Blvd","Queens","11361","39-33 Bell Blvd, Queens, NY","41473017","8","4","32","8","4","32","yes","yes","no",,,"no",,"yes","2020-08-09T13:03:00.000","40.764925","-73.771669","11","19","1123","4443817","4062410001","Bayside-Bayside Hills"
"10082","{0F916891-E0D2-46A1-89B0-3612A667235E}","roadway","Katie O's","Katie O's Inc.","Katie O's Inc.","452","East New York Avenue","Brooklyn","11225","452 East New York Avenue, Brooklyn, NY","50012038",,,,"30","8","240","no","yes","no",,,"no",,"yes","2020-08-09T13:14:00.000","40.661758","-73.947491","9","40","806","3106516","3047920001","Prospect Lefferts Gardens-Wingate"
"10083","{F3D223ED-E0B0-4C06-8857-39565B8CD406}","openstreets","Ben & Teena's Ice Cream","Ben & Teena's Ice Cream","Ben & Teena's Ice Cream","39-33","Bell Blvd","Queens","11361","39-33 Bell Blvd, Queens, NY","41473017",,,,,,,"no","no","no",,,"no",,"yes","2020-08-09T13:16:00.000","40.764925","-73.771669","11","19","1123","4443817","4062410001","Bayside-Bayside Hills"
"10084","{D72DC877-05B2-49C1-8464-CECDB2927606}","both","Tong","Tang Wang Ruay Inc.","Tong","321","Starr Street","Brooklyn","11237","321  Starr Street, Brooklyn, NY","50105198","32","7","224","32","8","256","yes","yes","no",,,"no",,"yes","2020-08-09T15:17:00.000","40.707742","-73.920497","4","34","447","3072636","3031900037","Bushwick North"
"10085","{414BB7F7-8A96-4274-8902-D505012E3B85}","both","CHA CHAN TANG","TEABISTRO","CHA CHAN TANG","42c","mott st","Manhattan","10013","42c mott st, Manhattan, NY","50083194","20","3","60","20","8","160","yes","yes","yes","Jun-08","OP","no",,"yes","2020-08-09T19:47:00.000","40.715175","-73.998748","3","1","29","1001786","1001630015","Chinatown"
"10086","{224BDEAB-0CE5-4775-8C43-A605DCB5F1F8}","both","cha chan tang","teabistro inc","cha chan tang","42c","mott st","Manhattan","10013","42c mott st, Manhattan, NY","50083194","20","8","160","20","8","160","yes","yes","yes","Jun-08","OP","no",,"yes","2020-08-09T19:54:00.000","40.715175","-73.998748","3","1","29","1001786","1001630015","Chinatown"
"10087","{1384C250-21C1-4BB2-86B4-E9D51BFE778A}","sidewalk","MOIC CAFE","1AND8 INC","MUSEUM OF ICE CREAM","96","CROSBY","Manhattan","10012","96 CROSBY, Manhattan, NY","50101357","48","4","192",,,,"yes","no","yes","Feb-18","OP","yes","yes","yes","2020-08-09T19:58:00.000","40.723437","-73.997341","2","1","43","1007566","1004970015","SoHo-TriBeCa-Civic Center-Little Italy"
"10088","{72BC734A-5FA5-4C99-8762-2E7BD452E753}","roadway","Deja Vu Restaurant and Bar","Deja Vu of Staten Island","Deja Vu of Staten Island","297","Port Richmond  Ave","Staten Island","10302","297 Port Richmond  Ave, Staten Island, NY","50072745",,,,"30","6","180","no","yes","yes","Oct-87","OP","yes","yes","yes","2020-08-09T21:43:00.000","40.634319","-74.135862","1","49","213","5024271","5010370003","Port Richmond"
"10089","{A2F050ED-3D48-42E2-82C0-EBEA74720CD9}","both","Bayside Diner","207-07 Northern Boulevard Rest Corp","Bayside Diner","207-07","Northern Boulevard","Queens","11361","207-07 Northern Boulevard, Queens, NY","41601943","75","6","450","50","8","400","yes","yes","yes","Jun-33","OP","no",,"yes","2020-08-10T02:12:00.000","40.758517","-73.776301","11","19","1467","4138113","4062740020","Bayside-Bayside Hills"
"1009","02a63244-7ec4-4712-8921-fb319e1c215a","both","Morning Star Cafe","Morningstar Cafe Inc","Morningstar Cafe Inc","949","2nd Ave","Manhattan","10022","949  2nd Ave, Manhattan, NY","40609590","20","8","160","20","11","220","yes","yes","yes","1117074","RW","no",,"yes","2020-06-19T14:22:00.000","40.755121","-73.968356","6","4","98","1038459","1013240124","Turtle Bay-East Midtown"
"10090","{5728BCFF-7627-42ED-8E91-212D6E1B05B7}","both","Sweet Chick","Sweet Chick Vernon LLC","Sweet Chick","4642","Vernon Blvd","Queens","11101","4642 Vernon Blvd, Queens, NY","50075224","28","16","448","30","8","240","yes","yes","yes","Oct-79","OP","no",,"yes","2020-08-10T06:23:00.000","40.745956","-73.953033","2","26","7","4000045","4000280003","Hunters Point-Sunnyside-West Maspeth"
"10091","{E08F666B-9849-48B6-8395-CCF6DFCAA7D4}","both","Sweet Chick","Sweet Chick Vernon LLC","Sweet Chick Vernon LLC","46-42","Vernon Blvd","Queens","11101","46-42 Vernon Blvd, Queens, NY","50075224","25","18","450","30","8","240","yes","yes","yes","Oct-79","OP","no",,"yes","2020-08-10T06:31:00.000","40.745956","-73.953033","2","26","7","4000045","4000280003","Hunters Point-Sunnyside-West Maspeth"
"10092","{CC212DCE-D58F-4C3E-8FDC-2E4C52A84171}","both","Fresh Salt","Manhattan Island Group LLC","Manhattan Island Group LLC","146","Beekman Street","Manhattan","10038","146 Beekman Street, Manhattan, NY","41046488","30","6","180","30","8","240","yes","yes","yes","Mar-53","OP","yes","yes","yes","2020-08-10T08:24:00.000","40.707026","-74.002575","1","1","1501","1078978","1000970015","Battery Park City-Lower Manhattan"
"10093","{356F0EBE-7748-4DEB-8CEA-EDFD8977DC85}","sidewalk","New Beach Bar LLC","New Beach Bar LLC","New Beach Bar LLC","2722","Gerritsen Ave","Brooklyn","11229","2722 Gerritsen Ave, Brooklyn, NY","50104443","20","15","300",,,,"yes","no","yes","Nov-20","OP","no",,"yes","2020-08-10T10:45:00.000","40.592772","-73.92507","15","46","628","3249798","3089250180","Sheepshead Bay-Gerritsen Beach-Manhattan Beach"
"10094","{21DF0220-8C1F-4F1E-8EE7-14C66F80045A}","sidewalk","New Beach BAr LLC","New Beach Bar LLC","New Beach Bar LLC","2722","Gerritsen Ave","Brooklyn","11229","2722 Gerritsen Ave, Brooklyn, NY","50104443","20","15","300",,,,"yes","no","yes","Nov-20","OP","no",,"yes","2020-08-10T10:49:00.000","40.592772","-73.92507","15","46","628","3249798","3089250180","Sheepshead Bay-Gerritsen Beach-Manhattan Beach"
"10095","{10BFE491-26B3-4081-8ABA-664E738C8BAD}","both","Veselka Restauant","Veselka Enterprises","Veselka Enterprises","144","Second Avenue","Manhattan","10003","144  Second Avenue, Manhattan, NY","40384528","112","6","672","72","8","576","yes","yes","yes","Jan-17","RW","no",,"yes","2020-08-10T11:27:00.000","40.729093","-73.987303","3","2","38","1006363","1004500008","East Village"
"10096","{B2DF6704-044B-47C1-89F9-E46218438B00}","sidewalk","The Parlour","Cobra Restaurant Inc.","Cobra Restaurant Inc.","250 West","86th Street","Manhattan","10024","250 West 86th Street, Manhattan, NY","40591422","50","3","150",,,,"yes","no","yes","Aug-12","OP","no",,"yes","2020-08-10T12:43:00.000","40.788491","-73.976942","7","6","171","1081052","1012330011","Upper West Side"
"10097","{E4E50979-B2B1-4DDA-8808-069C51B6D7F6}","both","Bakestone Bakery","Bread Gallery Inc","Bread Gallery Inc","190","Nassau Ave","Brooklyn","11222","190 Nassau Ave, Brooklyn, NY","50100998","66","8","528","66","8","528","yes","yes","no",,,"no",,"yes","2020-08-10T12:54:00.000","40.725499","-73.945478","1","33","571","3066981","3026850007","Greenpoint"
"10098","{8BDEB261-2CDA-4892-8860-3C5EE0056089}","openstreets","BAR NANA","SLJ BAR LLC","BAR NANA","63","GANSEVOORT ST.","Manhattan","10014","63  GANSEVOORT ST., Manhattan, NY","50002488",,,,,,,"no","no","yes","Aug-80","OP","yes","yes","yes","2020-08-10T12:59:00.000","40.739397","-74.007282","2","3","79","1080263","1006440043","West Village"
"10099","{EE8842B8-FA19-4FE4-8903-76FB3B762F50}","both","lobster house","red panda asian bistro inc","lobster house","9525","queens blvd","Queens","11374","9525 queens blvd, Queens, NY","41719158","65","6","390","75","8","600","yes","yes","yes","Jan-87","OP","no",,"yes","2020-08-10T13:00:00.000","40.730605","-73.863635","6","29","71701","4050410","4020790001","Rego Park"
"101","c98d4c63-931e-4771-890b-5d125ec4d426","both","New York City Bagel and Coffee House","NYCBCH29-10Corp","New York City and Bagel and Coffee Hiouse","29-10","Broadway","Queens","11106","29-10 Broadway, Queens, NY","50074054","16","22","352","4","22","88","yes","yes","no",,,"no",,"yes","2020-06-19T11:09:00.000","40.762636","-73.926818","1","22","53","4617928","4005867501","Astoria"
"1010","03d43066-a536-4381-8da2-f20146f4302a","both","Osteria Laura NYC","23 Winehouse LLC","23 Winehouse LLC","1890","Adam Clayton Powell Jr. Blvd.","Manhattan","10026","1890 Adam Clayton Powell Jr. Blvd., Manhattan, NY","50084955","27","11","297","27","8","216","yes","yes","yes","1313435","OP","no",,"yes","2020-06-19T14:37:00.000","40.802254","-73.953243","10","9","218","1055206","1018307503","Central Harlem South"
"10100","{8C451436-81AB-4E43-8D1F-1421E6EDC0F4}","sidewalk","The 13th Step","149 Second Ave Rest Inc","The 13th Step","149","Second Ave","Manhattan","10003","149 Second Ave, Manhattan, NY","41468453","62","11","682",,,,"yes","no","yes","Dec-88","OP","no",,"yes","2020-08-10T13:37:00.000","40.72937","-73.987123","3","2","40","1006799","1004650053","East Village"
"10101","{D1BB9747-C3C6-4959-88A6-79D526EB9A3B}","roadway","THREE DECKER RESTAURANT LTD","THREE DECKER RESTAURANT LTD","THREE DECKER RESTAURANT LTD","1746","2ND AVENUE","Manhattan","10128","1746 2ND AVENUE , Manhattan, NY","40401821",,,,"90","7","630","no","yes","yes","Aug-21","RW","no",,"yes","2020-08-10T13:48:00.000","40.781016","-73.949441","8","5","154","1050200","1015530049","Yorkville"
"10102","{0CEFE983-F4F2-450B-8BA1-79DDCE0ED56B}","both","Watawa","Watawa Inc","Watawa Inc","33-10","Ditmars blvd","Queens","11105","33-10  Ditmars blvd, Queens, NY","41395934","40","10","400","40","8","320","yes","yes","yes","May-44","OP","no",,"yes","2020-08-10T13:56:00.000","40.775283","-73.909513","1","22","117","4017042","4008320155","Steinway"
"10103","{06D154A4-0B6B-4A5E-8AFA-F2AE0A0008B7}","sidewalk","Hilltop Perk Cafe","Hilltop Perk Cafe Corporation","Hilltop Perk Cafe Corporation","83","Haven Ave.","Manhattan","10034","83 Haven Ave., Manhattan, NY","50072407","20","13","260",,,,"yes","no","no",,,"no",,"yes","2020-08-10T14:26:00.000","40.84427","-73.942562","12","10","255","1063411","1021390166","Washington Heights South"
"10104","{19A72CDC-BA02-4383-817A-023951E9190B}","sidewalk","Luscious Thai","Phaya Cuisine Inc","Luscious Thai","1099","1 Ave.","Manhattan","10065","1099 1 Ave., Manhattan, NY","50035991","10","4","40",,,,"yes","no","yes","Mar-23","OP","yes","yes","yes","2020-08-10T14:36:00.000","40.760391","-73.961416","8","5","110","1044205","1014350024","Lenox Hill-Roosevelt Island"
"10105","{CF6505C0-33A1-43C8-894E-486B3864EF85}","roadway","Bordeaux","Bordeaux LLC","Bordeaux","1922-24","Coney island ave","Brooklyn","11230","1922-24  Coney island ave , Brooklyn, NY","50035140",,,,"60","8","480","no","yes","yes","May-20","OP","no",,"yes","2020-08-10T14:58:00.000","40.610695","-73.962521","12","44","420","3175213","3066170042","Homecrest"
"10106","{4A3E4F12-06B5-40B4-85AD-FD2FD6CCD6CE}","both","SEVEN CHINA","S & Y FAMILY INC","S & Y FAMILY INC","22134","HORACE HARDING EXPY","Queens","11364","22134 HORACE HARDING EXPY, Queens, NY","50087740","20","20","400","20","8","160","yes","yes","yes","May-07","RW","no",,"yes","2020-08-10T15:09:00.000","40.749362","-73.755525","11","23","1377","4163157","4076440033","Oakland Gardens"
"10107","{AC98E77F-DD30-4D53-88CD-5712AF5FEE63}","sidewalk","Juice Generation","Juice Generation Cafe Group Inc","Juice Generation Cafe","97","Greenwich Avenue","Manhattan","10014","97 Greenwich Avenue , Manhattan, NY","41583233","53","14","742",,,,"yes","no","no",,,"no",,"yes","2020-08-10T15:17:00.000","40.737496","-74.001671","2","3","77","1011017","1006150029","West Village"
"10108","{DC2D3953-BA67-4D82-8385-2F2B60BCA052}","openstreets","mk","mk karaoke llc","MK","11","WEST 32Nd st","Manhattan","10001","11  WEST 32Nd st, Manhattan, NY","41722462",,,,,,,"no","no","yes","Oct-70","OP","no",,"yes","2020-08-10T15:50:00.000","40.747414","-73.986091","5","4","76","1015850","1008340033","Midtown-Midtown South"
"10109","{E39DF9BD-0E56-42B8-8951-2CC9FD8A40F5}","both","Woorijip","Jin Go Gae Inc.","Woorjiip","12","West 32nd Street","Manhattan","10001","12 West 32nd Street, Manhattan, NY","41280221","12","6","72","18","8","144","yes","yes","yes","Nov-34","RW","no",,"yes","2020-08-10T15:51:00.000","40.747475","-73.986278","5","4","76","1015826","1008330052","Midtown-Midtown South"
"1011","1254d70e-9a6f-46dd-8708-6dfe0d5ed1c0","both","Vinnie's Pizzeria","Rikovi & Sean Ltd","Rikovi & Sean Ltd","148","Bedford Ave","Brooklyn","11249","148 Bedford Ave, Brooklyn, NY","41250435","9","5","45","13","5","65","yes","yes","no",,,"no",,"yes","2020-06-19T14:40:00.000","40.718815","-73.956689","1","33","517","3061787","3023110022","North Side-South Side"
"10110","{1C58C168-9BE4-4713-8C81-BC8853C98998}","sidewalk","Vanilla Gorilla Cafe","Vanilla Gorilla Cafe","Vanilla Gorilla Cafe","332 W","44th st","Manhattan","10036","332 W 44th st , Manhattan, NY","50090039","27","2","54",,,,"yes","no","no",,,"no",,"yes","2020-08-10T16:33:00.000","40.758978","-73.989922","4","3","121","1024974","1010340048","Clinton"
"10111","{6CB6DBDB-D5BC-455A-8804-10CCAC453444}","both","Spice","Spice Corncer 236 INC.","Spice","1479","1st Ave","Manhattan","10075","1479 1st Ave , Manhattan, NY","41542801","25","8","200","25","8","200","yes","yes","yes","Feb-16","OP","no",,"yes","2020-08-10T16:34:00.000","40.771123","-73.95359","8","5","134","1045209","1014520023","Lenox Hill-Roosevelt Island"
"10112","{024D1717-2772-4B0F-817B-EE2808EB7C3D}","sidewalk","Thailands Center Point","Anandhara Inc","Anandhara Inc","6319","39th Ave","Queens","11377","6319  39th Ave , Queens, NY","50100213","40","6","240",,,,"yes","no","no",,,"no",,"yes","2020-08-10T16:37:00.000","40.746626","-73.900464","2","26","261","4027929","4012180001","Woodside"
"10113","{4636527E-956E-4C5F-86E6-302B7E83A65A}","both","Congee Village","Congee Village Restaurant & Bar Inc.","Congee Village","100","Allen Street","Manhattan","10002","100 Allen Street, Manhattan, NY","50005601","42","5","210","42","7","294","yes","yes","yes","Mar-87","OP","no",,"yes","2020-08-10T17:23:00.000","40.71868","-73.990631","3","1","18","1005472","1004140054","Chinatown"
"10114","{E661FB4C-2981-4AF0-863C-F873CAA5C02A}","sidewalk","Prince Tea House","Flushing Tea House","Prince Tea House","3639","Prince Street","Queens","11354","3639 Prince Street, Queens, NY","50097276","2","16","32",,,,"yes","no","no",,,"no",,"yes","2020-08-10T17:42:00.000","40.761372","-73.832867","7","20","869","4539690","4049710003","Flushing"
"10115","{5DBB4618-3110-449D-87A8-D94CD05CD9CB}","both","SCALINO G.P.","MATTEO & VIDA, INC.","SCALINO G. P.","659","MANHATTAN AVE","Brooklyn","11222","659 MANHATTAN AVE, Brooklyn, NY","50006098","20","3","60","20","8","160","yes","yes","yes","May-90","OP","no",,"yes","2020-08-10T18:31:00.000","40.724599","-73.951273","1","33","569","3066068","3026450122","Greenpoint"
"10116","{DFEB2E84-C151-4A78-8F9D-529ABCB3456F}","both","FUYU RAMEN & SAKE","FUYU RAMEN & SAKE","FUYU RAMEN & SAKE","46-17","Queens blvd","Queens","11104","46-17 Queens blvd, Queens, NY","50087029","8","3","24","24","8","192","yes","yes","yes","May-99","RW","no",,"yes","2020-08-10T18:36:00.000","40.743135","-73.918449","2","26","25301","4001321","4001410047","Hunters Point-Sunnyside-West Maspeth"
"10117","{F1FF29CA-282C-411E-8EB1-AD6E3B0CA2FB}","roadway","Pico de Gallo Restaurant","El Tecolote Corp","Pico De Gallo Restaurant","8009","Roosevelt Ave","Queens","11372","8009 Roosevelt Ave, Queens, NY","50089515",,,,"15","4","60","no","yes","yes","Jun-93","OP","no",,"yes","2020-08-10T18:38:00.000","40.747468","-73.885598","3","25","283","4029998","4012910043","Jackson Heights"
"10118","{2F642F94-BF8B-49DA-8DEA-799A000B89C4}","both","Pollo Campero","Pollo Campero of New York, LLC","Pollo Campero of New York, LLC","4518","5TH Ave","Brooklyn","11220","4518  5TH Ave, Brooklyn, NY","50044006","16","3","48","16","8","128","yes","yes","no",,,"no",,"yes","2020-08-10T18:40:00.000","40.647755","-74.007575","7","38","80","3011566","3007470044","Sunset Park West"
"10119","{0EC9B00D-6D21-4E6A-816D-C76515B39353}","both","SUteiShi","Slammers Inc","SUteiShi Restaurant","24","Peck Slip","Manhattan","10038","24 Peck Slip, Manhattan, NY","41219569","50","8","400","15","8","120","yes","yes","yes","Dec-32","RW","yes","yes","yes","2020-08-10T18:41:00.000","40.708025","-74.001789","1","1","1501","1087577","1000970032","Battery Park City-Lower Manhattan"
"1012","5be2bf16-1d12-4a3b-8a48-e9b931e8bf6d","both","TAKE AWAY AND CAFE INC.","TAKE AWAY AND CAFE INC.","1974","7006","3 RD AVE","Brooklyn","11209","7006 3 RD AVE, Brooklyn, NY","41486182","20","18","360","20","8","160","yes","yes","no",,,"no",,"yes","2020-06-19T14:33:00.000",,,,,,,,
"10120","{32190EA7-0326-4E26-8BC1-B0957E66DC0D}","both","Pico De Gallo Restaurant","El Tecolote Corp","Pico De Gallo Restaurant","8009","Roosevelt Avenue","Queens","11372","8009 Roosevelt Avenue, Queens, NY","50089515","15","4","60","15","4","60","yes","yes","yes","Jun-93","OP","no",,"yes","2020-08-10T18:42:00.000","40.747468","-73.885598","3","25","283","4029998","4012910043","Jackson Heights"
"10121","{D47CBF68-C528-4D1B-8861-67F2AB175031}","roadway","SHAN FENG HOUSE INC","SHAN FENG HOUSE INC","SHAN FENG HOUSE INC","102","13342 39TH AVE","Queens","11354","102 13342 39TH AVE, Queens, NY","50093238",,,,"25","8","200","no","yes","yes","Jun-18","RW","no",,"yes","2020-08-10T19:02:00.000",,,,,,,,
"10122","{79350F80-3469-49E7-8AC4-CDFC385A2AD6}","roadway","4 Charles Prime Rib","4 Charles Street Restaurant LLC","4 Charles Prime Rib","4","Charles St","Manhattan","10014","4 Charles St, Manhattan, NY","50058113",,,,"14","8","112","no","yes","yes","Aug-41","OP","yes","yes","yes","2020-08-10T19:12:00.000","40.735261","-74.00061","2","3","71","1010849","1006110056","West Village"
"10123","{F0019916-49E7-46F3-8F48-9C8DCB8DB0FA}","both","Tina Bar Restaurant","Tina Bar Restaurant","Tina Bar Restaurant","2350","Washington Ave","Bronx","10456","2350  Washington Ave , Bronx, NY","50007162","20","9","180","20","8","160","yes","yes","yes","Dec-94","OP","no",,"yes","2020-08-10T21:35:00.000","40.856525","-73.892022","6","15","385","2011634","2030530081","Claremont-Bathgate"
"10124","{34AEE218-465F-4393-8D65-0ADF8C1A43AE}","both","WOLFGANG'S STEAKHOUSE","WOLF WESTSIDE LLC","WOLFGANG'S STEAKHOUSE","620","8TH AVE","Manhattan","10018","620 8TH AVE, Manhattan, NY","41625945","100","14","1400","100","8","800","yes","yes","yes","Dec-43","RW","no",,"yes","2020-08-10T21:55:00.000","40.756039","-73.990651","5","3","113","1087186","1010127501","Midtown-Midtown South"
"10125","{119A820D-A450-418D-8AD1-4A9E41261A3F}","sidewalk","Ramen DANBO","Heart Connection USA Inc","Ramen DANBO","48","Carmine st","Manhattan","10014","48 Carmine st, Manhattan, NY","50101581","19","18","342",,,,"yes","no","no",,,"yes","yes","yes","2020-08-10T22:36:00.000","40.729997","-74.003482","2","3","67","1008358","1005270058","West Village"
"10126","{E78B5A70-E979-4E7E-8F5B-DAA407CD463E}","both","Milk Money Kitchens Annex","Milk Money Kitchens Annex LLC","The Pop-Up & Pantry by Milk Money Kitchens","50","Avenue A","Manhattan","10009","50  Avenue A, Manhattan, NY","50105221","15","6","90","10","8","80","yes","yes","no",,,"no",,"yes","2020-08-11T00:11:00.000","40.723979","-73.985031","3","2","32","1075879","1003997501","East Village"
"10127","{2EE698E5-4702-4698-8776-6ABD10BCE8C1}","sidewalk","Sushi Ren","Renzan Sushi Corporation","Renzan Sushi Corporation","1584","2nd Ave","Manhattan","10028","1584 2nd Ave, Manhattan, NY","50037443","80","12","960",,,,"yes","no","yes","Jan-16","OP","no",,"yes","2020-08-11T01:36:00.000","40.775438","-73.953507","8","5","138","1049872","1015450001","Yorkville"
"10128","{B6794264-5922-475A-8E4B-1FF1B05FFB85}","openstreets","The Hamilton","Tannadice LLC","Tannadice LLC","998","Amsterdam Avenue","Manhattan","10025","998 Amsterdam Avenue, Manhattan, NY","50043772",,,,,,,"no","no","yes","Dec-30","OP","no",,"yes","2020-08-11T09:24:00.000","40.802562","-73.964176","7","7","195","1056713","1018810032","Morningside Heights"
"10129","{59D11554-C819-4A1B-8661-1A0E001D33D5}","sidewalk","The Hamilton","Tannadice LLC","Tannadice LLC","998","Amsterdam Avenue","Manhattan","10025","998  Amsterdam Avenue, Manhattan, NY","50043772","12","8","96",,,,"yes","no","yes","Dec-30","OP","no",,"yes","2020-08-11T09:29:00.000","40.802562","-73.964176","7","7","195","1056713","1018810032","Morningside Heights"
"1013","5110fb8b-9e66-4dea-81d7-f1d608b5855e","sidewalk","Brian Dempsey's","BJR Restaurant Inc.","Brian Dempsey's","39-31","Bell Blvd","Queens","11361","39-31  Bell Blvd , Queens, NY","41216872","12","30","360",,,,"yes","no","yes","1172437","OP","no",,"yes","2020-06-19T14:42:00.000","40.764939","-73.77168","11","19","1123","4443817","4062410001","Bayside-Bayside Hills"
"10130","{238E0C84-0AD1-43E0-8A41-1CA6B17E329C}","sidewalk","TOSOCCHON","G & J Restaurant Corp","TOSOCCHON","45-30","Bell Blvd","Queens","11361","45-30  Bell Blvd, Queens, NY","50056201","43","20","860",,,,"yes","no","yes","Oct-51","RW","no",,"yes","2020-08-11T10:53:00.000","40.759406","-73.768858","11","19","1447","4156901","4073140027","Bayside-Bayside Hills"
"10131","{1B298B4A-71A8-4FE1-884A-C96958B5229F}","both","Supermoon Bakehouse","Bakerboy LLC","Bakerboy LLC","120","Rivington Street","Manhattan","10002","120 Rivington Street, Manhattan, NY","50064836","18","12","216","18","8","144","yes","yes","no",,,"no",,"yes","2020-08-11T11:03:00.000","40.719755","-73.987262","3","1","3001","1004321","1003540037","Chinatown"
"10132","{358E03BF-B9FB-497B-8FB9-0E470AA36639}","both","Mallys'DELI Grocery CORP","Mallys'DELI grocery  CORP","Mallys'DELI grocery  CORP","199","Knickerbocker","Brooklyn","11237","199 Knickerbocker , Brooklyn, NY","50036711","23","17","391","23","8","184","yes","yes","yes","Sep-85","EB","yes","yes","yes","2020-08-11T13:21:00.000","40.703528","-73.92663","4","34","427","3072343","3031750006","Bushwick North"
"10133","{505544FC-1721-4755-8C04-7336B4456EFE}","sidewalk","Upi Jaya","Upi Yuliastuti Restaurant Inc","Upi Yuliastuti Restaurant Inc","7604","Woodside Ave","Queens","11373","7604 Woodside Ave, Queens, NY","50070567","14","8","112",,,,"yes","no","no",,,"no",,"yes","2020-08-11T13:37:00.000","40.74342","-73.888712","4","25","483","4037782","4015220002","Elmhurst-Maspeth"
"10134","{753CC3F6-D91F-4B16-8836-F959FC38AF36}","sidewalk","House Of Flava'","Flava Cuisine LLC","Flava Cuisine LLC","920A","E 233rd Street","Bronx","10466","920A  E 233rd Street , Bronx, NY","50086892","8","8","64",,,,"yes","no","no",,,"no",,"yes","2020-08-11T13:51:00.000","40.891331","-73.850816","12","12","424","2064799","2048680052","Williamsbridge-Olinville"
"10135","{A17550E8-CA9F-4D84-8DF1-439F7280766D}","both","Mansion","Rafina Restaurant Corp","Mansion","46-11","Broadway","Queens","11103","46-11  Broadway , Queens, NY","50072811","68","16","1088","40","8","320","yes","yes","yes","Oct-75","OP","no",,"yes","2020-08-11T13:55:00.000","40.756644","-73.914028","1","26","153","4013163","4007240004","Astoria"
"10136","{DF8B84A2-77F3-49FC-8A4C-3E0E3A50BA34}","both","Mansion","Rafina Restaurant Corp","Mansion","46-11","Broadway","Queens","11103","46-11  Broadway , Queens, NY","50072811","68","16","1088","40","8","320","yes","yes","yes","Oct-75","OP","no",,"yes","2020-08-11T14:04:00.000","40.756644","-73.914028","1","26","153","4013163","4007240004","Astoria"
"10137","{B6E7F6FA-D36C-4CB6-8648-93DB59C36F40}","both","GEO SI GI","GRILL ON BBQ CORP","GEO SI GI","152-28","NORTHERN BLVD","Queens","11354","152-28 NORTHERN BLVD, Queens, NY","50100933","10","4","40","10","8","80","yes","yes","yes","Jul-21","RW","no",,"yes","2020-08-11T14:13:00.000","40.764897","-73.812144","7","20","1155","4119195","4052660012","Murray Hill"
"10138","{CC28147E-D065-4F80-831F-47AD32E2E4F5}","both","Lima 33","Lima 33 inc.","Lima 33 inc.","254-04","Northern Blvd","Queens","11362","254-04 Northern Blvd, Queens, NY","50004183","46","6","276","47","8","376","yes","yes","yes","Mar-93","RW","no",,"yes","2020-08-11T14:28:00.000","40.771563","-73.734724","11","19","150702","4171536","4082600022","Douglas Manor-Douglaston-Little Neck"
"10139","{CB0789B5-B6FF-43E8-89BC-F2E84DB739E5}","both","Kazunori the Original Handroll Bar","KAZUNORI 28th Street LLC.","KAZUNORI 28th Street LLC.","15","W. 28th St.","Manhattan","10001","15 W. 28th St., Manhattan, NY","50057977","20","13","260","20","8","160","yes","yes","yes","Nov-73","RW","no",,"yes","2020-08-11T14:51:00.000","40.74515","-73.988383","5","4","76","1015728","1008300030","Midtown-Midtown South"
"1014","c10a9901-112c-46df-8efb-e601782e398a","both","Claret Wine Bar","46 02 Skillman Cafe LLC","46 02 Skillman Cafe LLC","4602","Skillman Avenue","Queens","11104","4602  Skillman Avenue, Queens, NY","41382696","68","7","476","68","8","544","yes","yes","yes","1265108","OP","no",,"yes","2020-06-19T14:39:00.000","40.74654","-73.917863","2","26","25301","4001250","4001370027","Hunters Point-Sunnyside-West Maspeth"
"10140","{A47D5AF3-C552-4EC0-80A8-868365BA3700}","sidewalk","SUBWAY","Trading post of 2nd avenue, inc","SUBWAY","5407","2nd avenue","Brooklyn","11220","5407 2nd avenue, Brooklyn, NY","41625990","14","20","280",,,,"yes","no","no",,,"no",,"yes","2020-08-11T14:52:00.000","40.646741","-74.019358","7","38","22","3391747","3008217503","Sunset Park West"
"10141","{D760F0B3-78D7-46F3-81F3-4B9C036F5A34}","sidewalk","Kushi Izakaya Restaurant, Inc","Kushi Izakaya Restaurant, Inc","Kushi Izakaya Restaurant, Inc","1934","86th Street","Brooklyn","11214","1934 86th Street, Brooklyn, NY","50085329","18","10","180",,,,"yes","no","yes","Sep-96","RW","no",,"yes","2020-08-11T15:10:00.000","40.605392","-73.999582","11","47","284","3166812","3063730046","Bensonhurst West"
"10142","{7B2532AF-7B0A-41AA-8EC9-211A066B7EFA}","sidewalk","MrChow","TC Ventures Inc","TC Ventures Inc","324","East 57th Street","Manhattan","10022","324  East 57th Street, Manhattan, NY","40742056","35","5","175",,,,"yes","no","yes","Feb-43","OP","no",,"yes","2020-08-11T15:13:00.000","40.758855","-73.964243","6","5","108","1039990","1013490041","Turtle Bay-East Midtown"
"10143","{420D9988-DE38-4097-8A6B-DC2C57E58007}","both","Gt Kingston Diner","Gt Kingston Diner Inc","Gt Kingston Diner Inc","109 08","Liberty Ave","Queens","11419","109 08  Liberty Ave , Queens, NY","50092545","21","8","168","21","8","168","yes","yes","yes","Oct-96","OP","no",,"yes","2020-08-11T15:32:00.000","40.684147","-73.832628","10","28","96","4202337","4095320004","South Ozone Park"
"10144","{5769D38F-E4F3-44B3-8797-A98874D987CF}","sidewalk","Fred's","Upper West Rest. Corp.","Fred's","476","Amsterdam Avenue","Manhattan","10024","476 Amsterdam Avenue, Manhattan, NY","40592566","57","12","684",,,,"yes","no","yes","Nov-12","OP","yes","yes","yes","2020-08-11T15:58:00.000","40.785598","-73.976553","7","6","171","1032771","1012300133","Upper West Side"
"10145","{125A71BA-6C13-43EC-847E-C1D45A082D44}","both","Kasumi Sushi & BBQ Restaurant","Kobe 1 Inc.","Kobe 1 Inc.","1870","86 Street","Brooklyn","11214","1870 86 Street, Brooklyn, NY","50000980","19","19","361","19","8","152","yes","yes","yes","Nov-33","RW","no",,"yes","2020-08-11T16:11:00.000","40.606257","-74.001008","11","47","278","3166702","3063710049","Bensonhurst West"
"10146","{4D4624C3-5CA9-4F69-8AE5-DFA9C4F21FFB}","sidewalk","TORTILLERA Y TAQUERIA LENCHITA CORP","TORTILLERIA Y TAQUERIA LENCHITA CORP","TORTILLERIA Y TAQUERIA LENCHITA CORP","618","EAST 183RD STREET","Bronx","10458","618 EAST 183RD STREET, Bronx, NY","50085429","28","15","420",,,,"yes","no","no",,,"no",,"yes","2020-08-11T16:25:00.000","40.852855","-73.888521","6","15","391","2012089","2030710047","Belmont"
"10147","{5B3C6A50-FF98-48BF-89E0-D8391BA3EA39}","roadway","TORTILLERIA Y TAQUERIA LENCHITA CORP","TORTILLERIA Y TAQUERIA LENCHITA CORP","TORTILLERIA Y TAQUERIA LENCHITA CORP","618","EAST 183RD STREET","Bronx","10458","618 EAST 183RD STREET, Bronx, NY","50085429",,,,"28","8","224","no","yes","no",,,"no",,"yes","2020-08-11T16:30:00.000","40.852855","-73.888521","6","15","391","2012089","2030710047","Belmont"
"10148","{84A69493-B04E-4B98-8CF7-92AD00BA2C8C}","both","ASTROS FOOD CORP","ASTROS FOOD CORP","ATHEN'S GRILL & RESTAURANT","30-11","30th ave","Queens","11103","30-11  30th ave, Queens, NY","41198981","16","6","96","15","6","90","yes","yes","yes","Apr-37","OP","no",,"yes","2020-08-11T16:51:00.000","40.767195","-73.922018","1","22","71","4007684","4005950006","Old Astoria"
"10149","{46CD67BB-A2D8-4CF3-8410-70C0F4105BA5}","sidewalk","GRECA","TRIBECA BAKERY","TRIBECA BAKERY","452","Washington Street","Manhattan","10013","452  Washington Street, Manhattan, NY","50072404","150","12","1800",,,,"yes","no","yes","May-65","OP","no",,"yes","2020-08-11T17:02:00.000","40.723994","-74.010268","1","1","39","1000000","1002240001","SoHo-TriBeCa-Civic Center-Little Italy"
"1015","6ecaf578-de2c-42f8-8b8a-9ba271ab36f7","both","Zara Cafe Grill","1995 Hylan Restaurant Corp","1995 Hylan Restaurant Corp","1995","Hylan","Staten Island","10306","1995 Hylan, Staten Island, NY","50070120","55","15","825","45","8","360","yes","yes","yes","1314151","RW","no",,"yes","2020-06-19T14:44:00.000",,,,,,,,
"10150","{1BBF14D4-1E2B-4ADB-8A90-89307E75D610}","openstreets","Shanghai Red","127 Westchester Square LLC","127 Westchester Square LLC","127-129","Westchester Ave","Bronx","10461","127-129 Westchester Ave, Bronx, NY","50083283",,,,,,,"no","no","no",,,"no",,"yes","2020-08-11T17:02:00.000","40.840252","-73.842499","10","13","96","2128715","2038590011","Westchester-Unionport"
"10151","{4198740B-C3D9-48AB-8B62-5DE64CA0AD3A}","roadway","Golden Imperial Palace","Golden Imperial Palace","Golden Imperial Palace","618","62nd Street","Brooklyn","11220","618 62nd Street, Brooklyn, NY","41687397",,,,"100","8","800","no","yes","no",,,"no",,"yes","2020-08-11T17:18:00.000","40.636638","-74.014542","7","38","118","3339452","3058020001","Sunset Park East"
"10152","{D5EAD739-D6C8-4F9E-8CCE-9924A4AEA9EF}","roadway","Chef Guo","Chef Guo INC","Chef Guo INC","8329","Broadway","Queens","11373","8329  Broadway , Queens, NY","50072842",,,,"45","8","360","no","yes","yes","Jun-98","RW","yes","yes","yes","2020-08-11T17:44:00.000","40.740679","-73.879413","4","25","471","4314500","4015800103","Elmhurst"
"10153","{65ABEFCA-60D0-42B8-8F9B-DA15AE0DDF82}","both","Loving Hut","Loving Hut Williamsburg, Inc.","Loving Hut Williamsburg, Inc.","76","Bushwick Avenue","Brooklyn","11211","76  Bushwick Avenue, Brooklyn, NY","50005889","50","8","400","24","8","192","yes","yes","no",,,"no",,"yes","2020-08-11T18:53:00.000","40.712511","-73.940977","1","34","495","3338198","3027840015","East Williamsburg"
"10154","{57C954C9-300A-4C8D-8A21-00FB21426A16}","both","Kampai Hibachi LLC","Kampai Hibachi LLC","Kampai Hibachi","185-01","Union Turnpike","Queens","11366","185-01 Union Turnpike, Queens, NY","50040836","120","15","1800","120","8","960","yes","yes","no",,,"no",,"yes","2020-08-11T18:56:00.000","40.728317","-73.783925","8","24","1333","4154961","4072020045","Fresh Meadows-Utopia"
"10155","{87E3E73C-F5CD-4272-8EF4-DE5CDF758208}","sidewalk","LAS TIAS BAKERY CAFE","LAS TIAS BAKERY LLC","LAS TIAS BAKERY LLC","74-01","METROPOLITAN AVENUE","Queens","11379","74-01  METROPOLITAN AVENUE, Queens, NY","41629073","30","14","420",,,,"yes","no","no",,,"no",,"yes","2020-08-11T18:58:00.000","40.712849","-73.878205","5","30","65703","4071753","4030650012","Middle Village"
"10156","{B9CF2E74-0291-4BF9-8903-F1E49E8E17AA}","roadway","Naidre's Cafe","Naidre's Cafe","Naidre's Cafe","384","7 avenue","Brooklyn","11215","384 7 avenue, Brooklyn, NY","50087032",,,,"45","3","135","no","yes","no",,,"no",,"yes","2020-08-11T19:21:00.000","40.665312","-73.982914","6","39","151","3023023","3010240046","Park Slope-Gowanus"
"10157","{2B62D06C-EF23-454C-83F5-D96E23E8130B}","both","ciccios","Janice pizzeria inc DBA ciccios","Janice pizzeria inc DBA ciccios","207","ave u","Brooklyn","11223","207  ave u, Brooklyn, NY","50098334","18","19","342","19","8","152","yes","yes","no",,,"no",,"yes","2020-08-11T19:52:00.000","40.596648","-73.976317","11","47","400","3191277","3071010050","Bensonhurst East"
"10158","{77433517-63D2-41CA-8F4E-3BB71D0E6B63}","both","sichuan hotpot cuisine","sichuan hotpot cuisine inc","sichuan hotpot cuisine inc","34","pell street","Manhattan","10013","34 pell street, Manhattan, NY","50013843","12","4","48","20","8","160","yes","yes","no",,,"no",,"yes","2020-08-11T21:04:00.000","40.714879","-73.998261","3","1","29","1001784","1001630013","Chinatown"
"10159","{DB49E899-1D8D-402B-86C6-106073E6F131}","both","U-gu","Ugu YT INC","Ugu YT INC","541","Myrtle ave","Brooklyn","11205","541 Myrtle ave, Brooklyn, NY","50063768","26","6","156","26","8","208","yes","yes","yes","Oct-66","RW","no",,"yes","2020-08-11T21:21:00.000","40.69379","-73.962767","2","35","191","3054615","3018947501","Clinton Hill"
"1016","c1568943-ae09-43d5-8860-7f8eee6449d0","both","Petite Boucherie","Petite Boucherie LLC","Petite Boucherie","4","Christopher Street","Manhattan","10014","4 Christopher Street, Manhattan, NY","50083078","14","6","84","14","8","112","yes","yes","yes","1300118","OP","yes","yes","yes","2020-06-19T14:40:00.000","40.734034","-73.999856","2","3","71","1010268","1005930013","West Village"
"10160","{11AE7BDD-5B94-46CB-8955-41C6FDF75E1E}","sidewalk","Sik Gaek","Sik Gaek Jay Family Inc.","Sik Gaek","49-11","Roosevelt Ave.","Queens","11377","49-11 Roosevelt Ave., Queens, NY","50067182","13","23","299",,,,"yes","no","yes","Mar-69","RW","no",,"yes","2020-08-11T22:02:00.000","40.743215","-73.915626","2","26","25301","4001278","4001380001","Hunters Point-Sunnyside-West Maspeth"
"10161","{538F8E0F-8EA2-49A4-830D-3CF297EBC1DB}","roadway","Osteria Laura NYC","23 Winehouse LLC","23 Winehouse LLC","1890","Adam Clayton Powell Jr. Blvd","Manhattan","10026","1890 Adam Clayton Powell Jr. Blvd, Manhattan, NY","50084955",,,,"24","8","192","no","yes","yes","Jan-96","OP","no",,"yes","2020-08-12T08:52:00.000","40.802254","-73.953243","10","9","218","1055206","1018307503","Central Harlem South"
"10162","{E28E877F-9B57-4E3F-86FB-FC1DC1AC913A}","sidewalk","Laduree","Laduree Madison LLC","Laduree","864","Madison Ave","Manhattan","10021","864 Madison Ave , Manhattan, NY","50054046","20","22","440",,,,"yes","no","no",,,"no",,"yes","2020-08-12T10:01:00.000","40.770845","-73.966132","8","4","130","1041327","1013850017","Upper East Side-Carnegie Hill"
"10163","{2FFFC799-C29D-4E84-8E77-2C464B39148F}","sidewalk","Sweetgreen","Sweetgreen, Inc.","Sweetgreen","347","Bowery","Manhattan","10003","347 Bowery, Manhattan, NY","50098726","26","11","286",,,,"yes","no","no",,,"no",,"yes","2020-08-12T10:10:00.000","40.726535","-73.991734","3","2","38","1090232","1004597503","East Village"
"10164","{D7CFA0A8-16F8-4FF5-82EA-C987F33DE7CE}","both","THE BAGEL MARKET","BAGEL MARKET INC","BAGEL MARKET INC","106","7th AVE","Brooklyn","11215","106  7th AVE, Brooklyn, NY","50046390","11","4","44","20","8","160","yes","yes","no",,,"no",,"yes","2020-08-12T10:24:00.000","40.674097","-73.975724","6","39","157","3020200","3009570038","Park Slope-Gowanus"
"10165","{F77D2186-64C6-48BD-89D7-86B470583DBA}","both","Carmine's","Little Fish Corp","Little Fish Corp","200","West 44th st","Manhattan","10036","200 West 44th st, Manhattan, NY","40396159","64","15","960","64","8","512","yes","yes","yes","Feb-14","OP","yes","yes","yes","2020-08-12T11:09:00.000","40.757405","-73.98619","5","3","119","1024706","1010150029","Midtown-Midtown South"
"10166","{748BFF78-8BA4-434F-8B60-D6F62735FBE1}","roadway","Quality Bistro","French Onion Soup, LLC","Quality Bistro","120","West 55th Street","Manhattan","10019","120 West 55th Street, Manhattan, NY","50092790",,,,"80","8","640","no","yes","yes","Oct-05","OP","no",,"yes","2020-08-12T11:44:00.000","40.763379","-73.979001","5","4","137","1083719","1010070029","Midtown-Midtown South"
"10167","{402B1DB6-5628-46C0-83E0-283E8D97FC78}","roadway","Smith & Wollensky","St. James Associates, L.P.","Smith & Wollensky","797","Third Avenue","Manhattan","10022","797 Third Avenue, Manhattan, NY","40370766",,,,"39","8","312","no","yes","yes","Dec-11","OP","no",,"yes","2020-08-12T11:50:00.000","40.755327","-73.971106","6","4","98","1038223","1013230001","Turtle Bay-East Midtown"
"10168","{DA4C2517-38EB-4679-85BD-5DB3A1C06790}","sidewalk","Smith & Wollensky","St James Associates, LP","Smith & Wollensky","797","Third Avenue","Manhattan","10022","797 Third Avenue, Manhattan, NY","40370766","47","7","329",,,,"yes","no","yes","Dec-11","OP","no",,"yes","2020-08-12T11:53:00.000","40.755327","-73.971106","6","4","98","1038223","1013230001","Turtle Bay-East Midtown"
"10169","{A414FFDE-A85F-4CE1-86B3-39EF0DCDED94}","roadway","If-Cha 520 Dessert","IF 520 Forever Inc","If -cha 520 Dessert","133-53","37th Ave.","Queens","11354","133-53  37th Ave., Queens, NY","50099979",,,,"30","6","180","no","yes","no",,,"no",,"yes","2020-08-12T11:55:00.000","40.760911","-73.832872","7","20","869","4534920","4049707501","Flushing"
"1017","7a94ed67-08bc-42c1-8c08-9e1c9f915fd6","both","Hair Of The Dog","168 Orchard St Partners","Hair Of The Dog","168","Orchard Street","Manhattan","10002","168 Orchard Street, Manhattan, NY","41629167","92","4","368","39","8","312","yes","yes","yes","1255449","OP","no",,"yes","2020-06-19T13:03:00.000","40.721224","-73.988636","3","1","3001","1005348","1004110012","Chinatown"
"10170","{748D3B3A-3389-4D94-87C2-A24C7C9F6171}","both","Quality Meats","The Manhattan Ocean Club Associates LLC","Quality Meats","57","West 58th Street","Manhattan","10019","57 West 58th Street, Manhattan, NY","40559892","39","4","156","64","7","448","yes","yes","yes","Apr-10","OP","no",,"yes","2020-08-12T12:08:00.000","40.76452","-73.975528","5","4","11201","1035250","1012747502","Midtown-Midtown South"
"10171","{3100A215-DA95-4841-8DD5-27B808973D59}","both","Park Avenue","United Chicken Fingers, LLC","Park Avenue","360","Park Avenue South","Manhattan","10010","360  Park Avenue South, Manhattan, NY","41515513","213","8","1704","213","8","1704","yes","yes","yes","Mar-11","OP","no",,"yes","2020-08-12T12:41:00.000","40.741955","-73.985089","5","2","56","1016748","1008550024","Hudson Yards-Chelsea-Flatiron-Union Square"
"10172","{199BBAE9-16E6-439C-817C-F77CEA9D229A}","both","Kappo Masa","976 Madison Restaurant, LLC","Kappo Masa","976","Madison Avenue","Manhattan","10075","976  Madison Avenue, Manhattan, NY","50015835","32","8","256","12","8","96","yes","yes","yes","Sep-62","OP","no",,"yes","2020-08-12T12:52:00.000","40.774522","-73.963447","8","4","130","1041796","1013910014","Upper East Side-Carnegie Hill"
"10173","{663D2B60-B9E2-4E4E-8FEF-21C0FDAB672B}","sidewalk","PARAISO BAR & LOUNGE INC","PARAISO BAR & LOUNGE INC","PARAISO BAR & LOUNGE INC","184 11","JAMAICA AVENUE","Queens","11423","184 11  JAMAICA AVENUE , Queens, NY","50079707","18","5","90",,,,"yes","no","yes","Jul-83","OP","no",,"yes","2020-08-12T13:22:00.000","40.709236","-73.775608","12","27","470","4212032","4099050128","Jamaica"
"10174","{3E93D428-2107-4AC5-843B-CA7889B3A438}","sidewalk","Poke Zest","Poke Zest","Poke Zest","629","manhattan ave","Brooklyn","11222","629  manhattan ave, Brooklyn, NY","50075158","15","5","75",,,,"yes","no","no",,,"no",,"yes","2020-08-12T13:34:00.000","40.723857","-73.950852","1","33","569","3066069","3026460001","Greenpoint"
"10175","{B794C7CB-06EB-440A-8B8F-78B5D6E31477}","both","Peking Duck House","Wu & Chien Inc","Peking Duck House","236-238","236 East 53rd St","Manhattan","10022","236-238 236 East 53rd St, Manhattan, NY","40400686","42","3","126","42","8","336","yes","yes","yes","Jan-12","OP","no",,"yes","2020-08-12T13:57:00.000","40.757314","-73.968489","6","4","98","1038536","1013260033","Turtle Bay-East Midtown"
"10176","{0616E633-8D0D-48BB-8FB8-1BC9FE3D5C39}","both","Viand Cafe","KDK LLC","Viand Cafe","2130","Broadway","Manhattan","10023","2130 Broadway, Manhattan, NY","40931927","60","8","480","50","8","400","yes","yes","yes","Apr-05","RW","no",,"yes","2020-08-12T14:26:00.000","40.780737","-73.981379","7","6","163","1030727","1011660035","Upper West Side"
"10177","{C0C9A2EB-2330-4491-8351-34E1A91EE432}","both","Rockmeisha","Rockmei Inc","Rockmeisha","13-Sep","Barrow street","Manhattan","10014","9-13 Barrow street, Manhattan, NY","41061861","17","2","34","22","8","176","yes","yes","yes","Jul-65","RW","yes","yes","yes","2020-08-12T14:41:00.000","40.732689","-74.002522","2","3","67","1076078","1005907502","West Village"
"10178","{415459CF-AAC7-4A3D-8C4F-16AF1620B601}","both","Taqueria La Nortena","TAQUERIA LA NORTENA CORP","TAQUERIA LA NORTENA CORP","668","Manhattan Ave","Brooklyn","11222","668 Manhattan Ave, Brooklyn, NY","41708313","25","8","200","30","8","240","yes","yes","no",,,"no",,"yes","2020-08-12T14:46:00.000","40.724755","-73.951338","1","33","569","3066113","3026470048","Greenpoint"
"10179","{84B08286-4DA8-4758-8D33-DFD0CC825F93}","sidewalk","fresh&co","1359 Bway Corp","1359 Bway Corp","1359","broadway","Manhattan","10018","1359 broadway , Manhattan, NY","50002774","30","8","240",,,,"yes","no","no",,,"no",,"yes","2020-08-12T14:49:00.000","40.751704","-73.987599","5","3","109","1015240","1008120022","Midtown-Midtown South"
"1018","8094ab26-2b85-4b1e-8638-e21e797a46fa","sidewalk","Pado","S & D Wave Group","S & D Wave Group","199","2nd Ave","Manhattan","10003","199 2nd Ave, Manhattan, NY","50082967","12","6","72",,,,"yes","no","yes","1313526","RW","no",,"yes","2020-06-19T14:42:00.000","40.731352","-73.985679","3","2","40","1006870","1004680038","East Village"
"10180","{DAB367B1-5170-448F-8FD0-1C48CB13166B}","roadway","Taishan Tofu pot","Naruto Japanese restaurant inc","Taishan Tofu Pot","133-53","37 avenue","Queens","11354","133-53 37 avenue, Queens, NY","50087724",,,,"35","6","210","no","yes","yes","May-01","EB","no",,"yes","2020-08-12T15:30:00.000","40.760911","-73.832872","7","20","869","4534920","4049707501","Flushing"
"10181","{CF0AEC62-6919-425F-8CA0-A4957EFCA9F6}","roadway","THE DOLAR SHOP","THE DOLAR SHOP RESTAURANT GROUP LLC","THE DOLAR SHOP","133-53","37AVE","Queens","11354","133-53 37AVE, Queens, NY","50043433",,,,"35","6","210","no","yes","no",,,"no",,"yes","2020-08-12T15:56:00.000","40.760911","-73.832872","7","20","869","4534920","4049707501","Flushing"
"10182","{DFF5C0D6-07E8-4028-88BC-7EB7FBD24D55}","sidewalk","TROPILYZ B RESTAURANT INC","TROPILYZ B RESTAURANT INC","TROPILYZ B RESTAURANT INC","2462","GRAND CONCOURSE","Bronx","10458","2462 GRAND CONCOURSE, Bronx, NY","50080553","15","9","135",,,,"yes","no","no",,,"no",,"yes","2020-08-12T16:03:00.000","40.861553","-73.897617","5","15","23702","2094665","2031530001","Bedford Park-Fordham North"
"10183","{DFAF6935-E12E-4CDF-8497-2470BBC23B76}","sidewalk","El Buen Sabor Deli Corp","El Buenb Sabor Deli Corp","El Buenb Sabor Deli Corp","89-20","163rd  Street","Queens","11432","89-20  163rd  Street, Queens, NY","50063488","20","8","160",,,,"yes","no","no",,,"no",,"yes","2020-08-12T16:43:00.000","40.706657","-73.798044","12","24","44601","4445975","4097610057","Jamaica"
"10184","{62920AFA-B29C-4DB6-8954-E92F42E2303E}","both","Brazen Fox Kitchen & Craft Beer","106 3rd Ave NYC Inc","Brazen Fox Kitchen & Craft Beer","106","3rd Ave","Manhattan","10003","106 3rd Ave, Manhattan, NY","50000910","70","3","210","45","8","360","yes","yes","yes","Oct-68","OP","no",,"yes","2020-08-12T16:55:00.000","40.732711","-73.987617","3","2","42","1009083","1005590041","East Village"
"10185","{49DBE3CB-CD59-4E1A-8782-D8862A585E41}","both","Park Asia","Parkville Corp","Park Asia","801","66th Street","Brooklyn","11220","801 66th Street, Brooklyn, NY","50009013","100","50","5000","80","8","640","yes","yes","yes","Apr-97","OP","no",,"yes","2020-08-12T17:07:00.000","40.631821","-74.012837","10","38","120","3142128","3057490001","Sunset Park East"
"10186","{E97A333C-B760-4862-8BE2-58AAA72F7310}","both","Modern Bread & Bagel / Arba","Tastebud Market LLC","Modern Bread & Bagel / Arba","472","Columbus Ave","Manhattan","10024","472 Columbus Ave, Manhattan, NY","50086611","20","16","320","20","8","160","yes","yes","yes","Jun-01","RW","yes","yes","yes","2020-08-12T17:10:00.000","40.784299","-73.973784","7","6","169","1032072","1012130034","Upper West Side"
"10187","{742A1FD1-3E64-4725-8FDC-A5B202FEC893}","both","sergimmo","Sergimmo brothers","Sergimmo brothers","150-39","14th ave","Queens","11357","150-39  14th ave , Queens, NY","50088778","8","3","24","18","8","144","yes","yes","no",,,"no",,"yes","2020-08-12T18:31:00.000","40.789074","-73.812845","7","19","981","4102710","4045180044","Whitestone"
"10188","{B9BFFA29-C813-4197-8DEC-6B904A01EFFC}","both","sergimmo","Sergimmo Whitestone","Sergimmo Whitestone","462","Avenue of America","Manhattan","10011","462  Avenue of America , Manhattan, NY","50074799","15","3","45","15","8","120","yes","yes","no",,,"yes","yes","yes","2020-08-12T18:52:00.000","40.735484","-73.998196","2","3","63","1009562","1005750001","West Village"
"10189","{0C949D59-801A-46DC-8E3B-9D256090FFFD}","sidewalk","Red Rooster Harlem","Red Rooster Harlem LLC","Red Rooster Harlem LLC","310","Lenox Avenue","Manhattan","10027","310 Lenox Avenue, Manhattan, NY","41543410","45","20","900",,,,"yes","no","yes","May-13","OP","no",,"yes","2020-08-12T19:17:00.000","40.808165","-73.945187","10","9","200","1053528","1017230069","Central Harlem South"
"1019","6d7a6c53-40b1-4087-8c37-9298bfc8f416","roadway","Supper Restaurant","Raguboy Corp","Raguboy Corp","156","East 2nd Street","Manhattan","10009","156 East 2nd Street, Manhattan, NY","40861946",,,,"40","8","320","no","yes","yes","1140962","OP","no",,"yes","2020-06-19T14:44:00.000","40.722774","-73.98518","3","2","3002","1004985","1003980061","East Village"
"10190","{ADEB0013-B787-417C-8D62-8657AC3939CA}","roadway","Fish and Beef","Fish and Beef","Fish and Beef","5210","7th Avenue","Brooklyn","11220","5210  7th Avenue, Brooklyn, NY","50053768",,,,"20","8","160","no","yes","no",,,"no",,"yes","2020-08-12T19:48:00.000","40.641209","-74.007217","7","38","100","3014030","3008090040","Sunset Park East"
"10191","{16E2E699-0614-43A1-8A1D-73950B7D05AE}","roadway","Ako Sushi","New Ako Restaurant Inc","Ako Japanese Cuisine","205","Bedford Ave","Brooklyn","11211","205 Bedford Ave, Brooklyn, NY","50006419",,,,"18","8","144","no","yes","yes","Sep-88","RW","yes","yes","yes","2020-08-12T20:40:00.000","40.717048","-73.958555","1","33","553","3062203","3023360004","North Side-South Side"
"10192","{ED7D936B-7761-4F76-8281-6FEDB68D094B}","both","Little Canal","Coffeemen's, LLC","Little Canal","26","Canal Street","Manhattan","10002","26 Canal Street, Manhattan, NY","50051704","36","6","216","11","8","88","yes","yes","yes","Nov-44","RW","no",,"yes","2020-08-12T21:29:00.000","40.71445","-73.990412","3","1","6","1003599","1002830073","Lower East Side"
"10193","{7E005C34-DEF8-4B20-861B-9D4BF6670832}","both","The Ranch Restaurant and Bar of Guyana","The Ranch Restaurant and Bar of Guyana","The Ranch Restaurant and Bar of Guyana","134-01","Liberty Ave","Queens","11419","134-01  Liberty Ave , Queens, NY","40844021","100","10","1000","80","8","640","yes","yes","yes","Feb-28","OP","no",,"yes","2020-08-13T00:01:00.000","40.691448","-73.812597","9","28","152","4201237","4095020046","Richmond Hill"
"10194","{D7B50FDF-3749-477E-81DE-D18260D71CEC}","sidewalk","Bread Brothers Bagel Cafe","SJD 220 Corp","Bread Brothers Bagel Cafe","220","Bushwick Avenue","Brooklyn","11206","220 Bushwick Avenue, Brooklyn, NY","50004883","10","5","50",,,,"yes","no","no",,,"no",,"yes","2020-08-13T09:52:00.000","40.708215","-73.939942","1","34","493","3071160","3030540019","Bushwick South"
"10195","{0E27EB6C-3EC1-4612-8CF6-9898C905FB16}","sidewalk","THE BARLOW","CORNER 660 LLC","THE BARLOW","446","PARK PLACE","Manhattan","11238","446 PARK PLACE, Manhattan, NY","50091637","30","9","270",,,,"yes","no","yes","Mar-09","OP","no",,"yes","2020-08-13T10:14:00.000","40.675406","-73.962629","8","35","215","3337840","3011670010","Prospect Heights"
"10196","{B1D1BAC8-E2DD-403A-82E9-A883FF11721E}","both","THE BARLOW","CORNER 660 LLC","THE BARLOW","446","PARK PLACE","Brooklyn","11238","446 PARK PLACE, Brooklyn, NY","50091637","30","10","300","30","8","240","yes","yes","yes","Mar-09","OP","no",,"yes","2020-08-13T10:23:00.000","40.675406","-73.962629","8","35","215","3337840","3011670010","Prospect Heights"
"10197","{44006934-3FEB-4ED1-899B-5104A9327ADE}","roadway","Grab & Go Cafe","Grab & Go Cafe","Grab & Go Cafe","475","60th Street","Brooklyn","11220","475  60th Street, Brooklyn, NY","50100044",,,,"12","8","96","no","yes","no",,,"no",,"yes","2020-08-13T10:26:00.000","40.63991","-74.016867","7","38","74","3016295","3008630048","Sunset Park West"
"10198","{E695FD16-5D99-4288-8778-2D183452C4BD}","roadway","Golden Roast Inc","Golden Roast Inc","Corner 28","135-24","40th Rd","Queens","11354","135-24  40th Rd, Queens, NY","50074731",,,,"36","8","288","no","yes","no",,,"no",,"yes","2020-08-13T10:36:00.000","40.758856","-73.830119","7","20","871","4449971","4050370152","Flushing"
"10199","{7AA09A54-E3CD-4B19-8BBA-ACE5A1DE6953}","both","Fresca Tortilla Ditmars Inc","Fresca Tortilla Ditmars Inc","Fresca Tortilla","31-15","Ditmars Boulevard","Queens","11105","31-15 Ditmars Boulevard, Queens, NY","50067676","15","12","180","15","8","120","yes","yes","no",,,"no",,"yes","2020-08-13T11:02:00.000","40.775766","-73.910155","1","22","113","4016985","4008310133","Steinway"
"102","207db896-6535-44f9-87df-084789684351","sidewalk","Holy Schnitzel","Yoniski Amsterdam LLC","Yoniski Amsterdam LLC","654","Amsterdam Ave","Manhattan","10025","654 Amsterdam Ave, Manhattan, NY","50086808","20","6","120",,,,"yes","no","yes","1316946","EB","no",,"yes","2020-06-19T11:07:00.000","40.791407","-73.972311","7","6","179","1033594","1012390036","Upper West Side"
"1020","022e92d5-13cd-4947-8d0f-9839a1ecd97e","both","Magazine","Space Bar LLC","Magazine","130","Franklin St","Brooklyn","11222","130  Franklin St, Brooklyn, NY","50089099","18","7","126","18","8","144","yes","yes","yes","1316587","OP","yes","yes","yes","2020-06-19T14:45:00.000","40.72935","-73.957497","1","33","565","3064805","3025630002","Greenpoint"
"10200","{892D56E8-0C64-4118-8AF4-DC3F38013F5D}","both","TK Restaurant Corp.","TK Restaurant Corp.","Square Diner","33","Lenard Street","Manhattan","10013","33  Lenard Street, Manhattan, NY","41006719","79","9","711","79","8","632","yes","yes","yes","Jun-29","OP","yes","yes","yes","2020-08-13T11:09:00.000",,,,,,,,
"10201","{4A2C8495-2B0F-440C-8159-EB00C0650414}","both","J & J Pizzeria Cafe Bar Corp","J & J Pizzeria Cafe Bar Corp","J & J Pizzeria Cafe Bar Corp","4013","82 st","Queens","11373","4013 82 st, Queens, NY","50088649","15","13","195","15","8","120","yes","yes","yes","Oct-12","OP","no",,"yes","2020-08-13T11:45:00.000","40.747249","-73.883858","4","21","26901","4458601","4014930035","Elmhurst"
"10202","{F90060DC-9C14-4A97-8346-796CBE51D1E2}","both","TITO'S BBQ STATION","CECILIA'S FOODS INC.","CECILIA'S FOODS INC.","348","LENOX AVE","Manhattan","10027","348  LENOX AVE, Manhattan, NY","50104970","25","10","250","25","8","200","yes","yes","yes","Aug-13","RW","no",,"yes","2020-08-13T12:06:00.000","40.809378","-73.944301","10","9","208","1053662","1017250072","Central Harlem North-Polo Grounds"
"10203","{358C1AF2-8DC3-4BD2-805D-D5B040054F5B}","sidewalk","Mille-feuille Bakery","Mille-feuille Vanderbilt LLC","Mille-feuille Bakery Cafe","622","Vanderbilt Ave","Brooklyn","11238","622 Vanderbilt Ave, Brooklyn, NY","50103057","49","6","294",,,,"yes","no","no",,,"yes","yes","yes","2020-08-13T12:40:00.000","40.677535","-73.968916","8","35","163","3028738","3011580043","Prospect Heights"
"10204","{96FECDB4-88BC-4315-8B04-3F4AC66A55EB}","sidewalk","THE WINSLOW","CORNER 660 LLC","THE WINSLOW","446","PARK PLACE","Brooklyn","11238","446 PARK PLACE, Brooklyn, NY","50091637","30","9","270",,,,"yes","no","yes","Mar-09","OP","no",,"yes","2020-08-13T12:55:00.000","40.675406","-73.962629","8","35","215","3337840","3011670010","Prospect Heights"
"10205","{734B44F0-4A16-4BB8-8693-D4DF1963880B}","sidewalk","The Water Hazard","Konkapot Entertainment, Inc","Konkapot Entertainment, Inc","59","Chelsea Piers","Manhattan","10011","59 Chelsea Piers, Manhattan, NY","50104509","140","18","2520",,,,"yes","no","yes","Jun-22","OP","no",,"yes","2020-08-13T13:28:00.000","40.747999","-74.008496","4","3","99","1000000","1006620011","Hudson Yards-Chelsea-Flatiron-Union Square"
"10206","{F3311BF2-6CCB-456D-8885-C12EE0149B08}","sidewalk","Barnea Bistro","Barnea Bistro LLC","Barnea Bistro LLC","211","East 46th Street","Manhattan","10017","211 East 46th Street, Manhattan, NY","50078656","45","20","900",,,,"yes","no","yes","May-80","OP","no",,"yes","2020-08-13T13:39:00.000","40.753118","-73.972085","6","4","90","1037599","1013207506","Turtle Bay-East Midtown"
"10207","{935B8DC4-673E-4BD3-835A-436EDF6D25F6}","sidewalk","Blossom","Blossom Union Square, Inc.","Blossom Union Square, Inc.","72","University Place","Manhattan","10003","72 University Place, Manhattan, NY","41139612","16","10","160",,,,"yes","no","no",,,"no",,"yes","2020-08-13T13:52:00.000","40.733131","-73.993484","2","2","61","1009262","1005680019","West Village"
"10208","{11E757CC-CDC7-4DD9-8F9C-C3C75476CD4C}","sidewalk","The Penny Farthing","The Penny Farthing","The Penny Farthing","103","3rd Ave","Manhattan","10003","103  3rd Ave, Manhattan, NY","41479185","98","8","784",,,,"yes","no","yes","Jul-94","OP","no",,"yes","2020-08-13T13:57:00.000","40.732453","-73.987779","3","2","40","1079847","1004680007","East Village"
"10209","{CA33E121-18BF-4E38-8058-B205104B25B1}","both","The International Bar","Justified LLC","The International Bar","102","First Avenue","Manhattan","10009","102 First Avenue, Manhattan, NY","41530127","21","9","189","21","8","168","yes","yes","yes","Jun-12","OP","no",,"yes","2020-08-13T14:08:00.000","40.726529","-73.986052","3","2","32","1005770","1004347503","East Village"
"1021","d9d40896-1f47-4100-867e-0a41b7eef69d","sidewalk","Zatar","Excellent Deli Corp","Excellent Deli Corp","1294","1294 Myrtle Ave","Brooklyn","11221","1294  1294 Myrtle Ave, Brooklyn, NY","50069657","14","5","70",,,,"yes","no","no",,,"no",,"yes","2020-06-19T14:46:00.000",,,,,,,,
"10210","{B0967ABE-81A6-4127-8C3C-677A9D723521}","both","Walter's","DMDD LLC","Walter's","166","DeKalb Avenue","Brooklyn","11217","166 DeKalb Avenue, Brooklyn, NY","41627123","40","7","280","44","8","352","yes","yes","yes","27-4537430","OP","yes","yes","yes","2020-08-13T14:30:00.000","40.689618","-73.973273","2","35","181","3058963","3021010040","Fort Greene"
"10211","{16A76904-73DE-4E1B-8A6A-D17EBDFB2C28}","roadway","Love and Dough","Water Street Tavern Corp.","Water Street Tavern Corp.","68","Jay Street","Brooklyn","11201","68 Jay Street, Brooklyn, NY","50047483",,,,"30","8","240","no","yes","no",,,"no",,"yes","2020-08-13T14:31:00.000","40.702763","-73.986681","2","33","21","3000090","3000400001","DUMBO-Vinegar Hill-Downtown Brooklyn-Boerum Hill"
"10212","{E3C6154D-2C1B-4246-8246-873B55AF0257}","roadway","Love and Dough","Water St Tavern Corp.","Love and Dough","68","Jay Street","Brooklyn","11201","68 Jay Street, Brooklyn, NY","50047483",,,,"30","8","240","no","yes","no",,,"no",,"yes","2020-08-13T14:34:00.000","40.702763","-73.986681","2","33","21","3000090","3000400001","DUMBO-Vinegar Hill-Downtown Brooklyn-Boerum Hill"
"10213","{0ED311C3-F8DA-400C-8889-329D5D7E9E3A}","roadway","Kochi","SC Hospitality LLC,","Kochi","1026472","10th Ave","Manhattan","10036","1026472 10th Ave, Manhattan, NY","50099805",,,,"11","8","88","no","yes","yes","Jan-18","OP","no",,"yes","2020-08-13T14:36:00.000",,,,,,,,
"10214","{5FE46F6C-4F42-4408-83C9-FBC73610B198}","sidewalk","gelateria gentile","latte llc","gelateria gentile","253","wythe avenue","Brooklyn","11249","253 wythe avenue, Brooklyn, NY","50073840","60","4","240",,,,"yes","no","no",,,"no",,"yes","2020-08-13T14:48:00.000","40.716243","-73.963934","1","34","555","3062585","3023790007","North Side-South Side"
"10215","{DB7589B9-ED23-451D-8A2E-3F187F235050}","both","UOTORA","ZigZag Enterprise Inc","ZigZag Enterprise Inc","1075","BERGEN ST.","Brooklyn","11216","1075 BERGEN ST., Brooklyn, NY","50074194","14","10","140","14","8","112","yes","yes","yes","Oct-80","RW","no",,"yes","2020-08-13T14:58:00.000","40.676145","-73.950703","8","36","315","3030338","3012120052","Crown Heights North"
"10216","{39A9CF9D-349E-4E05-8B07-E43000C9385F}","both","Double zero","Plant based pizza New York llc","Plant based pizza New York llc","65","4th street @ 65 2nd ave","Manhattan","10003","65 4th street @ 65 2nd ave, Manhattan, NY","50046424","22","12","264","22","8","176","yes","yes","yes","Jul-74","OP","no",,"yes","2020-08-13T15:23:00.000",,,,,,,,
"10217","{8FF444E9-A7AF-4AB3-84EB-B7063F2DA8F5}","both","Royal india palace and restaurant inc.","Royal india palace and restaurant inc.","Royal india palace and restaurant inc.","118-08","Atlantic avenue","Queens","11419","118-08 Atlantic avenue, Queens, NY","41119269","70","7","490","70","7","490","yes","yes","yes","Sep-16","OP","no",,"yes","2020-08-13T15:26:00.000","40.693869","-73.828684","9","28","120","4199105","4094360003","Richmond Hill"
"10218","{0DE565A2-9E71-4092-8594-3A8C1472E6BF}","sidewalk","GEMELLI","SOUTH 4TH RESTAURANT COMPANY LLC","CCM","321","STARR STREET","Brooklyn","11237","321 STARR STREET, Brooklyn, NY","50080711","17","9","153",,,,"yes","no","yes","Jun-79","OP","no",,"yes","2020-08-13T15:27:00.000","40.707742","-73.920497","4","34","447","3072636","3031900037","Bushwick North"
"10219","{B90FEAD4-93EC-493F-8C0F-BC0DD52EB0D5}","sidewalk","Salt + Charcoal","TK Food Concepts LLC","Salt + Charcoal","171","Grand St.","Brooklyn","11249","171 Grand St., Brooklyn, NY","50009320","50","5","250",,,,"yes","no","yes","May-93","OP","no",,"yes","2020-08-13T15:53:00.000","40.714601","-73.961504","1","34","553","3062619","3023800025","North Side-South Side"
"1022","a7351c73-5161-4f9c-84a6-f6c5ba76d2ff","both","Toro Loco","Stone Street Amigos LLC","Stone Street Amigos LLC","15","Stone Street","Manhattan","10004","15 Stone Street, Manhattan, NY","50076290","12","6","72","12","8","96","yes","yes","yes","1306480","OP","no",,"yes","2020-06-19T14:45:00.000","40.704034","-74.012068","1","1","9","1000040","1000117501","Battery Park City-Lower Manhattan"
"10220","{B80B082A-7C26-449A-81A0-D20FEF8C2597}","both","Bar verde","A&D wine corp","A&D wine corp","65","4th street","Manhattan","10003","65 4th street , Manhattan, NY","41466567","22","12","264","22","8","176","yes","yes","yes","Dec-57","OP","no",,"yes","2020-08-13T16:13:00.000",,,,,,,,
"10221","{121A3A46-DB1C-45B2-8E48-E7BC1B1915D6}","both","Bay Parkway Seafood Palace Inc","Bay Parkway Seafood Palace Inc","Bay Parkway Seafood Palace Inc","2172","86th Street","Brooklyn","11214","2172  86th Street, Brooklyn, NY","50091461","25","3","75","25","8","200","yes","yes","no",,,"no",,"yes","2020-08-13T16:29:00.000","40.602252","-73.994325","11","47","290","3167065","3063800042","Bensonhurst West"
"10222","{2DDC7213-5F11-4534-883A-8622D0AA67E8}","sidewalk","Dog and Bone","Carra LLC","Carra LLC","338","3rd Avenue","Manhattan","10010","338  3rd Avenue , Manhattan, NY","50059374","65","7","455",,,,"yes","no","yes","Apr-47","OP","no",,"yes","2020-08-13T16:50:00.000","40.740028","-73.982289","6","2","68","1018080","1008800050","Gramercy"
"10223","{326D22EF-1D02-474D-875A-D37014D2BB3D}","roadway","New Shanghai tide restaurant","Pine Song Inc","New shanghai Tide Restaurant","1FLR","135-20 40th road","Queens","11354","1FLR 135-20 40th road , Queens, NY","50036890",,,,"43","8","344","no","yes","yes","Feb-18","RW","no",,"yes","2020-08-13T16:54:00.000",,,,,,,,
"10224","{2E92FA27-8D97-4EA6-87B3-5A1CB55B9160}","both","Ozone Pizza","Ozone Pizzeria Inc.","Ozone Pizzeria Inc.","96-15","Liberty Ave","Queens","11417","96-15 Liberty Ave, Queens, NY","40375369","10","10","100","17","8","136","yes","yes","no",,,"no",,"yes","2020-08-13T17:29:00.000","40.680689","-73.842638","10","32","4002","4189621","4091190035","Ozone Park"
"10225","{25E81CF2-17C7-4C57-86E5-3412E3A965D1}","openstreets","Peasant","MF Peasant LLC","Peasant","194","Elizabeth Street","Manhattan","10012","194  Elizabeth Street , Manhattan, NY","50105125",,,,,,,"no","no","yes","Jan-41","OP","no",,"yes","2020-08-13T18:05:00.000","40.721793","-73.994502","2","1","43","1007389","1004920003","SoHo-TriBeCa-Civic Center-Little Italy"
"10226","{17F01EF7-37B6-403D-8C42-D7F8E6D3501A}","both","1 Buen Sabor Inc","1 Buen Sabor Inc","1 Buen Sabor","45-07","Queens Blvd","Queens","11104","45-07 Queens Blvd, Queens, NY","41640580","20","12","240","20","8","160","yes","yes","no",,,"no",,"yes","2020-08-13T18:09:00.000","40.743251","-73.919448","2","26","183","4001895","4001600005","Hunters Point-Sunnyside-West Maspeth"
"10227","{03003667-EC9E-4612-829D-EDFA1410D1D4}","sidewalk","Pepe Giallo","Sonny Lou Inc.","Pepe Giallo","195","195 10 Ave.","Manhattan","10011","195 195 10 Ave. , Manhattan, NY","50063757","17","9","153",,,,"yes","no","yes","Jun-49","RW","no",,"yes","2020-08-13T18:36:00.000",,,,,,,,
"10228","{3E197674-ABF6-4447-85CB-3520A8786E0C}","openstreets","Casa Nomad","Casa Nomad LLC","Casa Nomad LLC","1204","Broadway","Manhattan","10001","1204 Broadway, Manhattan, NY","50096569",,,,,,,"no","no","yes","Jan-27","OP","no",,"yes","2020-08-13T19:23:00.000","40.746264","-73.988538","5","4","76","1015758","1008310019","Midtown-Midtown South"
"10229","{E2C4912F-DE5E-4061-84BA-BF5043ADA412}","both","HALO KITCHEN & LOUNGE","12710 RESTAURANT CORP","HALO KITCHEN & LOUNGE","12710","LIBERTY AVENUE","Queens","11419","12710 LIBERTY AVENUE, Queens, NY","50089929","19","10","190","21","8","168","yes","yes","yes","Mar-06","RW","no",,"yes","2020-08-13T19:29:00.000","40.688799","-73.817537","10","28","15802","4204702","4095810005","South Ozone Park"
"1023","124a9b18-a20f-46f9-8bdc-2f5779d3cf80","sidewalk","Vista Hermosa Deli Restaurant","Vista Hermosa Restaurant Inc.","Vista Hermosa Restaurant Inc.","1201","Evergreen Avenue","Bronx","10472","1201 Evergreen Avenue, Bronx, NY","40853915","70","15","1050",,,,"yes","no","yes","1277015","OP","no",,"yes","2020-06-19T14:40:00.000","40.828499","-73.881072","9","17","54","2024999","2037700030","West Farms-Bronx River"
"10230","{A632699E-2EC7-4CEE-8D5C-7EA1E0B9BB32}","sidewalk","Cafe Fiorello","Fiorellos Roman Cafe, Inc","Cafe Fiorello","1900","Broadway","Manhattan","10023","1900 Broadway, Manhattan, NY","40367841","46","30","1380",,,,"yes","no","yes","Mar-16","OP","no",,"yes","2020-08-13T20:59:00.000","40.771518","-73.982151","7","6","149","1027472","1011167501","Lincoln Square"
"10231","{73BC869C-12DE-42D9-8A81-E37719FCFDA3}","sidewalk","Bowery Beer Garden / Shinka Ramen","Kitchen93, Inc.","Kitchen93","93","Bowery","Manhattan","10002","93 Bowery, Manhattan, NY","50072985","30","4","120",,,,"yes","no","yes","Oct-37","HL","no",,"yes","2020-08-13T21:08:00.000","40.717182","-73.995476","3","1","16","1082490","1003030015","Chinatown"
"10232","{E49684D0-66FA-4719-84BE-6DADC3AE01E3}","openstreets","Lovely Day","Cantaloupe LLC","Lovely Day","196","Elizabeth St","Manhattan","10012","196  Elizabeth St, Manhattan, NY","40904478",,,,,,,"no","no","yes","Apr-47","OP","no",,"yes","2020-08-13T21:34:00.000","40.721848","-73.994484","2","1","43","1007390","1004920004","SoHo-TriBeCa-Civic Center-Little Italy"
"10233","{9F9E7A71-1A32-4374-823D-1CD7E43ECA74}","both","LoL Times Square","LOL Stand Up Comedy Corp","LOL Times Square","711","7th Avenue","Manhattan","10036","711 7th Avenue , Manhattan, NY","50038846","12","8","96","12","8","96","yes","yes","yes","Apr-51","OP","no",,"yes","2020-08-13T21:52:00.000","40.759543","-73.98437","5","4","125","1022687","1010000064","Midtown-Midtown South"
"10234","{2CE83AD1-1F4E-4279-8A57-5B1116307CA7}","both","Konditori","PIrk Washington","PIrk Washington","696","Washington","Brooklyn","11238","696 Washington, Brooklyn, NY","50003699","4","7","28","15","8","120","yes","yes","no",,,"no",,"yes","2020-08-14T07:06:00.000",,,,,,,,
"10235","{004EAF09-78CB-409B-88C4-1B20C83026A6}","both","Ecuapollos Bar restaurant","Ecuapollos bar Restaurant","Ecuapollos bar Restaurant","1262","Myrtle ave","Brooklyn","11221","1262  Myrtle ave , Brooklyn, NY","41504405","8","6","48","12","6","72","yes","yes","no",,,"yes","yes","yes","2020-08-14T07:20:00.000","40.697915","-73.926817","4","34","423","3073399","3032270032","Bushwick South"
"10236","{DD1BE493-35C0-478B-820C-93933A8B8A4C}","both","Momo's Mediterranean Grill","Sohail Kitchen LLC","Momo's Mediterranean Grill","25 & 29","101 Avenue","Brooklyn","11208","25 & 29  101 Avenue , Brooklyn, NY","50102047","30","5","150","30","8","240","yes","yes","no",,,"no",,"yes","2020-08-14T08:16:00.000",,,,,,,,
"10237","{19F41AC3-EEBD-4CE5-86FD-C343DDEBC0CB}","roadway","Ming's Caffe","Ming's","Ming's Caffe","28","Canal Street","Manhattan","10002","28 Canal Street, Manhattan, NY","50039747",,,,"16","8","128","no","yes","no",,,"no",,"yes","2020-08-14T08:23:00.000","40.714467","-73.990466","3","1","6","1003600","1002830074","Lower East Side"
"10238","{85BFBE61-D8A6-41A0-8999-31298F274D3C}","sidewalk","Oso","Oso Hamilton Heights, LLC","Oso Hamilton Heights, LLC","1616","Amsterdam Ave","Manhattan","10031","1616 Amsterdam Ave, Manhattan, NY","50035069","23","12","276",,,,"yes","no","yes","Jun-15","OP","no",,"yes","2020-08-14T10:50:00.000","40.821836","-73.950107","9","7","225","1061738","1020710036","Hamilton Heights"
"10239","{11466C69-839A-4D91-83AC-F68269D1DE73}","sidewalk","Dinosaur BBQ","Dinosaur Restaurants LLC","Dinosaur Restaurants LLC","604","Union St","Brooklyn","11215","604 Union St, Brooklyn, NY","41709869","100","11","1100",,,,"yes","no","yes","Jun-68","OP","no",,"yes","2020-08-14T11:16:00.000","40.677774","-73.984","6","39","119","3007368","3004410021","Park Slope-Gowanus"
"1024","cf1c71e2-79cc-4dc6-89f1-9246e3e82c32","roadway","P J Horgan's","4902 Skillman Cafe LLC","P J Horgan's","4902","Skillman Avenue","Queens","11377","4902 Skillman Avenue, Queens, NY","50074966",,,,"52","8","416","no","yes","yes","1304189","OP","no",,"yes","2020-06-19T14:45:00.000","40.746223","-73.915081","2","26","25301","4001159","4001340025","Hunters Point-Sunnyside-West Maspeth"
"10240","{830AFECA-846A-4FF3-8FC1-509152B0A332}","sidewalk","Beat Mazesoba","Hot Ramen Inc","Beat Mazesoba","161-23","Crocheron Ave","Queens","11358","161-23 Crocheron Ave, Queens, NY","50091684","24","7","168",,,,"yes","no","yes","Apr-19","RW","no",,"yes","2020-08-14T11:25:00.000","40.762573","-73.804343","7","19","1171","4119428","4052810001","Murray Hill"
