SRNumber,CreatedDate,UpdatedDate,ActionTaken,Owner,RequestType,Status,RequestSource,MobileOS,Anonymous,AssignTo,ServiceDate,ClosedDate,AddressVerified,ApproximateAddress,Address,HouseNumber,Direction,StreetName,Suffix,ZipCode,Latitude,Longitude,Location,TBMPage,TBMColumn,TBMRow,APC,CD,CDMember,NC,NCName,PolicePrecinct
1-1831742951,01/01/2021 12:06:16 AM,01/02/2021 02:23:21 PM,SR Created,LASAN,Metal/Household Appliances,Closed,Call,,N,EV,01/02/2021 12:00:00 AM,01/02/2021 02:18:38 PM,Y,N,"15251 W CAREY RANCH LANE, 91342",15251,W,CAREY RANCH,LANE,91342,34.2893893478,-118.46359286,"(34.2893893478, -118.46359286)",481,H,6,North Valley APC,7,Monica Rodriguez,5,Sylmar,MISSION
1-1831741721,01/01/2021 12:27:17 AM,01/03/2021 01:44:27 PM,SR Created,LASAN,Metal/Household Appliances,Closed,Call,,N,WV,01/02/2021 12:00:00 AM,01/03/2021 01:43:16 PM,Y,N,"23022 W BLYTHE ST, 91304",23022,W,BLYTHE,ST,91304,34.2140011149,-118.628669123,"(34.2140011149, -118.628669123)",529,G,3,South Valley APC,12,John Lee,11,West Hills,TOPANGA
1-1831744521,01/01/2021 12:39:25 AM,01/01/2021 02:17:19 PM,SR Created,LASAN,Bulky Items,Cancelled,Mobile App,iOS,N,WLA,01/02/2021 12:00:00 AM,01/01/2021 02:17:18 PM,Y,N,"9035 W CATTARAUGUS AVE, 90034",9035,W,CATTARAUGUS,AVE,90034,34.0350731257,-118.389916081,"(34.0350731257, -118.389916081)",632,H,6,South Los Angeles APC,5,Paul Koretz,61,South Robertson,WEST LOS ANGELES
1-1831743461,01/01/2021 12:40:36 AM,01/02/2021 10:49:40 PM,SR Created,LASAN,Bulky Items,Closed,Call,,N,WV,01/02/2021 12:00:00 AM,01/02/2021 10:20:16 AM,Y,N,"23130 W SHERMAN PL, 91307",23130,W,SHERMAN,PL,91307,34.2007135317,-118.630509454,"(34.2007135317, -118.630509454)",529,G,5,South Valley APC,12,John Lee,11,West Hills,TOPANGA
1-1831744681,01/01/2021 12:44:16 AM,01/08/2021 03:21:27 AM,SR Created,LASAN,Bulky Items,Closed,Mobile App,iOS,Y,NC,01/07/2021 12:00:00 AM,01/07/2021 12:04:06 PM,Y,,"123 S ST ANDREWS PL, 90004",123,S,ST ANDREWS,PL,90004,34.0723309679,-118.311496089,"(34.0723309679, -118.311496089)",633,H,1,Central APC,4,Nithya Raman,119,Greater Wilshire,OLYMPIC
1-1831744691,01/01/2021 12:44:33 AM,01/06/2021 07:05:16 AM,SR Created,LASAN,Illegal Dumping Pickup,Closed,Call,,N,NC,01/06/2021 12:00:00 AM,01/06/2021 06:59:22 AM,Y,N,"1401 S STADIUM WAY, 90012",1401,S,STADIUM,WAY,90012,34.069118652,-118.237732618,"(34.069118652, -118.237732618)",634,G,1,Central APC,1,Gilbert Cedillo,128,Historic Cultural North,NORTHEAST
1-1831744761,01/01/2021 12:46:14 AM,01/04/2021 05:20:14 PM,SR Created,LASAN,Bulky Items,Closed,Mobile App,iOS,N,WLA,01/04/2021 12:00:00 AM,01/04/2021 05:18:34 PM,Y,,"1320 E VENICE BLVD, 90291",1320,E,VENICE,BLVD,90291,33.9955119618,-118.4493295,"(33.9955119618, -118.4493295)",672,A,5,West Los Angeles APC,11,Mike Bonin,68,Venice,PACIFIC
1-1831743621,01/01/2021 12:46:35 AM,01/02/2021 02:44:56 PM,SR Created,LASAN,Bulky Items,Closed,Mobile App,iOS,N,NC,01/02/2021 12:00:00 AM,01/02/2021 02:42:24 PM,Y,,"1120 S ARDMORE AVE, 90006",1120,S,ARDMORE,AVE,90006,34.0501531834,-118.30197593,"(34.0501531834, -118.30197593)",633,J,4,Central APC,10,Mark Ridley-Thomas,104,Olympic Park,OLYMPIC
1-1831745261,01/01/2021 12:50:44 AM,01/06/2021 04:43:37 PM,SR Created,LASAN,Bulky Items,Closed,Call,,N,SLA,01/06/2021 12:00:00 AM,01/06/2021 04:40:00 PM,Y,N,"223 W 55TH ST, 90037",223,W,55TH,ST,90037,33.9924982119,-118.277056532,"(33.9924982119, -118.277056532)",674,C,5,South Los Angeles APC,9,Curren D. Price Jr.,125,Zapata King,NEWTON
1-1831745301,01/01/2021 12:51:13 AM,01/05/2021 01:47:56 PM,SR Created,OCB,Graffiti Removal,Closed,Mobile App,Android,N,GAP,01/05/2021 12:00:00 AM,01/05/2021 01:47:55 PM,Y,N,"3409 W 59TH ST, 90043",3409,W,59TH,ST,90043,33.9873215073,-118.331488561,"(33.9873215073, -118.331488561)",673,F,6,South Los Angeles APC,8,Marqueece Harris-Dawson,80,Park Mesa Heights,77TH STREET
1-1831745381,01/01/2021 12:57:49 AM,01/01/2021 12:41:16 PM,SR Created,ITA,Other,Cancelled,Mobile App,iOS,Y,,,01/01/2021 12:41:15 PM,Y,N,"1624 W 12TH PL, 90015",1624,W,12TH,PL,90015,34.0456933294,-118.277476707,"(34.0456933294, -118.277476707)",634,C,5,Central APC,1,Gilbert Cedillo,76,Pico Union,RAMPART
1-1831748171,01/01/2021 01:12:19 AM,01/11/2021 11:26:44 AM,SR Created,LASAN,Illegal Dumping Pickup,Closed,Call,,N,NC,01/08/2021 12:00:00 AM,01/11/2021 11:24:18 AM,Y,N,"5310 W LOMA LINDA AVE, 90027",5310,W,LOMA LINDA,AVE,90027,34.1028375643,-118.305453291,"(34.1028375643, -118.305453291)",593,H,4,Central APC,13,Mitch O'Farrell,36,Los Feliz,HOLLYWOOD
1-1831748241,01/01/2021 01:14:36 AM,01/02/2021 04:46:56 PM,SR Created,LASAN,Bulky Items,Closed,Mobile App,iOS,Y,NC,01/02/2021 12:00:00 AM,01/02/2021 10:43:41 AM,Y,,"525 S KINGSLEY DR, 90020",525,S,KINGSLEY,DR,90020,34.0646315606,-118.30307586,"(34.0646315606, -118.30307586)",633,J,2,Central APC,10,Mark Ridley-Thomas,55,Wilshire Center Koreatown,OLYMPIC
1-1831745711,01/01/2021 01:16:11 AM,01/04/2021 07:19:25 AM,SR Created,LASAN,Bulky Items,Closed,Mobile App,iOS,Y,WV,01/04/2021 12:00:00 AM,01/04/2021 07:18:37 AM,Y,,"9121 N VANALDEN AVE, 91324",9121,N,VANALDEN,AVE,91324,34.2361431878,-118.549366642,"(34.2361431878, -118.549366642)",500,G,7,North Valley APC,12,John Lee,113,Northridge West,DEVONSHIRE
1-1831746651,01/01/2021 01:26:45 AM,01/04/2021 05:34:30 PM,SR Created,LASAN,Bulky Items,Closed,Mobile App,iOS,N,WLA,01/04/2021 12:00:00 AM,01/04/2021 05:31:30 PM,Y,,"12530 W BARBARA AVE, 90066",12530,W,BARBARA,AVE,90066,34.0001269792,-118.434382973,"(34.0001269792, -118.434382973)",672,C,4,West Los Angeles APC,11,Mike Bonin,67,Mar Vista,PACIFIC
1-1831745881,01/01/2021 01:28:30 AM,01/04/2021 06:54:28 PM,SR Created,LASAN,Metal/Household Appliances,Closed,Mobile App,iOS,N,WLA,01/04/2021 12:00:00 AM,01/04/2021 06:51:36 PM,Y,,"12530 W BARBARA AVE, 90066",12530,W,BARBARA,AVE,90066,34.0001269792,-118.434382973,"(34.0001269792, -118.434382973)",672,C,4,West Los Angeles APC,11,Mike Bonin,67,Mar Vista,PACIFIC
1-1831748421,01/01/2021 01:30:13 AM,01/07/2021 11:42:24 PM,SR Created,LASAN,Bulky Items,Cancelled,Mobile App,iOS,N,WV,01/08/2021 12:00:00 AM,01/07/2021 11:42:23 PM,Y,N,"7459 N DARNOCH WAY, 91307",7459,N,DARNOCH,WAY,91307,34.2047747047,-118.64772157,"(34.2047747047, -118.64772157)",529,E,4,South Valley APC,12,John Lee,11,West Hills,TOPANGA
1-1831748451,01/01/2021 01:31:17 AM,04/27/2021 10:38:49 AM,SR Created,LASAN,Homeless Encampment,Closed,Mobile App,iOS,N,NC,01/04/2021 12:00:00 AM,04/27/2021 10:36:04 AM,Y,,"1729 N BRONSON AVE, 90028",1729,N,BRONSON,AVE,90028,34.1025599129,-118.318170599,"(34.1025599129, -118.318170599)",593,G,4,Central APC,13,Mitch O'Farrell,30,Hollywood United,HOLLYWOOD
1-1831747651,01/01/2021 01:38:03 AM,01/04/2021 08:11:01 PM,SR Created,LASAN,Bulky Items,Closed,Mobile App,Android,N,WV,01/04/2021 12:00:00 AM,01/04/2021 11:59:42 AM,Y,,"8105 N WYNNE AVE, 91335",8105,N,WYNNE,AVE,91335,34.2176154469,-118.530213349,"(34.2176154469, -118.530213349)",530,J,2,South Valley APC,12,John Lee,15,Reseda,WEST VALLEY
1-1831750031,01/01/2021 01:39:52 AM,01/08/2021 02:26:39 AM,SR Created,LASAN,Bulky Items,Closed,Mobile App,iOS,N,EV,01/07/2021 12:00:00 AM,01/07/2021 07:39:10 AM,Y,,"5455 N VENTURA CANYON AVE, 91401",5455,N,VENTURA CANYON,AVE,91401,34.1700887088,-118.42924783,"(34.1700887088, -118.42924783)",562,C,2,South Valley APC,4,Nithya Raman,26,Sherman Oaks,VAN NUYS
1-1831750281,01/01/2021 01:56:27 AM,01/02/2021 06:44:11 PM,SR Created,LASAN,Bulky Items,Closed,Mobile App,iOS,N,WV,01/02/2021 12:00:00 AM,01/02/2021 11:34:32 AM,Y,,"7459 N DARNOCH WAY, 91307",7459,N,DARNOCH,WAY,91307,34.2047747047,-118.64772157,"(34.2047747047, -118.64772157)",529,E,4,South Valley APC,12,John Lee,11,West Hills,TOPANGA
1-1831753001,01/01/2021 02:06:38 AM,01/05/2021 12:35:58 PM,SR Created,LASAN,Illegal Dumping Pickup,Closed,Call,,N,EV,01/05/2021 12:00:00 AM,01/05/2021 12:31:33 PM,Y,N,"12136 W VANOWEN ST, 91605",12136,W,VANOWEN,ST,91605,34.1937760452,-118.397920801,"(34.1937760452, -118.397920801)",532,G,5,South Valley APC,2,Paul Krekorian,23,North Hollywood Northeast,NORTH HOLLYWOOD
1-1831753051,01/01/2021 02:10:38 AM,01/08/2021 12:14:30 PM,SR Created,LASAN,Bulky Items,Closed,Mobile App,iOS,N,SLA,01/05/2021 12:00:00 AM,01/08/2021 12:10:02 PM,Y,,"2330 S LA BREA AVE, 90016",2330,S,LA BREA,AVE,90016,34.0356641637,-118.349380484,"(34.0356641637, -118.349380484)",633,D,6,South Los Angeles APC,10,Mark Ridley-Thomas,73,Mid City,WILSHIRE
1-1831750701,01/01/2021 02:21:06 AM,01/01/2021 12:42:35 PM,SR Created,ITA,Other,Closed,Mobile App,iOS,N,,,01/01/2021 12:42:34 PM,Y,N,"7255 N WOODMAN AVE, 91405",7255,N,WOODMAN,AVE,91405,34.2026807572,-118.431514542,"(34.2026807572, -118.431514542)",532,C,4,South Valley APC,2,Paul Krekorian,20,Van Nuys,VAN NUYS
1-1831750771,01/01/2021 02:26:05 AM,01/08/2021 01:11:12 AM,SR Created,LASAN,Illegal Dumping Pickup,Closed,Mobile App,iOS,N,EV,01/07/2021 12:00:00 AM,01/08/2021 12:52:22 AM,Y,,"7142 N WOODMAN AVE, 91405",7142,N,WOODMAN,AVE,91405,34.2005103374,-118.43109849,"(34.2005103374, -118.43109849)",532,C,5,South Valley APC,2,Paul Krekorian,21,Greater Valley Glen,VAN NUYS
1-1831751671,01/01/2021 02:28:00 AM,01/07/2021 08:19:00 AM,SR Created,LASAN,Bulky Items,Closed,Mobile App,iOS,N,SLA,01/07/2021 12:00:00 AM,01/07/2021 08:10:53 AM,Y,,"517 W 92ND ST, 90044",517,W,92ND,ST,90044,33.9529275466,-118.283406152,"(33.9529275466, -118.283406152)",704,B,3,South Los Angeles APC,8,Marqueece Harris-Dawson,87,Empowerment Congress Southeast,SOUTHEAST
1-1831752481,01/01/2021 03:12:11 AM,01/02/2021 07:42:18 AM,SR Created,LASAN,Bulky Items,Closed,Call,,N,SLA,01/02/2021 12:00:00 AM,01/02/2021 07:39:06 AM,Y,N,"8716 1/2 S MAIN ST, 90003",8716,S,MAIN,ST,90003,33.9584847846,-118.273743625,"(33.9584847846, -118.273743625)",704,C,3,South Los Angeles APC,8,Marqueece Harris-Dawson,87,Empowerment Congress Southeast,SOUTHEAST
1-1831752501,01/01/2021 03:40:39 AM,01/02/2021 08:27:44 PM,SR Created,LASAN,Homeless Encampment,Closed,Mobile App,iOS,N,WLA,01/02/2021 12:00:00 AM,01/02/2021 03:34:24 PM,Y,,"8985 W VENICE BLVD, 90034",8985,W,VENICE,BLVD,90034,34.0273245834,-118.392453575,"(34.0273245834, -118.392453575)",632,H,7,West Los Angeles APC,5,Paul Koretz,115,Palms,PACIFIC
1-1831751791,01/01/2021 03:43:59 AM,04/17/2021 12:41:05 PM,SR Created,LASAN,Homeless Encampment,Closed,Mobile App,iOS,N,NC,01/08/2021 12:00:00 AM,04/17/2021 12:31:40 PM,Y,,"647 N JUANITA AVE, 90004",647,N,JUANITA,AVE,90004,34.0831953895,-118.290688784,"(34.0831953895, -118.290688784)",594,A,6,Central APC,13,Mitch O'Farrell,34,East Hollywood,RAMPART
1-1831750891,01/01/2021 03:50:10 AM,01/02/2021 09:13:05 PM,SR Created,LASAN,Homeless Encampment,Closed,Mobile App,iOS,N,WLA,01/02/2021 12:00:00 AM,01/02/2021 01:50:32 PM,Y,,"3600 S BAGLEY AVE, 90034",3600,S,BAGLEY,AVE,90034,34.0283097866,-118.396982469,"(34.0283097866, -118.396982469)",632,G,7,West Los Angeles APC,5,Paul Koretz,115,Palms,PACIFIC
1-1831752541,01/01/2021 04:21:27 AM,01/07/2021 06:55:10 AM,SR Created,LASAN,Metal/Household Appliances,Closed,Call,,N,SLA,01/07/2021 12:00:00 AM,01/07/2021 06:52:04 AM,Y,N,"5912 S WEST BLVD, 90043",5912,S,WEST,BLVD,90043,33.9867737912,-118.335063064,"(33.9867737912, -118.335063064)",673,E,6,South Los Angeles APC,8,Marqueece Harris-Dawson,80,Park Mesa Heights,77TH STREET
1-1831753961,01/01/2021 05:08:49 AM,01/02/2021 02:08:06 PM,SR Created,LASAN,Illegal Dumping Pickup,Closed,Mobile App,Android,N,WLA,01/02/2021 12:00:00 AM,01/02/2021 02:00:44 PM,Y,,"1419 S MEADOWBROOK AVE, 90019",1419,S,MEADOWBROOK,AVE,90019,34.0474151061,-118.350830068,"(34.0474151061, -118.350830068)",633,C,4,Central APC,10,Mark Ridley-Thomas,60,P.I.C.O.,WILSHIRE
1-1831752601,01/01/2021 05:27:11 AM,01/01/2021 01:46:34 PM,SR Created,LASAN,Dead Animal Removal,Closed,Call,,N,WV,,01/01/2021 01:45:59 PM,Y,N,"18555 W COLLINS ST, 91356",18555,W,COLLINS,ST,91356,34.174607583,-118.53731419,"(34.174607583, -118.53731419)",560,J,1,South Valley APC,3,Bob Blumenfield,17,Tarzana,WEST VALLEY
1-1831751881,01/01/2021 05:38:37 AM,01/02/2021 01:02:16 PM,SR Created,LASAN,Dead Animal Removal,Closed,Self Service,,N,WV,,01/02/2021 01:02:15 PM,Y,Y,"18555 W COLLINS ST, 91356",18555,W,COLLINS,ST,91356,34.174607583,-118.53731419,"(34.174607583, -118.53731419)",560,J,1,South Valley APC,3,Bob Blumenfield,17,Tarzana,WEST VALLEY
1-1831752631,01/01/2021 05:39:30 AM,01/04/2021 07:19:35 AM,SR Created,LASAN,Bulky Items,Closed,Self Service,,Y,WV,01/04/2021 12:00:00 AM,01/04/2021 07:18:30 AM,Y,N,"19119 W NORDHOFF ST, 91324",19119,W,NORDHOFF,ST,91324,34.2356355328,-118.549854317,"(34.2356355328, -118.549854317)",500,G,7,North Valley APC,12,John Lee,113,Northridge West,DEVONSHIRE
1-1831752661,01/01/2021 06:13:33 AM,04/14/2021 10:19:33 AM,SR Created,LASAN,Illegal Dumping Pickup,Closed,Mobile App,Android,Y,EV,01/14/2021 12:00:00 AM,04/14/2021 10:16:49 AM,Y,,"15607 W NORDHOFF ST, 91343",15607,W,NORDHOFF,ST,91343,34.2357179648,-118.472363935,"(34.2357179648, -118.472363935)",501,G,7,North Valley APC,7,Monica Rodriguez,112,North Hills East,MISSION
1-1831753451,01/01/2021 06:19:34 AM,01/09/2021 12:10:40 AM,SR Created,BSL,Single Streetlight Issue,Closed,Mobile App,Android,Y,NORTH,01/07/2021 12:00:00 AM,01/07/2021 12:00:00 AM,Y,,"7521 N LINDLEY AVE, 91335",7521,N,LINDLEY,AVE,91335,34.20729482,-118.52740243,"(34.20729482, -118.52740243)",531,A,4,South Valley APC,3,Bob Blumenfield,15,Reseda,WEST VALLEY
1-1831755981,01/01/2021 06:28:40 AM,01/06/2021 02:37:03 AM,SR Created,LASAN,Bulky Items,Closed,Self Service,,N,WV,01/05/2021 12:00:00 AM,01/05/2021 04:08:36 PM,Y,N,"8521 N INTERNATIONAL AVE, 91304",8521,N,INTERNATIONAL,AVE,91304,34.2251375647,-118.599616784,"(34.2251375647, -118.599616784)",530,A,1,North Valley APC,3,Bob Blumenfield,13,Canoga Park,TOPANGA
1-1831753511,01/01/2021 06:39:06 AM,01/07/2021 05:39:37 AM,SR Created,LASAN,Bulky Items,Closed,Mobile App,Android,N,HB,01/06/2021 12:00:00 AM,01/07/2021 05:39:23 AM,Y,,"3447 S WALKER AVE, 90731",3447,S,WALKER,AVE,90731,33.7163510554,-118.304669366,"(33.7163510554, -118.304669366)",853,J,1,Harbor APC,15,Joe Buscaino,96,Coastal San Pedro,HARBOR
1-1831752691,01/01/2021 06:53:31 AM,01/06/2021 02:37:42 AM,SR Created,LASAN,Metal/Household Appliances,Closed,Call,,N,EV,01/05/2021 12:00:00 AM,01/05/2021 05:57:12 PM,Y,N,"5021 N KLUMP AVE, 91601",5021,N,KLUMP,AVE,91601,34.1613634489,-118.375897258,"(34.1613634489, -118.375897258)",562,J,3,South Valley APC,2,Paul Krekorian,24,NoHo,NORTH HOLLYWOOD
1-1831752741,01/01/2021 06:56:12 AM,01/02/2021 12:32:48 PM,SR Created,LASAN,Bulky Items,Closed,Call,,N,WLA,01/02/2021 12:00:00 AM,01/02/2021 12:30:20 PM,Y,N,"10860 W CHARNOCK ROAD, 90034",10860,W,CHARNOCK,ROAD,90034,34.0203982857,-118.413636593,"(34.0203982857, -118.413636593)",672,E,1,West Los Angeles APC,5,Paul Koretz,115,Palms,PACIFIC
1-1831756071,01/01/2021 06:58:52 AM,01/04/2021 01:29:03 PM,SR Created,LASAN,Illegal Dumping Pickup,Closed,Mobile App,iOS,N,WV,01/04/2021 12:00:00 AM,01/04/2021 01:22:49 PM,Y,,"22708 W ROSCOE BLVD, 91304",22708,W,ROSCOE,BLVD,91304,34.2192364528,-118.621609735,"(34.2192364528, -118.621609735)",529,H,2,South Valley APC,12,John Lee,11,West Hills,TOPANGA
1-1831754151,01/01/2021 07:08:14 AM,01/02/2021 12:24:15 PM,SR Created,LASAN,Bulky Items,Closed,Mobile App,iOS,Y,WLA,01/02/2021 12:00:00 AM,01/02/2021 12:22:59 PM,Y,,"10915 W VENICE BLVD, 90034",10915,W,VENICE,BLVD,90034,34.0159607815,-118.412462747,"(34.0159607815, -118.412462747)",672,E,2,West Los Angeles APC,5,Paul Koretz,115,Palms,PACIFIC
1-1831754171,01/01/2021 07:11:56 AM,01/01/2021 04:10:37 PM,SR Created,ITA,Other,Closed,Self Service,,N,,,01/01/2021 04:10:36 PM,Y,N,"3300 W SLAUSON AVE, 90043",3300,W,SLAUSON,AVE,90043,33.9875200493,-118.32949735,"(33.9875200493, -118.32949735)",673,F,6,South Los Angeles APC,8,Marqueece Harris-Dawson,80,Park Mesa Heights,77TH STREET
1-1831752791,01/01/2021 07:21:33 AM,01/04/2021 11:24:01 AM,SR Created,LASAN,Bulky Items,Closed,Mobile App,iOS,N,WLA,01/04/2021 12:00:00 AM,01/04/2021 11:20:28 AM,Y,,"5314 S PACIFIC AVE, 90292",5314,S,PACIFIC,AVE,90292,33.9673054853,-118.456158136,"(33.9673054853, -118.456158136)",701,J,2,West Los Angeles APC,11,Mike Bonin,68,Venice,PACIFIC
1-1831756141,01/01/2021 07:25:15 AM,01/04/2021 07:46:39 PM,SR Created,LASAN,Bulky Items,Closed,Self Service,,N,NC,01/04/2021 12:00:00 AM,01/04/2021 11:10:39 AM,Y,N,"2547 N LOMBARDY BLVD, 90032",2547,N,LOMBARDY,BLVD,90032,34.0763866151,-118.175105293,"(34.0763866151, -118.175105293)",595,E,7,East Los Angeles APC,14,Kevin de León,48,LA32,HOLLENBECK
1-1831753641,01/01/2021 07:30:16 AM,01/04/2021 11:44:36 AM,SR Created,LASAN,Bulky Items,Closed,Mobile App,Android,Y,SLA,01/04/2021 12:00:00 AM,01/04/2021 10:45:38 AM,Y,,"2804 S SOMERSET DR, 90016",2804,S,SOMERSET,DR,90016,34.0309121484,-118.337276768,"(34.0309121484, -118.337276768)",633,E,7,South Los Angeles APC,10,Mark Ridley-Thomas,75,West Adams,SOUTHWEST
1-1831756191,01/01/2021 07:30:57 AM,01/02/2021 12:39:15 PM,SR Created,LASAN,Bulky Items,Closed,Mobile App,Android,Y,WLA,01/02/2021 12:00:00 AM,01/02/2021 12:38:08 PM,Y,,"1422 S SHENANDOAH ST, 90035",1422,S,SHENANDOAH,ST,90035,34.0535864037,-118.381576017,"(34.0535864037, -118.381576017)",632,J,4,Central APC,5,Paul Koretz,61,South Robertson,WEST LOS ANGELES
1-1831752871,01/01/2021 07:31:26 AM,01/04/2021 11:44:25 AM,SR Created,LASAN,Bulky Items,Closed,Mobile App,Android,Y,SLA,01/04/2021 12:00:00 AM,01/04/2021 10:45:45 AM,Y,,"2804 S SOMERSET DR, 90016",2804,S,SOMERSET,DR,90016,34.0309121484,-118.337276768,"(34.0309121484, -118.337276768)",633,E,7,South Los Angeles APC,10,Mark Ridley-Thomas,75,West Adams,SOUTHWEST
1-1831756251,01/01/2021 07:33:08 AM,01/02/2021 04:02:01 PM,SR Created,LASAN,Bulky Items,Closed,Call,,N,WV,01/02/2021 12:00:00 AM,01/02/2021 10:37:47 AM,Y,N,"7049 N MIDDLESBURY RIDGE CIR, 91307",7049,N,MIDDLESBURY RIDGE,CIR,91307,34.2004062514,-118.646920573,"(34.2004062514, -118.646920573)",529,E,5,South Valley APC,12,John Lee,11,West Hills,TOPANGA
1-1831753741,01/01/2021 07:38:36 AM,01/02/2021 11:53:57 AM,SR Created,LASAN,Bulky Items,Closed,Self Service,,N,WV,01/02/2021 12:00:00 AM,01/02/2021 11:52:25 AM,Y,N,"24423 W CLIPSTONE ST, 91367",24423,W,CLIPSTONE,ST,91367,34.1794572079,-118.657500153,"(34.1794572079, -118.657500153)",559,D,1,South Valley APC,3,Bob Blumenfield,16,Woodland Hills-Warner Center,TOPANGA
1-1831756331,01/01/2021 07:42:59 AM,01/07/2021 08:30:02 PM,SR Created,LASAN,Bulky Items,Closed,Call,,Y,EV,01/07/2021 12:00:00 AM,01/07/2021 08:29:03 PM,Y,N,"15210 W SHERMAN WAY, 91405",15210,W,SHERMAN,WAY,91405,34.2009575397,-118.464550853,"(34.2009575397, -118.464550853)",531,H,5,South Valley APC,6,Nury Martinez,20,Van Nuys,VAN NUYS
1-1831754401,01/01/2021 07:43:19 AM,01/01/2021 10:35:50 AM,SR Created,LASAN,Dead Animal Removal,Closed,Self Service,,N,EV,,01/01/2021 10:35:49 AM,Y,N,"7650 N TEESDALE AVE, 91605",7650,N,TEESDALE,AVE,91605,34.2098213218,-118.409395025,"(34.2098213218, -118.409395025)",532,E,3,North Valley APC,2,Paul Krekorian,22,North Hollywood West,NORTH HOLLYWOOD
1-1831757981,01/01/2021 07:43:56 AM,01/05/2021 08:34:03 AM,SR Created,LASAN,Bulky Items,Closed,Mobile App,Android,N,WLA,01/05/2021 12:00:00 AM,01/05/2021 08:30:32 AM,Y,,"615 S HAMPTON DR, 90291",615,S,HAMPTON,DR,90291,33.9945112781,-118.475292446,"(33.9945112781, -118.475292446)",671,G,5,West Los Angeles APC,11,Mike Bonin,68,Venice,PACIFIC
1-1831758011,01/01/2021 07:44:28 AM,01/07/2021 04:30:40 PM,SR Created,LASAN,Illegal Dumping Pickup,Closed,Call,,Y,EV,01/07/2021 12:00:00 AM,01/07/2021 04:28:00 PM,Y,N,"7201 N LENNOX AVE, 91405",7201,N,LENNOX,AVE,91405,34.2016917441,-118.446450649,"(34.2016917441, -118.446450649)",532,A,4,South Valley APC,2,Paul Krekorian,20,Van Nuys,VAN NUYS
1-1831753841,01/01/2021 07:46:00 AM,01/07/2021 05:38:43 PM,SR Created,LASAN,Illegal Dumping Pickup,Closed,Call,,Y,EV,01/07/2021 12:00:00 AM,01/07/2021 05:36:34 PM,Y,N,"14737 W SHERMAN WAY, 91405",14737,W,SHERMAN,WAY,91405,34.2013913756,-118.454253769,"(34.2013913756, -118.454253769)",531,J,4,South Valley APC,6,Nury Martinez,20,Van Nuys,VAN NUYS
1-1831758061,01/01/2021 07:47:18 AM,01/07/2021 12:23:02 AM,SR Created,LASAN,Bulky Items,Closed,Mobile App,iOS,N,EV,01/06/2021 12:00:00 AM,01/06/2021 08:59:04 AM,Y,,"11101 W AQUA VISTA ST, 91602",11101,W,AQUA VISTA,ST,91602,34.1450730058,-118.371867606,"(34.1450730058, -118.371867606)",563,A,5,South Valley APC,2,Paul Krekorian,27,Studio City,NORTH HOLLYWOOD
1-1831753871,01/01/2021 07:47:18 AM,01/05/2021 03:40:36 PM,SR Created,OCB,Graffiti Removal,Closed,Mobile App,iOS,N,GAPBH,01/04/2021 12:00:00 AM,01/05/2021 03:40:35 PM,Y,N,"720 E 2ND ST, 90012",720,E,2ND,ST,90012,34.0470453067,-118.23537778,"(34.0470453067, -118.23537778)",634,H,4,Central APC,14,Kevin de León,46,Arts District Little Tokyo,CENTRAL
1-1831760961,01/01/2021 07:51:38 AM,01/05/2021 03:43:21 PM,SR Created,OCB,Graffiti Removal,Closed,Mobile App,iOS,N,GAPBH,01/04/2021 12:00:00 AM,01/05/2021 03:43:20 PM,Y,N,"222 S HEWITT ST, 90012",222,S,HEWITT,ST,90012,34.046475758,-118.236032027,"(34.046475758, -118.236032027)",634,G,4,Central APC,14,Kevin de León,46,Arts District Little Tokyo,CENTRAL
1-1831754531,01/01/2021 07:53:00 AM,04/09/2021 01:02:29 PM,SR Created,LASAN,Homeless Encampment,Closed,Mobile App,Android,N,NC,01/04/2021 12:00:00 AM,04/09/2021 01:00:37 PM,Y,,"6130 W SUNSET BLVD, 90028",6130,W,SUNSET,BLVD,90028,34.0977818141,-118.323480787,"(34.0977818141, -118.323480787)",593,F,5,Central APC,13,Mitch O'Farrell,33,Hollywood Studio District,HOLLYWOOD
1-1831761021,01/01/2021 07:53:09 AM,01/04/2021 02:41:30 PM,SR Created,LASAN,Illegal Dumping Pickup,Closed,Self Service,,Y,EV,01/04/2021 12:00:00 AM,01/04/2021 11:37:23 AM,Y,N,"6643 W FOOTHILL BLVD, 91042",6643,W,FOOTHILL,BLVD,91042,34.2468733053,-118.276816373,"(34.2468733053, -118.276816373)",504,B,5,North Valley APC,7,Monica Rodriguez,10,Sunland-Tujunga,FOOTHILL
1-1831756451,01/01/2021 07:53:51 AM,01/05/2021 12:08:25 AM,SR Created,LASAN,Bulky Items,Closed,Mobile App,iOS,N,WV,01/04/2021 12:00:00 AM,01/04/2021 09:27:52 AM,Y,,"19126 W KINZIE ST, 91324",19126,W,KINZIE,ST,91324,34.2481888081,-118.550426972,"(34.2481888081, -118.550426972)",500,G,5,North Valley APC,12,John Lee,113,Northridge West,DEVONSHIRE
1-1831756481,01/01/2021 07:54:39 AM,01/05/2021 03:41:55 PM,SR Created,OCB,Graffiti Removal,Closed,Mobile App,iOS,N,GAPBH,01/04/2021 12:00:00 AM,01/05/2021 03:41:55 PM,Y,N,"222 S HEWITT ST, 90012",222,S,HEWITT,ST,90012,34.046475758,-118.236032027,"(34.046475758, -118.236032027)",634,G,4,Central APC,14,Kevin de León,46,Arts District Little Tokyo,CENTRAL
1-1831758191,01/01/2021 07:54:48 AM,01/01/2021 01:46:34 PM,SR Created,LASAN,Dead Animal Removal,Closed,Mobile App,iOS,N,WV,,01/01/2021 01:46:34 PM,Y,,"10546 N ENCINO AVE, 91344",10546,N,ENCINO,AVE,91344,34.2625885197,-118.515227324,"(34.2625885197, -118.515227324)",501,B,3,North Valley APC,12,John Lee,118,Granada Hills South,DEVONSHIRE
1-1831756511,01/01/2021 07:55:20 AM,01/07/2021 08:28:26 PM,SR Created,LASAN,Bulky Items,Closed,Mobile App,iOS,Y,WV,01/07/2021 12:00:00 AM,01/07/2021 05:37:39 PM,Y,,"6355 N DE SOTO AVE, 91367",6355,N,DE SOTO,AVE,91367,34.1863789988,-118.588734921,"(34.1863789988, -118.588734921)",530,C,7,South Valley APC,3,Bob Blumenfield,16,Woodland Hills-Warner Center,TOPANGA
1-1831754611,01/01/2021 07:57:05 AM,01/02/2021 04:50:34 PM,SR Created,LASAN,Bulky Items,Closed,Mobile App,Android,Y,NC,01/02/2021 12:00:00 AM,01/02/2021 10:53:48 AM,Y,,"526 S ST ANDREWS PL, 90020",526,S,ST ANDREWS,PL,90020,34.0644647518,-118.311450058,"(34.0644647518, -118.311450058)",633,H,2,Central APC,4,Nithya Raman,119,Greater Wilshire,OLYMPIC
1-1831754651,01/01/2021 07:59:41 AM,01/02/2021 12:28:12 PM,SR Created,OCB,Graffiti Removal,Closed,Mobile App,iOS,Y,NEGB_ELA,01/02/2021 12:26:08 PM,01/02/2021 12:28:11 PM,Y,N,"425 N AVENUE 63, 90042",425,N,AVENUE 63,,90042,34.118653838,-118.180785696,"(34.118653838, -118.180785696)",595,E,1,East Los Angeles APC,14,Kevin de León,41,Historic Highland Park,NORTHEAST
1-1831761131,01/01/2021 08:02:45 AM,01/07/2021 11:10:49 AM,SR Created,LASAN,Metal/Household Appliances,Closed,Mobile App,iOS,N,EV,01/07/2021 12:00:00 AM,01/07/2021 11:07:28 AM,Y,,"8350 N BURNET AVE, 91343",8350,N,BURNET,AVE,91343,34.2230382164,-118.463253129,"(34.2230382164, -118.463253129)",531,H,2,North Valley APC,6,Nury Martinez,112,North Hills East,MISSION
1-1831758371,01/01/2021 08:06:26 AM,01/05/2021 09:43:15 AM,SR Created,LASAN,Bulky Items,Closed,Mobile App,iOS,N,WLA,01/05/2021 12:00:00 AM,01/05/2021 09:41:47 AM,Y,,"1027 N KAGAWA ST, 90272",1027,N,KAGAWA,ST,90272,34.0485632384,-118.51843729,"(34.0485632384, -118.51843729)",631,B,5,West Los Angeles APC,11,Mike Bonin,,,WEST LOS ANGELES
1-1831756651,01/01/2021 08:07:35 AM,01/04/2021 07:26:01 PM,SR Created,OCB,Graffiti Removal,Cancelled,Mobile App,iOS,N,LACC,01/04/2021 07:24:04 PM,01/04/2021 07:26:00 PM,Y,N,"1755 W MARTIN LUTHER KING, JR BLVD, 90062",1755,W,"MARTIN LUTHER KING, JR",BLVD,90062,34.0109432854,-118.310142364,"(34.0109432854, -118.310142364)",673,H,2,South Los Angeles APC,8,Marqueece Harris-Dawson,77,Empowerment Congress North,SOUTHWEST
1-1831754771,01/01/2021 08:07:46 AM,01/04/2021 06:27:28 PM,SR Created,LASAN,Metal/Household Appliances,Closed,Call,,Y,WLA,01/04/2021 12:00:00 AM,01/04/2021 06:24:34 PM,Y,N,"8011 S MCCONNELL AVE, 90045",8011,S,MCCONNELL,AVE,90045,33.9654949272,-118.412622159,"(33.9654949272, -118.412622159)",702,E,2,West Los Angeles APC,11,Mike Bonin,71,Westchester/Playa,PACIFIC
1-1831754801,01/01/2021 08:08:17 AM,01/06/2021 06:56:53 AM,SR Created,LASAN,Bulky Items,Closed,Mobile App,Android,Y,WLA,01/06/2021 12:00:00 AM,01/06/2021 06:55:10 AM,Y,,"1631 S BARRY AVE, 90025",1631,S,BARRY,AVE,90025,34.0422531696,-118.453687451,"(34.0422531696, -118.453687451)",632,A,5,West Los Angeles APC,11,Mike Bonin,66,West LA - Sawtelle,WEST LOS ANGELES
1-1831756681,01/01/2021 08:09:25 AM,01/05/2021 08:25:55 PM,SR Created,LASAN,Bulky Items,Closed,Self Service,,N,WLA,01/05/2021 12:00:00 AM,01/05/2021 04:48:07 PM,Y,N,"548 N EL MEDIO AVE, 90272",548,N,EL MEDIO,AVE,90272,34.0430198846,-118.534401073,"(34.0430198846, -118.534401073)",630,J,5,West Los Angeles APC,11,Mike Bonin,,,WEST LOS ANGELES
1-1831756701,01/01/2021 08:09:58 AM,01/06/2021 08:10:40 PM,SR Created,LASAN,Bulky Items,Closed,Self Service,,Y,HB,01/06/2021 12:00:00 AM,01/06/2021 03:25:22 PM,Y,N,"3701 S PACIFIC AVE, 90731",3701,S,PACIFIC,AVE,90731,33.7104279184,-118.288176204,"(33.7104279184, -118.288176204)",854,B,2,Harbor APC,15,Joe Buscaino,96,Coastal San Pedro,HARBOR
1-1831754891,01/01/2021 08:14:12 AM,01/05/2021 11:17:31 PM,SR Created,LASAN,Bulky Items,Closed,Mobile App,iOS,N,WLA,01/05/2021 12:00:00 AM,01/05/2021 12:14:52 PM,Y,,"17015 W PACIFIC COAST HWY, 90272",17015,W,PACIFIC COAST,HWY,90272,34.0396085696,-118.548591559,"(34.0396085696, -118.548591559)",630,H,6,West Los Angeles APC,11,Mike Bonin,,,WEST LOS ANGELES
1-1831758511,01/01/2021 08:16:09 AM,01/04/2021 06:48:52 AM,SR Created,LASAN,Bulky Items,Closed,Call,,N,NC,01/04/2021 12:00:00 AM,01/04/2021 06:48:11 AM,Y,N,"1822 E BRIDGE ST, 90033",1822,E,BRIDGE,ST,90033,34.051055641,-118.215195409,"(34.051055641, -118.215195409)",635,A,4,East Los Angeles APC,14,Kevin de León,50,Boyle Heights,HOLLENBECK
1-1831756791,01/01/2021 08:16:59 AM,01/04/2021 08:08:22 PM,SR Created,LASAN,Bulky Items,Closed,Call,,N,NC,01/04/2021 12:00:00 AM,01/04/2021 01:23:26 PM,Y,N,"1822 E BRIDGE ST, 90033",1822,E,BRIDGE,ST,90033,34.051055641,-118.215195409,"(34.051055641, -118.215195409)",635,A,4,East Los Angeles APC,14,Kevin de León,50,Boyle Heights,HOLLENBECK
1-1831758551,01/01/2021 08:17:18 AM,01/07/2021 11:54:43 AM,SR Created,LASAN,Bulky Items,Closed,Call,,N,NC,01/07/2021 12:00:00 AM,01/07/2021 11:44:29 AM,Y,N,"1726 N MARIPOSA AVE, 90027",1726,N,MARIPOSA,AVE,90027,34.1026368223,-118.299393346,"(34.1026368223, -118.299393346)",593,J,4,Central APC,4,Nithya Raman,36,Los Feliz,NORTHEAST
1-1831756831,01/01/2021 08:17:37 AM,01/01/2021 02:05:20 PM,SR Created,LASAN,Dead Animal Removal,Closed,Mobile App,iOS,N,HB,,01/01/2021 02:05:20 PM,Y,,"7300 S FIGUEROA ST, 90003",7300,S,FIGUEROA,ST,90003,33.9734844217,-118.282518336,"(33.9734844217, -118.282518336)",704,B,1,South Los Angeles APC,8,Marqueece Harris-Dawson,,,77TH STREET
1-1831761971,01/01/2021 08:17:37 AM,01/04/2021 07:15:23 AM,SR Created,LASAN,Bulky Items,Closed,Call,,N,NC,01/04/2021 12:00:00 AM,01/04/2021 07:13:23 AM,Y,N,"1822 E BRIDGE ST, 90033",1822,E,BRIDGE,ST,90033,34.051055641,-118.215195409,"(34.051055641, -118.215195409)",635,A,4,East Los Angeles APC,14,Kevin de León,50,Boyle Heights,HOLLENBECK
1-1831762011,01/01/2021 08:18:16 AM,01/07/2021 05:15:08 PM,SR Created,LASAN,Bulky Items,Closed,Call,,N,NC,01/07/2021 12:00:00 AM,01/07/2021 12:03:27 PM,Y,N,"1745 N MARIPOSA AVE, 90027",1745,N,MARIPOSA,AVE,90027,34.103097779,-118.299731207,"(34.103097779, -118.299731207)",593,J,4,Central APC,4,Nithya Raman,36,Los Feliz,NORTHEAST
1-1831762031,01/01/2021 08:18:19 AM,01/07/2021 05:24:21 PM,SR Created,LASAN,Bulky Items,Closed,Call,,N,NC,01/07/2021 12:00:00 AM,01/07/2021 05:21:43 PM,Y,N,"4230 W LOS FELIZ BLVD, 90027",4230,W,LOS FELIZ,BLVD,90027,34.1122257741,-118.283975104,"(34.1122257741, -118.283975104)",594,B,2,Central APC,4,Nithya Raman,36,Los Feliz,NORTHEAST
1-1831762051,01/01/2021 08:18:49 AM,01/07/2021 02:17:35 PM,SR Created,LASAN,Bulky Items,Closed,Mobile App,iOS,N,NC,01/07/2021 12:00:00 AM,01/07/2021 02:09:01 PM,Y,,"4942 W MAPLEWOOD AVE, 90004",4942,W,MAPLEWOOD,AVE,90004,34.0801541492,-118.310799656,"(34.0801541492, -118.310799656)",593,H,7,Central APC,4,Nithya Raman,119,Greater Wilshire,OLYMPIC
1-1831758611,01/01/2021 08:19:00 AM,01/07/2021 10:56:56 PM,SR Created,LASAN,Bulky Items,Closed,Call,,N,NC,01/07/2021 12:00:00 AM,01/07/2021 12:06:17 PM,Y,N,"1759 N MARIPOSA AVE, 90027",1759,N,MARIPOSA,AVE,90027,34.1034442101,-118.299610474,"(34.1034442101, -118.299610474)",593,J,4,Central APC,4,Nithya Raman,36,Los Feliz,NORTHEAST
1-1831762091,01/01/2021 08:19:40 AM,01/07/2021 06:04:08 PM,SR Created,LASAN,Bulky Items,Closed,Call,,N,NC,01/07/2021 12:00:00 AM,01/07/2021 05:58:43 PM,Y,N,"5540 W FRANKLIN AVE, 90028",5540,W,FRANKLIN,AVE,90028,34.1052377647,-118.310416806,"(34.1052377647, -118.310416806)",593,H,3,Central APC,13,Mitch O'Farrell,30,Hollywood United,HOLLYWOOD
1-1831762111,01/01/2021 08:19:49 AM,01/07/2021 12:53:02 PM,SR Created,LASAN,Bulky Items,Closed,Call,,N,NC,01/07/2021 12:00:00 AM,01/07/2021 12:45:56 PM,Y,N,"1824 N MARIPOSA AVE, 90027",1824,N,MARIPOSA,AVE,90027,34.1042213859,-118.299377736,"(34.1042213859, -118.299377736)",593,J,4,Central APC,4,Nithya Raman,36,Los Feliz,NORTHEAST
1-1831761401,01/01/2021 08:20:37 AM,01/07/2021 07:12:39 PM,SR Created,LASAN,Metal/Household Appliances,Closed,Call,,N,NC,01/07/2021 12:00:00 AM,01/07/2021 08:17:11 AM,Y,N,"1827 N MARIPOSA AVE, 90027",1827,N,MARIPOSA,AVE,90027,34.1042683252,-118.299650717,"(34.1042683252, -118.299650717)",593,J,4,Central APC,4,Nithya Raman,36,Los Feliz,NORTHEAST
1-1831762171,01/01/2021 08:20:57 AM,01/06/2021 03:35:00 AM,SR Created,LASAN,Bulky Items,Closed,Call,,N,EV,01/05/2021 12:00:00 AM,01/05/2021 12:13:20 PM,Y,N,"6952 N ATOLL AVE, 91605",6952,N,ATOLL,AVE,91605,34.1969523312,-118.420265609,"(34.1969523312, -118.420265609)",532,D,5,South Valley APC,2,Paul Krekorian,22,North Hollywood West,NORTH HOLLYWOOD
1-1831761431,01/01/2021 08:21:25 AM,01/02/2021 10:25:08 AM,SR Created,ITA,Other,Closed,Mobile App,iOS,Y,,,01/02/2021 10:25:07 AM,Y,N,"3565 S MOORE ST, 90066",3565,S,MOORE,ST,90066,34.0050381985,-118.444247717,"(34.0050381985, -118.444247717)",672,B,4,West Los Angeles APC,11,Mike Bonin,67,Mar Vista,PACIFIC
1-1831758681,01/01/2021 08:22:35 AM,01/01/2021 10:37:02 AM,SR Created,LASAN,Dead Animal Removal,Closed,Call,,N,HB,,01/01/2021 10:37:02 AM,Y,N,"384 W 19TH ST, 90731",384,W,19TH,ST,90731,33.7270564388,-118.285452905,"(33.7270564388, -118.285452905)",824,C,7,Harbor APC,15,Joe Buscaino,96,Coastal San Pedro,HARBOR
1-1831762981,01/01/2021 08:22:46 AM,01/04/2021 05:08:43 PM,SR Created,LASAN,Bulky Items,Closed,Call,,N,WV,01/04/2021 12:00:00 AM,01/04/2021 02:45:26 PM,Y,N,"12566 N HENZIE PL, 91344",12566,N,HENZIE,PL,91344,34.2989069485,-118.511097241,"(34.2989069485, -118.511097241)",481,B,5,North Valley APC,12,John Lee,4,Granada Hills North,DEVONSHIRE
1-1831758701,01/01/2021 08:23:07 AM,01/02/2021 03:45:23 AM,SR Created,OCB,Graffiti Removal,Cancelled,Mobile App,iOS,Y,NEGB_ELA,01/02/2021 03:44:09 AM,01/02/2021 03:45:22 AM,Y,N,"6150 E PIEDMONT AVE, 90042",6150,E,PIEDMONT,AVE,90042,34.1131187944,-118.188964558,"(34.1131187944, -118.188964558)",595,D,2,East Los Angeles APC,1,Gilbert Cedillo,41,Historic Highland Park,NORTHEAST
1-1831761511,01/01/2021 08:24:53 AM,01/06/2021 03:33:51 AM,SR Created,LASAN,Bulky Items,Closed,Call,,N,EV,01/05/2021 12:00:00 AM,01/05/2021 12:13:04 PM,Y,N,"7030 N LONGRIDGE AVE, 91605",7030,N,LONGRIDGE,AVE,91605,34.1982355617,-118.421342768,"(34.1982355617, -118.421342768)",532,D,5,South Valley APC,2,Paul Krekorian,22,North Hollywood West,NORTH HOLLYWOOD
1-1831758771,01/01/2021 08:26:26 AM,01/06/2021 03:44:55 AM,SR Created,LASAN,Bulky Items,Closed,Call,,N,EV,01/05/2021 12:00:00 AM,01/05/2021 12:11:35 PM,Y,N,"13243 W VANOWEN ST, 91605",13243,W,VANOWEN,ST,91605,34.1940232105,-118.421685518,"(34.1940232105, -118.421685518)",532,D,5,South Valley APC,2,Paul Krekorian,22,North Hollywood West,NORTH HOLLYWOOD
1-1831761541,01/01/2021 08:26:44 AM,01/02/2021 07:29:54 PM,SR Created,LASAN,Bulky Items,Closed,Call,,N,WV,01/02/2021 12:00:00 AM,01/02/2021 11:20:01 AM,Y,N,"22231 W ERWIN ST, 91367",22231,W,ERWIN,ST,91367,34.1838423255,-118.611351351,"(34.1838423255, -118.611351351)",529,J,7,South Valley APC,3,Bob Blumenfield,16,Woodland Hills-Warner Center,TOPANGA
1-1831761581,01/01/2021 08:27:35 AM,01/12/2021 05:32:53 AM,SR Created,LASAN,Homeless Encampment,Closed,Self Service,,Y,EV,01/07/2021 12:00:00 AM,01/12/2021 05:32:23 AM,Y,N,"LANKERSHIM BLVD AT RIVERSIDE DR, 91602",,,,,91602,34.1522560251,-118.367033713,"(34.1522560251, -118.367033713)",563,A,4,South Valley APC,4,Nithya Raman,24,NoHo,NORTH HOLLYWOOD
1-1831761681,01/01/2021 08:32:06 AM,01/06/2021 03:30:03 AM,SR Created,LASAN,Bulky Items,Closed,Call,,N,EV,01/05/2021 12:00:00 AM,01/05/2021 12:12:28 PM,Y,N,"13142 W VANOWEN ST, 91605",13142,W,VANOWEN,ST,91605,34.1937855196,-118.419699871,"(34.1937855196, -118.419699871)",532,D,5,South Valley APC,2,Paul Krekorian,21,Greater Valley Glen,NORTH HOLLYWOOD
1-1831764911,01/01/2021 08:33:00 AM,01/07/2021 12:33:25 AM,SR Created,LASAN,Bulky Items,Closed,Mobile App,iOS,N,EV,01/06/2021 12:00:00 AM,01/06/2021 09:04:43 AM,Y,,"4614 N VINELAND AVE, 91602",4614,N,VINELAND,AVE,91602,34.1543010107,-118.37012262,"(34.1543010107, -118.37012262)",563,A,4,South Valley APC,2,Paul Krekorian,24,NoHo,NORTH HOLLYWOOD
1-1831761741,01/01/2021 08:33:48 AM,01/09/2021 08:20:19 AM,SR Created,LASAN,Bulky Items,Closed,Mobile App,iOS,N,WV,01/07/2021 12:00:00 AM,01/07/2021 03:02:37 PM,Y,,"19440 W SHENANGO DR, 91356",19440,W,SHENANGO,DR,91356,34.1437220829,-118.557064727,"(34.1437220829, -118.557064727)",560,F,6,South Valley APC,3,Bob Blumenfield,17,Tarzana,WEST VALLEY
1-1831761771,01/01/2021 08:34:01 AM,01/06/2021 04:20:40 AM,SR Created,LASAN,Bulky Items,Closed,Call,,N,EV,01/05/2021 12:00:00 AM,01/05/2021 08:04:12 AM,Y,N,"12826 W VANOWEN ST, 91605",12826,W,VANOWEN,ST,91605,34.1937767626,-118.413019329,"(34.1937767626, -118.413019329)",532,E,5,South Valley APC,2,Paul Krekorian,21,Greater Valley Glen,NORTH HOLLYWOOD
1-1831763161,01/01/2021 08:34:25 AM,01/07/2021 11:28:07 AM,SR Created,LASAN,Bulky Items,Closed,Mobile App,iOS,N,EV,01/07/2021 12:00:00 AM,01/07/2021 10:03:48 AM,Y,N,"8958 N BURNET AVE, 91343",8958,N,BURNET,AVE,91343,34.2332328536,-118.463147585,"(34.2332328536, -118.463147585)",501,H,7,North Valley APC,7,Monica Rodriguez,112,North Hills East,MISSION
1-1831765041,01/01/2021 08:35:22 AM,01/06/2021 01:15:12 AM,SR Created,LASAN,Illegal Dumping Pickup,Closed,Call,,N,EV,01/05/2021 12:00:00 AM,01/05/2021 11:09:07 AM,Y,N,"12528 W VANOWEN ST, 91605",12528,W,VANOWEN,ST,91605,34.1937833341,-118.406296656,"(34.1937833341, -118.406296656)",532,F,5,South Valley APC,2,Paul Krekorian,21,Greater Valley Glen,NORTH HOLLYWOOD
1-1831762441,01/01/2021 08:38:19 AM,01/01/2021 01:46:44 PM,SR Created,LASAN,Dead Animal Removal,Closed,Call,,N,WV,,01/01/2021 01:46:26 PM,Y,N,"8954 N COLLETT AVE, 91343",8954,N,COLLETT,AVE,91343,34.2335086098,-118.483888585,"(34.2335086098, -118.483888585)",501,F,7,North Valley APC,12,John Lee,111,North Hills West,DEVONSHIRE
1-1831762491,01/01/2021 08:39:28 AM,01/05/2021 10:24:14 AM,SR Created,LASAN,Metal/Household Appliances,Closed,Self Service,,N,NC,01/05/2021 12:00:00 AM,01/05/2021 10:24:09 AM,Y,N,"5127 N DAHLIA DR, 90041",5127,N,DAHLIA,DR,90041,34.1404178945,-118.199898794,"(34.1404178945, -118.199898794)",565,B,5,East Los Angeles APC,14,Kevin de León,40,Eagle Rock,NORTHEAST
1-1831765201,01/01/2021 08:40:22 AM,01/08/2021 12:50:30 AM,SR Created,LASAN,Bulky Items,Closed,Mobile App,iOS,Y,WV,01/07/2021 12:00:00 AM,01/07/2021 03:08:25 PM,Y,,"5728 N LINDLEY AVE, 91316",5728,N,LINDLEY,AVE,91316,34.17553843,-118.527150681,"(34.17553843, -118.527150681)",561,A,1,South Valley APC,5,Paul Koretz,18,Encino,WEST VALLEY
1-1831762561,01/01/2021 08:40:27 AM,01/02/2021 05:12:52 PM,SR Created,LASAN,Homeless Encampment,Closed,Self Service,,N,HB,01/02/2021 12:00:00 AM,01/02/2021 01:53:41 PM,Y,N,"751 W 17TH ST, 90731",751,W,17TH,ST,90731,33.7286739247,-118.293475845,"(33.7286739247, -118.293475845)",824,B,6,Harbor APC,15,Joe Buscaino,95,Central San Pedro,HARBOR
1-1831762601,01/01/2021 08:40:47 AM,01/07/2021 07:32:39 AM,SR Created,LASAN,Bulky Items,Closed,Mobile App,iOS,N,NC,01/07/2021 12:00:00 AM,01/07/2021 07:26:46 AM,Y,,"3833 W EVANS ST, 90027",3833,W,EVANS,ST,90027,34.1074605732,-118.274819771,"(34.1074605732, -118.274819771)",594,C,3,Central APC,4,Nithya Raman,36,Los Feliz,NORTHEAST
1-1831765971,01/01/2021 08:41:13 AM,01/08/2021 03:23:40 AM,SR Created,LASAN,Bulky Items,Closed,Mobile App,iOS,Y,WV,01/07/2021 12:00:00 AM,01/07/2021 03:09:30 PM,Y,,"5728 N LINDLEY AVE, 91316",5728,N,LINDLEY,AVE,91316,34.17553843,-118.527150681,"(34.17553843, -118.527150681)",561,A,1,South Valley APC,5,Paul Koretz,18,Encino,WEST VALLEY
1-1831763291,01/01/2021 08:41:19 AM,01/06/2021 07:24:12 PM,SR Created,OCB,Graffiti Removal,Cancelled,Email,,N,WVA,01/06/2021 07:23:45 PM,01/06/2021 07:24:12 PM,Y,N,"19230 W SESNON BLVD, 91326",19230,W,SESNON,BLVD,91326,34.2959220883,-118.553312375,"(34.2959220883, -118.553312375)",480,G,6,North Valley APC,12,John Lee,114,Porter Ranch,DEVONSHIRE
1-1831765291,01/01/2021 08:42:11 AM,01/04/2021 08:36:29 PM,SR Created,OCB,Graffiti Removal,Cancelled,Email,,N,WVA,01/04/2021 12:00:00 AM,01/04/2021 08:36:29 PM,Y,N,"9800 N HAYVENHURST AVE, 91343",9800,N,HAYVENHURST,AVE,91343,34.2483053753,-118.493548046,"(34.2483053753, -118.493548046)",501,D,5,North Valley APC,12,John Lee,120,Northridge East,DEVONSHIRE
1-1831762681,01/01/2021 08:42:20 AM,01/02/2021 10:32:52 AM,SR Created,ITA,Other,Closed,Mobile App,iOS,N,,,01/02/2021 10:32:51 AM,Y,N,"4822 N ALATAR DR, 91364",4822,N,ALATAR,DR,91364,34.1534129065,-118.600363609,"(34.1534129065, -118.600363609)",560,A,4,South Valley APC,3,Bob Blumenfield,16,Woodland Hills-Warner Center,TOPANGA
1-1831765351,01/01/2021 08:43:32 AM,01/05/2021 10:51:51 PM,SR Created,LASAN,Bulky Items,Closed,Self Service,,N,NC,01/05/2021 12:00:00 AM,01/05/2021 01:18:37 PM,Y,N,"5127 N DAHLIA DR, 90041",5127,N,DAHLIA,DR,90041,34.1404178945,-118.199898794,"(34.1404178945, -118.199898794)",565,B,5,East Los Angeles APC,14,Kevin de León,40,Eagle Rock,NORTHEAST
1-1831763481,01/01/2021 08:45:59 AM,01/08/2021 05:42:32 AM,SR Created,LASAN,Bulky Items,Closed,Mobile App,iOS,Y,WV,01/07/2021 12:00:00 AM,01/07/2021 02:50:50 PM,Y,,"5721 N HESPERIA AVE, 91316",5721,N,HESPERIA,AVE,91316,34.1743777966,-118.526405995,"(34.1743777966, -118.526405995)",561,A,1,South Valley APC,5,Paul Koretz,18,Encino,WEST VALLEY
1-1831766151,01/01/2021 08:46:51 AM,01/04/2021 08:58:56 PM,SR Created,LASAN,Homeless Encampment,Closed,Mobile App,Android,N,HB,01/04/2021 12:00:00 AM,01/04/2021 04:27:11 PM,Y,,"833 W 182ND ST, 90248",833,W,182ND,ST,90248,33.8679585309,-118.289262962,"(33.8679585309, -118.289262962)",764,B,1,Harbor APC,15,Joe Buscaino,91,Harbor Gateway South,HARBOR
1-1831765451,01/01/2021 08:47:34 AM,01/07/2021 04:25:57 AM,SR Created,LASAN,Bulky Items,Closed,Self Service,,N,EV,01/06/2021 12:00:00 AM,01/06/2021 08:44:45 AM,Y,N,"5206 N NORWICH AVE, 91411",5206,N,NORWICH,AVE,91411,34.1651507789,-118.460567952,"(34.1651507789, -118.460567952)",561,H,2,South Valley APC,4,Nithya Raman,26,Sherman Oaks,VAN NUYS
1-1831766221,01/01/2021 08:48:26 AM,01/02/2021 08:10:45 AM,SR Created,LASAN,Bulky Items,Closed,Call,,Y,SLA,01/02/2021 12:00:00 AM,01/02/2021 07:49:59 AM,Y,N,"152 W 102ND ST, 90003",152,W,102ND,ST,90003,33.9436242928,-118.275755356,"(33.9436242928, -118.275755356)",704,C,5,South Los Angeles APC,8,Marqueece Harris-Dawson,87,Empowerment Congress Southeast,SOUTHEAST
1-1831765521,01/01/2021 08:48:50 AM,01/04/2021 10:31:10 PM,SR Created,LASAN,Homeless Encampment,Closed,Mobile App,Android,N,HB,01/04/2021 12:00:00 AM,01/04/2021 04:27:53 PM,Y,,"18300 S VERMONT AVE, 90248",18300,S,VERMONT,AVE,90248,33.8650578899,-118.290362184,"(33.8650578899, -118.290362184)",764,B,2,Harbor APC,15,Joe Buscaino,91,Harbor Gateway South,HARBOR
1-1831766251,01/01/2021 08:49:01 AM,03/31/2021 07:35:43 AM,SR Created,BSL,Multiple Streetlight Issue,Closed,Mobile App,iOS,N,NORTH,01/01/2021 12:00:00 AM,01/01/2021 12:00:00 AM,Y,,"BRANFORD ST AT LAUREL CANYON BLVD, 91331",,,,,91331,34.2408922735,-118.413249095,"(34.2408922735, -118.413249095)",502,E,6,North Valley APC,6,Nury Martinez,7,Pacoima,FOOTHILL
1-1831765581,01/01/2021 08:49:36 AM,01/02/2021 08:10:36 AM,SR Created,LASAN,Bulky Items,Closed,Call,,Y,SLA,01/02/2021 12:00:00 AM,01/02/2021 07:49:44 AM,Y,N,"152 W 102ND ST, 90003",152,W,102ND,ST,90003,33.9436242928,-118.275755356,"(33.9436242928, -118.275755356)",704,C,5,South Los Angeles APC,8,Marqueece Harris-Dawson,87,Empowerment Congress Southeast,SOUTHEAST
1-1831765601,01/01/2021 08:50:00 AM,01/07/2021 08:29:20 PM,SR Created,LASAN,Metal/Household Appliances,Closed,Mobile App,iOS,Y,WV,01/07/2021 12:00:00 AM,01/07/2021 08:27:13 PM,Y,,"5425 N ZELZAH AVE, 91316",5425,N,ZELZAH,AVE,91316,34.1695080047,-118.522200255,"(34.1695080047, -118.522200255)",561,A,2,South Valley APC,5,Paul Koretz,18,Encino,WEST VALLEY
1-1831763611,01/01/2021 08:50:35 AM,01/02/2021 03:02:40 PM,SR Created,LASAN,Metal/Household Appliances,Closed,Call,,Y,SLA,01/02/2021 12:00:00 AM,01/02/2021 02:58:45 PM,Y,N,"152 W 102ND ST, 90003",152,W,102ND,ST,90003,33.9436242928,-118.275755356,"(33.9436242928, -118.275755356)",704,C,5,South Los Angeles APC,8,Marqueece Harris-Dawson,87,Empowerment Congress Southeast,SOUTHEAST
1-1831763631,01/01/2021 08:50:51 AM,01/01/2021 01:46:07 PM,SR Created,LASAN,Dead Animal Removal,Closed,Mobile App,Android,N,WV,,01/01/2021 01:46:06 PM,Y,,"5805 N WHITE OAK AVE, 91316",5805,N,WHITE OAK,AVE,91316,34.1761774269,-118.519020975,"(34.1761774269, -118.519020975)",561,B,1,South Valley APC,5,Paul Koretz,18,Encino,WEST VALLEY
1-1831766981,01/01/2021 08:50:52 AM,01/01/2021 01:46:55 PM,SR Created,LASAN,Dead Animal Removal,Closed,Self Service,,N,WV,,01/01/2021 01:45:51 PM,Y,N,"22803 W DOLOROSA ST, 91367",22803,W,DOLOROSA,ST,91367,34.1702339757,-118.623711214,"(34.1702339757, -118.623711214)",559,H,2,South Valley APC,3,Bob Blumenfield,16,Woodland Hills-Warner Center,TOPANGA
1-1831767061,01/01/2021 08:54:03 AM,01/01/2021 08:54:07 AM,SR Created,LADWP,Report Water Waste,Closed,Mobile App,iOS,N,,,01/01/2021 08:54:03 AM,Y,,"10040 N LAUREL CANYON BLVD, 91331",10040,N,LAUREL CANYON,BLVD,91331,34.2527231519,-118.425458838,"(34.2527231519, -118.425458838)",502,C,4,North Valley APC,7,Monica Rodriguez,7,Pacoima,FOOTHILL
1-1831763681,01/01/2021 08:55:17 AM,01/02/2021 08:16:23 AM,SR Created,LASAN,Bulky Items,Closed,Self Service,,N,WLA,01/02/2021 12:00:00 AM,01/02/2021 07:52:38 AM,Y,N,"2615 S CULLEN ST, 90034",2615,S,CULLEN,ST,90034,34.0336525881,-118.377398918,"(34.0336525881, -118.377398918)",632,J,6,South Los Angeles APC,10,Mark Ridley-Thomas,61,South Robertson,WILSHIRE
1-1831763701,01/01/2021 08:55:55 AM,01/07/2021 04:11:53 AM,SR Created,LASAN,Bulky Items,Closed,Mobile App,iOS,N,EV,01/06/2021 12:00:00 AM,01/06/2021 09:09:27 AM,Y,,"5319 N CEDROS AVE, 91411",5319,N,CEDROS,AVE,91411,34.1671456685,-118.453227564,"(34.1671456685, -118.453227564)",561,J,2,South Valley APC,4,Nithya Raman,26,Sherman Oaks,VAN NUYS
1-1831767171,01/01/2021 08:56:16 AM,01/06/2021 02:34:18 PM,SR Created,LASAN,Bulky Items,Closed,Call,,N,WLA,01/06/2021 12:00:00 AM,01/06/2021 02:30:33 PM,Y,N,"2690 S GREENFIELD AVE, 90064",2690,S,GREENFIELD,AVE,90064,34.033709362,-118.428108706,"(34.033709362, -118.428108706)",632,C,7,West Los Angeles APC,5,Paul Koretz,62,Westside,WEST LOS ANGELES
1-1831766431,01/01/2021 08:57:47 AM,01/06/2021 04:50:35 PM,SR Created,LASAN,Electronic Waste,Closed,Call,,N,WLA,01/06/2021 12:00:00 AM,01/06/2021 04:46:58 PM,Y,N,"2690 S GREENFIELD AVE, 90064",2690,S,GREENFIELD,AVE,90064,34.033709362,-118.428108706,"(34.033709362, -118.428108706)",632,C,7,West Los Angeles APC,5,Paul Koretz,62,Westside,WEST LOS ANGELES
1-1831763791,01/01/2021 08:59:58 AM,01/02/2021 07:22:58 PM,SR Created,LASAN,Bulky Items,Closed,Mobile App,iOS,N,WV,01/02/2021 12:00:00 AM,01/02/2021 03:06:35 PM,Y,,"7356 N SHOUP AVE, 91307",7356,N,SHOUP,AVE,91307,34.2044186609,-118.614521024,"(34.2044186609, -118.614521024)",529,J,4,South Valley APC,3,Bob Blumenfield,13,Canoga Park,TOPANGA
1-1831766511,01/01/2021 09:01:16 AM,01/01/2021 12:35:29 PM,SR Created,ITA,Other,Closed,Self Service,,Y,,,01/01/2021 12:35:28 PM,Y,N,"5545 W BARTON AVE, 90038",5545,W,BARTON,AVE,90038,34.0876717684,-118.312874675,"(34.0876717684, -118.312874675)",593,H,6,Central APC,13,Mitch O'Farrell,33,Hollywood Studio District,HOLLYWOOD
1-1831765841,01/01/2021 09:02:06 AM,01/06/2021 05:52:59 PM,SR Created,LASAN,Bulky Items,Closed,Self Service,,N,NC,01/06/2021 12:00:00 AM,01/06/2021 09:31:47 AM,Y,N,"1631 N BRIDGEPORT DR, 90065",1631,N,BRIDGEPORT,DR,90065,34.1021472885,-118.226276686,"(34.1021472885, -118.226276686)",594,H,4,East Los Angeles APC,1,Gilbert Cedillo,102,Greater Cypress Park,NORTHEAST
1-1831767341,01/01/2021 09:03:30 AM,01/14/2021 04:29:18 PM,SR Created,OCB,Graffiti Removal,Closed,Mobile App,iOS,N,CCAC,01/04/2021 02:08:00 PM,01/14/2021 04:29:17 PM,Y,N,"770 S COLUMBIA AVE, 90017",770,S,COLUMBIA,AVE,90017,34.0508689834,-118.269614559,"(34.0508689834, -118.269614559)",634,D,4,Central APC,1,Gilbert Cedillo,121,Westlake South,RAMPART
1-1831767921,01/01/2021 09:03:33 AM,01/06/2021 03:04:04 AM,SR Created,LASAN,Homeless Encampment,Closed,Call,,N,SLA,01/05/2021 12:00:00 AM,01/05/2021 07:15:10 AM,Y,N,"3748 S VAN NESS AVE, 90018",3748,S,VAN NESS,AVE,90018,34.0195259334,-118.316493696,"(34.0195259334, -118.316493696)",673,G,1,South Los Angeles APC,8,Marqueece Harris-Dawson,77,Empowerment Congress North,SOUTHWEST
1-1831765891,01/01/2021 09:03:44 AM,01/07/2021 04:47:21 PM,SR Created,LASAN,Bulky Items,Closed,Mobile App,iOS,Y,NC,01/07/2021 12:00:00 AM,01/07/2021 04:46:04 PM,Y,,"4627 W FINLEY AVE, 90027",4627,W,FINLEY,AVE,90027,34.1077895754,-118.291285308,"(34.1077895754, -118.291285308)",594,A,3,Central APC,4,Nithya Raman,36,Los Feliz,NORTHEAST
1-1831767941,01/01/2021 09:03:48 AM,01/02/2021 10:50:35 PM,SR Created,LASAN,Bulky Items,Closed,Mobile App,iOS,N,WLA,01/02/2021 12:00:00 AM,01/02/2021 07:57:31 AM,Y,,"5785 W CORBETT ST, 90016",5785,W,CORBETT,ST,90016,34.0251964302,-118.371679355,"(34.0251964302, -118.371679355)",673,A,1,South Los Angeles APC,10,Mark Ridley-Thomas,75,West Adams,SOUTHWEST
1-1831766581,01/01/2021 09:04:22 AM,01/04/2021 07:59:53 PM,SR Created,OCB,Graffiti Removal,Closed,Mobile App,iOS,N,LACC,01/04/2021 07:59:37 PM,01/04/2021 07:59:52 PM,Y,N,"5651 W PICO BLVD, 90019",5651,W,PICO,BLVD,90019,34.0504013572,-118.361235374,"(34.0504013572, -118.361235374)",633,B,4,Central APC,10,Mark Ridley-Thomas,60,P.I.C.O.,WILSHIRE
1-1831768951,01/01/2021 09:05:01 AM,01/04/2021 02:14:43 PM,SR Created,OCB,Graffiti Removal,Closed,Mobile App,iOS,N,CCAC,01/04/2021 12:00:00 AM,01/04/2021 02:14:42 PM,Y,N,"807 S COLUMBIA AVE, 90017",807,S,COLUMBIA,AVE,90017,34.0502845212,-118.27029956,"(34.0502845212, -118.27029956)",634,D,4,Central APC,1,Gilbert Cedillo,121,Westlake South,RAMPART
1-1831766621,01/01/2021 09:05:18 AM,01/02/2021 09:53:06 AM,SR Created,LASAN,Bulky Items,Closed,Mobile App,iOS,N,EV,01/02/2021 12:00:00 AM,01/02/2021 09:50:18 AM,Y,,"10607 N LEV AVE, 91345",10607,N,LEV,AVE,91345,34.2632010838,-118.447242655,"(34.2632010838, -118.447242655)",502,A,3,North Valley APC,7,Monica Rodriguez,101,Mission Hills,MISSION
1-1831766661,01/01/2021 09:06:22 AM,01/03/2021 12:42:35 PM,SR Created,OCB,Graffiti Removal,Cancelled,Mobile App,iOS,N,LACC,01/03/2021 12:42:18 PM,01/03/2021 12:42:34 PM,Y,N,"5608 W PICO BLVD, 90019",5608,W,PICO,BLVD,90019,34.0499209872,-118.360898679,"(34.0499209872, -118.360898679)",633,B,4,Central APC,10,Mark Ridley-Thomas,60,P.I.C.O.,WILSHIRE
1-1831769001,01/01/2021 09:06:37 AM,01/04/2021 11:12:23 AM,SR Created,LASAN,Bulky Items,Closed,Call,,N,EV,01/04/2021 12:00:00 AM,01/04/2021 10:58:54 AM,Y,N,"11566 N VANPORT AVE, 91342",11566,N,VANPORT,AVE,91342,34.2804530111,-118.39319411,"(34.2804530111, -118.39319411)",482,G,7,North Valley APC,7,Monica Rodriguez,9,Foothill Trails District,FOOTHILL
1-1831769061,01/01/2021 09:08:07 AM,01/04/2021 08:21:22 PM,SR Created,OCB,Graffiti Removal,Closed,Mobile App,iOS,N,LACC,01/04/2021 08:21:06 PM,01/04/2021 08:21:22 PM,Y,N,"5609 W PICO BLVD, 90019",5609,W,PICO,BLVD,90019,34.0500984995,-118.360334819,"(34.0500984995, -118.360334819)",633,B,4,Central APC,10,Mark Ridley-Thomas,60,P.I.C.O.,WILSHIRE
1-1831768161,01/01/2021 09:08:21 AM,01/05/2021 12:04:58 PM,SR Created,LASAN,Bulky Items,Closed,Mobile App,iOS,N,NC,01/05/2021 12:00:00 AM,01/05/2021 12:00:14 PM,Y,,"930 W COLORADO BLVD, 90041",930,W,COLORADO,BLVD,90041,34.1387821456,-118.185905254,"(34.1387821456, -118.185905254)",565,D,6,East Los Angeles APC,14,Kevin de León,40,Eagle Rock,NORTHEAST
1-1831769091,01/01/2021 09:09:48 AM,01/08/2021 02:01:52 PM,SR Created,OCB,Graffiti Removal,Closed,Mobile App,iOS,N,CCAC,01/08/2021 12:00:00 AM,01/08/2021 02:01:51 PM,Y,N,"726 S VALENCIA ST, 90017",726,S,VALENCIA,ST,90017,34.0524401076,-118.269667372,"(34.0524401076, -118.269667372)",634,D,4,Central APC,1,Gilbert Cedillo,121,Westlake South,RAMPART
1-1831768241,01/01/2021 09:10:45 AM,01/02/2021 11:38:49 AM,SR Created,LASAN,Metal/Household Appliances,Closed,Self Service,,N,NC,01/02/2021 12:00:00 AM,01/02/2021 11:35:26 AM,Y,N,"1146 S CITRUS AVE, 90019",1146,S,CITRUS,AVE,90019,34.0538294936,-118.342240812,"(34.0538294936, -118.342240812)",633,D,4,Central APC,10,Mark Ridley-Thomas,104,Olympic Park,WILSHIRE
1-1831767611,01/01/2021 09:11:22 AM,01/09/2021 03:39:55 AM,SR Created,LASAN,Illegal Dumping Pickup,Closed,Mobile App,Android,Y,EV,01/08/2021 12:00:00 AM,01/08/2021 07:27:27 PM,Y,N,"14572 W SAYRE ST, 91342",14572,W,SAYRE,ST,91342,34.2958392335,-118.450012493,"(34.2958392335, -118.450012493)",481,J,5,North Valley APC,7,Monica Rodriguez,5,Sylmar,MISSION
1-1831769141,01/01/2021 09:11:33 AM,01/04/2021 07:55:05 AM,SR Created,OCB,Graffiti Removal,Cancelled,Mobile App,iOS,N,LACC,01/04/2021 07:54:46 AM,01/04/2021 07:55:04 AM,Y,N,"5553 W PICO BLVD, 90019",5553,W,PICO,BLVD,90019,34.0495856,-118.358872162,"(34.0495856, -118.358872162)",633,B,4,Central APC,10,Mark Ridley-Thomas,60,P.I.C.O.,WILSHIRE
1-1831769171,01/01/2021 09:12:16 AM,01/04/2021 08:49:33 PM,SR Created,OCB,Graffiti Removal,Cancelled,Mobile App,Android,Y,WVA,01/04/2021 08:48:50 PM,01/04/2021 08:49:32 PM,Y,N,"14235 W SHERMAN WAY, 91405",14235,W,SHERMAN,WAY,91405,34.2013472702,-118.443553093,"(34.2013472702, -118.443553093)",532,A,4,South Valley APC,2,Paul Krekorian,20,Van Nuys,VAN NUYS
1-1831769201,01/01/2021 09:12:28 AM,01/14/2021 04:26:01 PM,SR Created,OCB,Graffiti Removal,Closed,Mobile App,iOS,N,CCAC,01/08/2021 12:00:00 AM,01/14/2021 04:26:00 PM,Y,N,"718 S VALENCIA ST, 90017",718,S,VALENCIA,ST,90017,34.0525433923,-118.269611166,"(34.0525433923, -118.269611166)",634,D,4,Central APC,1,Gilbert Cedillo,121,Westlake South,RAMPART
1-1831766821,01/01/2021 09:12:31 AM,01/07/2021 06:28:10 PM,SR Created,LASAN,Bulky Items,Closed,Mobile App,Android,N,WV,01/07/2021 12:00:00 AM,01/07/2021 06:23:44 PM,Y,,"4900 N DEMPSEY AVE, 91436",4900,N,DEMPSEY,AVE,91436,34.15941852,-118.475886762,"(34.15941852, -118.475886762)",561,G,3,South Valley APC,5,Paul Koretz,18,Encino,WEST VALLEY
1-1831769241,01/01/2021 09:12:50 AM,01/02/2021 04:53:07 PM,SR Created,LASAN,Bulky Items,Closed,Self Service,,N,NC,01/02/2021 12:00:00 AM,01/02/2021 12:51:32 PM,Y,N,"1146 S CITRUS AVE, 90019",1146,S,CITRUS,AVE,90019,34.0538294936,-118.342240812,"(34.0538294936, -118.342240812)",633,D,4,Central APC,10,Mark Ridley-Thomas,104,Olympic Park,WILSHIRE
1-1831768391,01/01/2021 09:13:27 AM,01/10/2021 09:41:26 PM,SR Created,OCB,Graffiti Removal,Closed,Self Service,,N,PGS,01/05/2021 09:10:26 AM,01/10/2021 09:41:26 PM,Y,N,"1020 E VENICE BLVD, 90291",1020,E,VENICE,BLVD,90291,33.9936525356,-118.453048097,"(33.9936525356, -118.453048097)",672,A,5,West Los Angeles APC,11,Mike Bonin,68,Venice,PACIFIC
1-1831768421,01/01/2021 09:13:49 AM,01/02/2021 05:27:48 PM,SR Created,LASAN,Bulky Items,Closed,Mobile App,iOS,N,WLA,01/02/2021 12:00:00 AM,01/02/2021 01:45:17 PM,Y,,"1447 S DOHENY DR, 90035",1447,S,DOHENY,DR,90035,34.0537271316,-118.390137052,"(34.0537271316, -118.390137052)",632,H,4,West Los Angeles APC,5,Paul Koretz,61,South Robertson,WEST LOS ANGELES
1-1831766881,01/01/2021 09:14:06 AM,01/04/2021 03:15:10 AM,SR Created,LASAN,Electronic Waste,Cancelled,Mobile App,Android,N,WV,01/07/2021 12:00:00 AM,01/04/2021 03:15:09 AM,Y,N,"4900 N DEMPSEY AVE, 91436",4900,N,DEMPSEY,AVE,91436,34.15941852,-118.475886762,"(34.15941852, -118.475886762)",561,G,3,South Valley APC,5,Paul Koretz,18,Encino,WEST VALLEY
1-1831767751,01/01/2021 09:14:16 AM,01/21/2021 05:59:26 AM,SR Created,LASAN,Illegal Dumping Pickup,Closed,Call,,N,HB,01/08/2021 12:00:00 AM,01/21/2021 05:59:17 AM,Y,N,"436 W 1ST ST, 90731",436,W,1ST,ST,90731,33.7433956117,-118.286611081,"(33.7433956117, -118.286611081)",824,B,4,Harbor APC,15,Joe Buscaino,95,Central San Pedro,HARBOR
1-1831768501,01/01/2021 09:15:10 AM,01/04/2021 04:41:04 PM,SR Created,LASAN,Bulky Items,Closed,Call,,N,HB,01/02/2021 12:00:00 AM,01/04/2021 04:38:46 PM,Y,N,"436 W 1ST ST, 90731",436,W,1ST,ST,90731,33.7433956117,-118.286611081,"(33.7433956117, -118.286611081)",824,B,4,Harbor APC,15,Joe Buscaino,95,Central San Pedro,HARBOR
1-1831769351,01/01/2021 09:15:36 AM,08/12/2021 06:52:58 AM,SR Created,LASAN,Homeless Encampment,Closed,Mobile App,Android,N,NC,01/04/2021 12:00:00 AM,08/12/2021 06:51:40 AM,Y,,"3162 W 7TH ST, 90005",3162,W,7TH,ST,90005,34.0596154657,-118.293705732,"(34.0596154657, -118.293705732)",634,A,3,Central APC,10,Mark Ridley-Thomas,55,Wilshire Center Koreatown,OLYMPIC
1-1831767841,01/01/2021 09:16:24 AM,01/04/2021 07:58:13 PM,SR Created,OCB,Graffiti Removal,Closed,Mobile App,iOS,N,LACC,01/04/2021 07:57:58 PM,01/04/2021 07:58:12 PM,Y,N,"5509 W PICO BLVD, 90019",5509,W,PICO,BLVD,90019,34.0491588275,-118.357730367,"(34.0491588275, -118.357730367)",633,C,4,Central APC,10,Mark Ridley-Thomas,60,P.I.C.O.,WILSHIRE
1-1831769431,01/01/2021 09:18:16 AM,01/04/2021 07:44:15 PM,SR Created,LASAN,Illegal Dumping Pickup,Closed,Self Service,,N,WLA,01/04/2021 12:00:00 AM,01/04/2021 05:17:25 PM,Y,N,"1000 E VENICE BLVD, 90291",1000,E,VENICE,BLVD,90291,33.9934235565,-118.453504915,"(33.9934235565, -118.453504915)",672,A,5,West Los Angeles APC,11,Mike Bonin,68,Venice,PACIFIC
1-1831770901,01/01/2021 09:18:16 AM,01/02/2021 05:18:20 PM,SR Created,LASAN,Bulky Items,Closed,Mobile App,iOS,N,WLA,01/02/2021 12:00:00 AM,01/02/2021 01:45:25 PM,Y,,"1447 S DOHENY DR, 90035",1447,S,DOHENY,DR,90035,34.0537271316,-118.390137052,"(34.0537271316, -118.390137052)",632,H,4,West Los Angeles APC,5,Paul Koretz,61,South Robertson,WEST LOS ANGELES
1-1831770011,01/01/2021 09:18:34 AM,01/06/2021 02:17:02 PM,SR Created,OCB,Graffiti Removal,Closed,Mobile App,iOS,N,LACC,01/06/2021 02:16:52 PM,01/06/2021 02:17:01 PM,Y,N,"1378 S CARMONA AVE, 90019",1378,S,CARMONA,AVE,90019,34.0492260672,-118.357270613,"(34.0492260672, -118.357270613)",633,C,4,Central APC,10,Mark Ridley-Thomas,60,P.I.C.O.,WILSHIRE
1-1831770051,01/01/2021 09:19:32 AM,01/05/2021 06:30:30 PM,SR Created,OCB,Graffiti Removal,Closed,Mobile App,iOS,N,WVA,01/05/2021 09:50:56 AM,01/05/2021 06:30:29 PM,Y,N,"7622 N LOUISE AVE, 91406",7622,N,LOUISE,AVE,91406,34.2090548084,-118.509733877,"(34.2090548084, -118.509733877)",531,C,4,South Valley APC,6,Nury Martinez,19,Lake Balboa,WEST VALLEY
1-1831770951,01/01/2021 09:19:33 AM,01/03/2021 12:24:26 AM,SR Created,LASAN,Other,Closed,Mobile App,iOS,N,,,01/03/2021 12:24:24 AM,Y,N,"723 S COLUMBIA AVE, 90017",723,S,COLUMBIA,AVE,90017,34.0521683949,-118.269073302,"(34.0521683949, -118.269073302)",634,D,4,Central APC,1,Gilbert Cedillo,121,Westlake South,RAMPART
1-1831770981,01/01/2021 09:19:39 AM,01/02/2021 11:34:00 AM,SR Created,LASAN,Bulky Items,Closed,Call,,N,NC,01/02/2021 12:00:00 AM,01/02/2021 11:27:29 AM,Y,N,"1133 N GORDON ST, 90038",1133,N,GORDON,ST,90038,34.0916817405,-118.320256447,"(34.0916817405, -118.320256447)",593,G,5,Central APC,13,Mitch O'Farrell,33,Hollywood Studio District,HOLLYWOOD
1-1831769531,01/01/2021 09:20:11 AM,01/13/2021 02:09:42 PM,SR Created,OCB,Graffiti Removal,Closed,Mobile App,iOS,N,LACC,01/13/2021 02:09:23 PM,01/13/2021 02:09:40 PM,Y,N,"5431 W PICO BLVD, 90019",5431,W,PICO,BLVD,90019,34.0487745237,-118.356614836,"(34.0487745237, -118.356614836)",633,C,4,Central APC,10,Mark Ridley-Thomas,60,P.I.C.O.,WILSHIRE
1-1831770151,01/01/2021 09:20:40 AM,01/03/2021 11:43:49 AM,SR Created,LASAN,Homeless Encampment,Closed,Call,,N,WLA,01/06/2021 12:00:00 AM,01/03/2021 11:43:24 AM,Y,N,"BARRINGTON AVE AT GATEWAY BLVD, 90064",,,,,90064,34.0285872118,-118.443365891,"(34.0285872118, -118.443365891)",632,B,7,West Los Angeles APC,11,Mike Bonin,67,Mar Vista,PACIFIC
1-1831771071,01/01/2021 09:21:18 AM,01/05/2021 12:18:10 PM,SR Created,LASAN,Illegal Dumping Pickup,Closed,Self Service,,Y,WV,01/05/2021 12:00:00 AM,01/05/2021 12:15:38 PM,Y,N,"18645 W CANTLAY ST, 91335",18645,W,CANTLAY,ST,91335,34.2021342312,-118.539923025,"(34.2021342312, -118.539923025)",530,H,5,South Valley APC,3,Bob Blumenfield,15,Reseda,WEST VALLEY
1-1831771091,01/01/2021 09:22:09 AM,01/06/2021 02:16:26 PM,SR Created,OCB,Graffiti Removal,Closed,Mobile App,iOS,N,LACC,01/06/2021 02:16:12 PM,01/06/2021 02:16:25 PM,Y,N,"5430 W PICO BLVD, 90019",5430,W,PICO,BLVD,90019,34.0484527367,-118.356752867,"(34.0484527367, -118.356752867)",633,C,4,Central APC,10,Mark Ridley-Thomas,60,P.I.C.O.,WILSHIRE
1-1831770201,01/01/2021 09:22:11 AM,01/06/2021 10:58:24 AM,SR Created,LASAN,Bulky Items,Closed,Self Service,,N,EV,01/06/2021 12:00:00 AM,01/06/2021 10:50:57 AM,Y,N,"4327 N RHODES AVE, 91604",4327,N,RHODES,AVE,91604,34.1494207359,-118.403193628,"(34.1494207359, -118.403193628)",562,F,5,South Valley APC,2,Paul Krekorian,27,Studio City,NORTH HOLLYWOOD
1-1831768761,01/01/2021 09:22:12 AM,01/03/2021 11:43:22 AM,SR Created,LASAN,Homeless Encampment,Closed,Self Service,,Y,WLA,01/06/2021 12:00:00 AM,01/03/2021 11:43:08 AM,Y,N,"CENTINELA AVE AT OCEAN PARK BLVD, 90064",,,,,90064,34.0230942871,-118.44884933,"(34.0230942871, -118.44884933)",672,A,1,West Los Angeles APC,11,Mike Bonin,67,Mar Vista,PACIFIC
1-1831769611,01/01/2021 09:23:24 AM,01/01/2021 03:44:15 PM,SR Created,ITA,Other,Closed,Self Service,,Y,,,01/01/2021 03:44:15 PM,Y,N,"CENTINELA AVE AT OCEAN PARK BLVD, 90064",,,,,90064,34.0230942871,-118.44884933,"(34.0230942871, -118.44884933)",672,A,1,West Los Angeles APC,11,Mike Bonin,67,Mar Vista,PACIFIC
1-1831769641,01/01/2021 09:23:56 AM,01/07/2021 03:18:54 PM,SR Created,LASAN,Electronic Waste,Closed,Call,,N,WLA,01/07/2021 12:00:00 AM,01/07/2021 03:17:50 PM,Y,N,"2106 N SUNSET CREST DR, 90046",2106,N,SUNSET CREST,DR,90046,34.1110764219,-118.390317393,"(34.1110764219, -118.390317393)",592,H,3,West Los Angeles APC,4,Nithya Raman,64,Bel Air-Beverly Crest,HOLLYWOOD
1-1831771151,01/01/2021 09:24:48 AM,01/03/2021 11:43:38 AM,SR Created,LASAN,Homeless Encampment,Closed,Self Service,,Y,WLA,01/06/2021 12:00:00 AM,01/03/2021 11:43:16 AM,Y,N,"CENTINELA AVE AT OCEAN PARK BLVD, 90064",,,,,90064,34.0230942871,-118.44884933,"(34.0230942871, -118.44884933)",672,A,1,West Los Angeles APC,11,Mike Bonin,67,Mar Vista,PACIFIC
1-1831770311,01/01/2021 09:25:14 AM,01/07/2021 03:23:16 PM,SR Created,LASAN,Metal/Household Appliances,Closed,Call,,N,WLA,01/07/2021 12:00:00 AM,01/07/2021 03:19:06 PM,Y,N,"2106 N SUNSET CREST DR, 90046",2106,N,SUNSET CREST,DR,90046,34.1110764219,-118.390317393,"(34.1110764219, -118.390317393)",592,H,3,West Los Angeles APC,4,Nithya Raman,64,Bel Air-Beverly Crest,HOLLYWOOD
1-1831769701,01/01/2021 09:25:30 AM,01/04/2021 07:24:25 PM,SR Created,LASAN,Bulky Items,Closed,Mobile App,Android,N,NC,01/04/2021 12:00:00 AM,01/04/2021 04:25:02 PM,Y,,"4425 E YELLOWSTONE ST, 90032",4425,E,YELLOWSTONE,ST,90032,34.0675963275,-118.189077429,"(34.0675963275, -118.189077429)",635,D,1,East Los Angeles APC,14,Kevin de León,48,LA32,HOLLENBECK
1-1831771911,01/01/2021 09:25:33 AM,01/05/2021 11:30:33 AM,SR Created,OCB,Graffiti Removal,Closed,Self Service,,N,KYCC,01/05/2021 11:30:15 AM,01/05/2021 11:30:33 AM,Y,N,"1924 S 8TH AVE, 90018",1924,S,8TH,AVE,90018,34.0395992765,-118.325942223,"(34.0395992765, -118.325942223)",633,F,6,South Los Angeles APC,10,Mark Ridley-Thomas,74,United Neighborhoods,WILSHIRE
1-1831771931,01/01/2021 09:26:15 AM,01/01/2021 04:14:26 PM,SR Created,ITA,Other,Closed,Self Service,,Y,,,01/01/2021 04:14:26 PM,Y,N,"CENTINELA AVE AT OCEAN PARK BLVD, 90064",,,,,90064,34.0230942871,-118.44884933,"(34.0230942871, -118.44884933)",672,A,1,West Los Angeles APC,11,Mike Bonin,67,Mar Vista,PACIFIC
1-1831769791,01/01/2021 09:27:17 AM,01/06/2021 05:54:09 PM,SR Created,LASAN,Bulky Items,Closed,Mobile App,Android,N,WV,01/06/2021 12:00:00 AM,01/06/2021 05:53:11 PM,Y,,"16440 W SEPTO ST, 91343",16440,W,SEPTO,ST,91343,34.2509652729,-118.490736236,"(34.2509652729, -118.490736236)",501,E,5,North Valley APC,12,John Lee,118,Granada Hills South,DEVONSHIRE
1-1831771971,01/01/2021 09:27:57 AM,01/01/2021 11:34:12 AM,SR Created,LASAN,Dead Animal Removal,Closed,Self Service,,Y,HB,,01/01/2021 11:34:11 AM,Y,N,"PACIFIC COAST HWY AT ALAMEDA ST, 90744",,,,,90744,33.7912553769,-118.241384265,"(33.7912553769, -118.241384265)",794,H,5,Harbor APC,15,Joe Buscaino,93,Wilmington,HARBOR
1-1831772021,01/01/2021 09:28:53 AM,01/05/2021 11:33:28 AM,SR Created,OCB,Graffiti Removal,Cancelled,Self Service,,N,KYCC,01/05/2021 12:00:00 AM,01/05/2021 11:33:28 AM,Y,N,"3814 W WASHINGTON BLVD, 90018",3814,W,WASHINGTON,BLVD,90018,34.0397775064,-118.326160587,"(34.0397775064, -118.326160587)",633,F,6,South Los Angeles APC,10,Mark Ridley-Thomas,74,United Neighborhoods,WILSHIRE
1-1831770421,01/01/2021 09:29:42 AM,01/04/2021 11:21:42 PM,SR Created,LASAN,Bulky Items,Closed,Self Service,,N,WV,01/04/2021 12:00:00 AM,01/04/2021 09:08:50 AM,Y,N,"7554 N CORBIN AVE, 91335",7554,N,CORBIN,AVE,91335,34.2078353762,-118.562092693,"(34.2078353762, -118.562092693)",530,F,4,South Valley APC,3,Bob Blumenfield,15,Reseda,WEST VALLEY
1-1831770441,01/01/2021 09:30:19 AM,01/01/2021 01:45:58 PM,SR Created,LASAN,Dead Animal Removal,Closed,Mobile App,iOS,N,WV,,01/01/2021 01:45:28 PM,Y,,"10010 N VALLEY CIRCLE BLVD, 91311",10010,N,VALLEY CIRCLE,BLVD,91311,34.2518596939,-118.617324288,"(34.2518596939, -118.617324288)",499,H,5,North Valley APC,12,John Lee,99,Chatsworth,DEVONSHIRE
1-1831770471,01/01/2021 09:30:23 AM,01/01/2021 01:46:15 PM,SR Created,LASAN,Dead Animal Removal,Closed,Call,,N,WV,,01/01/2021 01:46:14 PM,Y,N,"16132 W GILMORE ST, 91406",16132,W,GILMORE,ST,91406,34.1873859928,-118.485025728,"(34.1873859928, -118.485025728)",531,F,6,South Valley APC,6,Nury Martinez,19,Lake Balboa,WEST VALLEY
1-1831773991,01/01/2021 09:33:44 AM,01/05/2021 10:21:36 PM,SR Created,LASAN,Bulky Items,Closed,Mobile App,iOS,N,EV,01/05/2021 12:00:00 AM,01/05/2021 08:57:31 AM,Y,,"5261 N SATSUMA AVE, 91601",5261,N,SATSUMA,AVE,91601,34.1666772317,-118.367717424,"(34.1666772317, -118.367717424)",563,A,2,South Valley APC,2,Paul Krekorian,24,NoHo,NORTH HOLLYWOOD
1-1831771401,01/01/2021 09:34:01 AM,01/04/2021 02:58:05 PM,SR Created,LASAN,Bulky Items,Closed,Mobile App,iOS,N,WV,01/04/2021 12:00:00 AM,01/04/2021 11:18:06 AM,Y,,"11009 N RATHBURN AVE, 91326",11009,N,RATHBURN,AVE,91326,34.2700643109,-118.532942591,"(34.2700643109, -118.532942591)",500,J,2,North Valley APC,12,John Lee,120,Northridge East,DEVONSHIRE
1-1831771421,01/01/2021 09:34:04 AM,01/08/2021 11:24:12 AM,SR Created,LASAN,Bulky Items,Closed,Mobile App,iOS,N,EV,01/14/2021 12:00:00 AM,01/08/2021 11:19:33 AM,Y,,"8900 N BURNET AVE, 91343",8900,N,BURNET,AVE,91343,34.2322825232,-118.463157416,"(34.2322825232, -118.463157416)",501,H,7,North Valley APC,7,Monica Rodriguez,112,North Hills East,MISSION
1-1831770601,01/01/2021 09:34:28 AM,01/04/2021 07:36:08 PM,SR Created,LASAN,Bulky Items,Closed,Self Service,,N,WLA,01/04/2021 12:00:00 AM,01/04/2021 03:25:53 PM,Y,N,"8106 S LINCOLN BLVD, 90045",8106,S,LINCOLN,BLVD,90045,33.9635488091,-118.422234268,"(33.9635488091, -118.422234268)",702,D,2,West Los Angeles APC,11,Mike Bonin,71,Westchester/Playa,PACIFIC
1-1831771451,01/01/2021 09:34:28 AM,01/09/2021 04:33:55 AM,SR Created,LASAN,Bulky Items,Closed,Self Service,,N,EV,01/07/2021 12:00:00 AM,01/07/2021 04:39:31 PM,Y,N,"14337 W MARTHA ST, 91401",14337,W,MARTHA,ST,91401,34.1732095077,-118.445722299,"(34.1732095077, -118.445722299)",562,A,1,South Valley APC,4,Nithya Raman,20,Van Nuys,VAN NUYS
1-1831770651,01/01/2021 09:35:03 AM,01/07/2021 11:20:58 AM,SR Created,LASAN,Metal/Household Appliances,Closed,Mobile App,iOS,N,EV,01/07/2021 12:00:00 AM,01/07/2021 11:08:15 AM,Y,,"8900 N BURNET AVE, 91343",8900,N,BURNET,AVE,91343,34.2322825232,-118.463157416,"(34.2322825232, -118.463157416)",501,H,7,North Valley APC,7,Monica Rodriguez,112,North Hills East,MISSION
1-1831772201,01/01/2021 09:36:02 AM,01/07/2021 03:43:30 AM,SR Created,LASAN,Bulky Items,Closed,Mobile App,iOS,N,EV,01/06/2021 12:00:00 AM,01/06/2021 11:03:31 AM,Y,,"13025 W ADDISON ST, 91423",13025,W,ADDISON,ST,91423,34.1613199144,-118.416791058,"(34.1613199144, -118.416791058)",562,D,3,South Valley APC,4,Nithya Raman,26,Sherman Oaks,VAN NUYS
1-1831774121,01/01/2021 09:36:19 AM,01/01/2021 12:40:24 PM,SR Created,LASAN,Dead Animal Removal,Closed,Call,,N,EV,,01/01/2021 12:40:23 PM,Y,N,"7040 N CALHOUN AVE, 91405",7040,N,CALHOUN,AVE,91405,34.1987786365,-118.442083521,"(34.1987786365, -118.442083521)",532,A,5,South Valley APC,6,Nury Martinez,20,Van Nuys,VAN NUYS
1-1831771531,01/01/2021 09:36:56 AM,01/06/2021 05:24:26 AM,SR Created,LASAN,Homeless Encampment,Closed,Mobile App,iOS,Y,NC,01/06/2021 12:00:00 AM,01/06/2021 05:24:09 AM,Y,,"3016 N ROSWELL ST, 90065",3016,N,ROSWELL,ST,90065,34.1143467963,-118.244580656,"(34.1143467963, -118.244580656)",594,F,2,East Los Angeles APC,13,Mitch O'Farrell,39,Glassell Park,NORTHEAST
1-1831770741,01/01/2021 09:37:27 AM,01/02/2021 03:56:53 PM,SR Created,LASAN,Bulky Items,Closed,Mobile App,iOS,N,WV,01/02/2021 12:00:00 AM,01/02/2021 12:29:27 PM,Y,,"6211 N PAT AVE, 91307",6211,N,PAT,AVE,91307,34.1842320146,-118.659202762,"(34.1842320146, -118.659202762)",529,D,7,South Valley APC,12,John Lee,11,West Hills,TOPANGA
1-1831770771,01/01/2021 09:37:30 AM,01/06/2021 03:18:59 PM,SR Created,LASAN,Bulky Items,Closed,Call,,N,NC,01/06/2021 12:00:00 AM,01/06/2021 03:18:21 PM,Y,N,"1328 N MICHELTORENA ST, 90026",1328,N,MICHELTORENA,ST,90026,34.0860749123,-118.276632363,"(34.0860749123, -118.276632363)",594,C,6,East Los Angeles APC,13,Mitch O'Farrell,38,Silver Lake,RAMPART
1-1831771591,01/01/2021 09:37:36 AM,01/02/2021 01:38:19 PM,SR Created,LASAN,Illegal Dumping Pickup,Closed,Call,,N,SLA,01/02/2021 12:00:00 AM,01/02/2021 01:34:58 PM,Y,N,"2102 E 92ND ST, 90002",2102,E,92ND,ST,90002,33.9531011164,-118.234951599,"(33.9531011164, -118.234951599)",704,H,3,South Los Angeles APC,15,Joe Buscaino,88,Watts,SOUTHEAST
1-1831770791,01/01/2021 09:38:04 AM,01/01/2021 11:34:43 AM,SR Created,LASAN,Dead Animal Removal,Closed,Self Service,,Y,HB,,01/01/2021 11:34:43 AM,Y,N,"PACIFIC COAST HWY AT ALAMEDA ST, 90744",,,,,90744,33.7912553769,-118.241384265,"(33.7912553769, -118.241384265)",794,H,5,Harbor APC,15,Joe Buscaino,93,Wilmington,HARBOR
1-1831774191,01/01/2021 09:38:26 AM,01/02/2021 01:38:34 PM,SR Created,LASAN,Bulky Items,Closed,Call,,N,SLA,01/02/2021 12:00:00 AM,01/02/2021 01:35:07 PM,Y,N,"2102 E 92ND ST, 90002",2102,E,92ND,ST,90002,33.9531011164,-118.234951599,"(33.9531011164, -118.234951599)",704,H,3,South Los Angeles APC,15,Joe Buscaino,88,Watts,SOUTHEAST
1-1831774211,01/01/2021 09:38:42 AM,01/05/2021 10:59:12 PM,SR Created,OCB,Graffiti Removal,Closed,Mobile App,iOS,N,PGS,01/03/2021 09:05:33 AM,01/05/2021 10:59:11 PM,Y,N,"7819 W BEVERLY BLVD, 90036",7819,W,BEVERLY,BLVD,90036,34.0762626748,-118.360209105,"(34.0762626748, -118.360209105)",633,B,1,Central APC,5,Paul Koretz,58,Mid City West,WILSHIRE
1-1831770861,01/01/2021 09:39:13 AM,01/08/2021 03:48:37 AM,SR Created,LASAN,Bulky Items,Closed,Self Service,,N,EV,01/07/2021 12:00:00 AM,01/07/2021 08:37:44 AM,Y,N,"13447 W WEDDINGTON ST, 91401",13447,W,WEDDINGTON,ST,91401,34.1667901693,-118.4262211,"(34.1667901693, -118.4262211)",562,C,2,South Valley APC,4,Nithya Raman,26,Sherman Oaks,VAN NUYS
1-1831774281,01/01/2021 09:42:30 AM,01/06/2021 01:05:14 AM,SR Created,LASAN,Bulky Items,Closed,Mobile App,iOS,N,SLA,01/05/2021 12:00:00 AM,01/05/2021 01:54:43 PM,Y,,"1118 W 54TH ST, 90037",1118,W,54TH,ST,90037,33.9930975059,-118.294445336,"(33.9930975059, -118.294445336)",674,A,5,South Los Angeles APC,9,Curren D. Price Jr.,109,Voices,77TH STREET
1-1831775961,01/01/2021 09:43:28 AM,01/02/2021 12:22:16 PM,SR Created,LASAN,Bulky Items,Closed,Call,,N,EV,01/02/2021 12:00:00 AM,01/02/2021 12:18:34 PM,Y,N,"10126 N WISNER AVE, 91345",10126,N,WISNER,AVE,91345,34.2544041203,-118.461889856,"(34.2544041203, -118.461889856)",501,H,4,North Valley APC,7,Monica Rodriguez,101,Mission Hills,MISSION
1-1831771791,01/01/2021 09:44:17 AM,01/04/2021 07:32:53 AM,SR Created,LASAN,Bulky Items,Closed,Mobile App,iOS,N,EV,01/04/2021 12:00:00 AM,01/04/2021 07:30:58 AM,Y,,"9236 N CATHWELL LANE, 91042",9236,N,CATHWELL,LANE,91042,34.2370535543,-118.277850294,"(34.2370535543, -118.277850294)",504,B,6,North Valley APC,7,Monica Rodriguez,10,Sunland-Tujunga,FOOTHILL
1-1831776031,01/01/2021 09:44:47 AM,01/02/2021 06:53:12 AM,SR Created,LASAN,Bulky Items,Closed,Mobile App,iOS,Y,NC,01/02/2021 12:00:00 AM,01/02/2021 06:51:33 AM,Y,,"1221 N MCCADDEN PL, 90038",1221,N,MCCADDEN,PL,90038,34.0933663636,-118.33762515,"(34.0933663636, -118.33762515)",593,E,5,Central APC,4,Nithya Raman,32,Central Hollywood,HOLLYWOOD
1-1831771821,01/01/2021 09:44:54 AM,01/07/2021 05:33:29 PM,SR Created,LASAN,Bulky Items,Closed,Mobile App,iOS,N,WLA,01/07/2021 12:00:00 AM,01/07/2021 05:32:33 PM,Y,,"1367 S HAUSER BLVD, 90019",1367,S,HAUSER,BLVD,90019,34.0494100609,-118.356595107,"(34.0494100609, -118.356595107)",633,C,4,Central APC,10,Mark Ridley-Thomas,60,P.I.C.O.,WILSHIRE
1-1831776081,01/01/2021 09:45:35 AM,01/06/2021 01:51:29 PM,SR Created,LASAN,Bulky Items,Closed,Mobile App,iOS,N,WLA,01/06/2021 12:00:00 AM,01/06/2021 01:50:19 PM,Y,,"2530 S VETERAN AVE, 90064",2530,S,VETERAN,AVE,90064,34.0374562744,-118.429855964,"(34.0374562744, -118.429855964)",632,C,6,West Los Angeles APC,5,Paul Koretz,62,Westside,WEST LOS ANGELES
1-1831774461,01/01/2021 09:45:46 AM,01/04/2021 10:49:43 AM,SR Created,LASAN,Bulky Items,Closed,Self Service,,N,WLA,01/04/2021 12:00:00 AM,01/04/2021 10:24:18 AM,Y,N,"7700 S EMERSON AVE, 90045",7700,S,EMERSON,AVE,90045,33.9714075284,-118.407139737,"(33.9714075284, -118.407139737)",702,F,1,West Los Angeles APC,11,Mike Bonin,71,Westchester/Playa,PACIFIC
1-1831771871,01/01/2021 09:46:24 AM,01/01/2021 03:57:54 PM,SR Created,ITA,Other,Closed,Self Service,,N,,,01/01/2021 03:57:53 PM,Y,N,"4710 N SANTA LUCIA DR, 91364",4710,N,SANTA LUCIA,DR,91364,34.1529605108,-118.604221669,"(34.1529605108, -118.604221669)",560,A,4,South Valley APC,3,Bob Blumenfield,16,Woodland Hills-Warner Center,TOPANGA
1-1831772561,01/01/2021 09:47:38 AM,01/04/2021 06:59:51 PM,SR Created,LASAN,Metal/Household Appliances,Closed,Mobile App,iOS,N,WLA,01/04/2021 12:00:00 AM,01/04/2021 06:58:32 PM,Y,,"4026 S EAST BLVD, 90066",4026,S,EAST,BLVD,90066,34.0032655251,-118.421764536,"(34.0032655251, -118.421764536)",672,D,4,West Los Angeles APC,11,Mike Bonin,67,Mar Vista,PACIFIC
1-1831774581,01/01/2021 09:48:26 AM,01/08/2021 01:43:52 AM,SR Created,LASAN,Metal/Household Appliances,Closed,Self Service,,N,NC,01/07/2021 12:00:00 AM,01/07/2021 01:49:59 PM,Y,N,"5333 W LA CRESTA CT, 90038",5333,W,LA CRESTA,CT,90038,34.0856202798,-118.31052691,"(34.0856202798, -118.31052691)",593,H,6,Central APC,13,Mitch O'Farrell,33,Hollywood Studio District,HOLLYWOOD
1-1831776981,01/01/2021 09:50:12 AM,01/04/2021 11:14:35 AM,SR Created,LASAN,Bulky Items,Closed,Mobile App,iOS,N,WLA,01/04/2021 12:00:00 AM,01/04/2021 11:12:23 AM,Y,,"2037 S WALGROVE AVE, 90066",2037,S,WALGROVE,AVE,90066,34.001511523,-118.449868796,"(34.001511523, -118.449868796)",672,A,4,West Los Angeles APC,11,Mike Bonin,68,Venice,PACIFIC
1-1831777001,01/01/2021 09:50:22 AM,01/04/2021 12:36:36 PM,SR Created,LASAN,Bulky Items,Closed,Call,,N,SLA,01/04/2021 12:00:00 AM,01/04/2021 10:58:00 AM,Y,N,"4011 W 21ST ST, 90018",4011,W,21ST,ST,90018,34.0375689367,-118.328279228,"(34.0375689367, -118.328279228)",633,F,6,South Los Angeles APC,10,Mark Ridley-Thomas,74,United Neighborhoods,WILSHIRE
1-1831772711,01/01/2021 09:51:27 AM,01/04/2021 10:57:24 AM,SR Created,LASAN,Bulky Items,Closed,Call,,N,SLA,01/04/2021 12:00:00 AM,01/04/2021 10:52:36 AM,Y,N,"4011 W 21ST ST, 90018",4011,W,21ST,ST,90018,34.0375689367,-118.328279228,"(34.0375689367, -118.328279228)",633,F,6,South Los Angeles APC,10,Mark Ridley-Thomas,74,United Neighborhoods,WILSHIRE
1-1831777031,01/01/2021 09:51:29 AM,01/02/2021 07:38:53 PM,SR Created,LASAN,Bulky Items,Closed,Self Service,,N,NC,01/02/2021 12:00:00 AM,01/02/2021 03:29:11 PM,Y,N,"849 S MARIPOSA AVE, 90005",849,S,MARIPOSA,AVE,90005,34.0562585008,-118.298935102,"(34.0562585008, -118.298935102)",633,J,3,Central APC,10,Mark Ridley-Thomas,55,Wilshire Center Koreatown,OLYMPIC
1-1831772731,01/01/2021 09:51:38 AM,01/01/2021 11:25:42 AM,SR Created,ITA,Other,Closed,Mobile App,Android,N,,,01/01/2021 11:25:42 AM,Y,N,"14043 W VENTURA BLVD, 91423",14043,W,VENTURA,BLVD,91423,34.1494314962,-118.438841464,"(34.1494314962, -118.438841464)",562,B,5,South Valley APC,4,Nithya Raman,26,Sherman Oaks,VAN NUYS
1-1831774731,01/01/2021 09:52:12 AM,01/02/2021 06:34:44 PM,SR Created,LASAN,Bulky Items,Closed,Mobile App,iOS,N,WLA,01/02/2021 12:00:00 AM,01/02/2021 01:51:46 PM,Y,,"3444 S KEYSTONE AVE, 90034",3444,S,KEYSTONE,AVE,90034,34.0257142837,-118.410902757,"(34.0257142837, -118.410902757)",672,E,1,West Los Angeles APC,5,Paul Koretz,115,Palms,PACIFIC
1-1831772771,01/01/2021 09:52:26 AM,01/01/2021 10:12:54 AM,SR Created,LASAN,Dead Animal Removal,Closed,Self Service,,N,SLA,,01/01/2021 10:12:54 AM,Y,N,"714 E 51ST ST, 90011",714,E,51ST,ST,90011,33.9964509124,-118.262596582,"(33.9964509124, -118.262596582)",674,E,4,South Los Angeles APC,9,Curren D. Price Jr.,125,Zapata King,NEWTON
1-1831772841,01/01/2021 09:54:02 AM,01/07/2021 04:19:21 AM,SR Created,LASAN,Bulky Items,Closed,Mobile App,iOS,N,EV,01/06/2021 12:00:00 AM,01/06/2021 12:25:32 PM,Y,N,"4430 N NOBLE AVE, 91403",4430,N,NOBLE,AVE,91403,34.1513100966,-118.461943392,"(34.1513100966, -118.461943392)",561,H,4,South Valley APC,4,Nithya Raman,26,Sherman Oaks,VAN NUYS
1-1831778911,01/01/2021 09:56:16 AM,01/05/2021 01:14:38 AM,SR Created,LASAN,Bulky Items,Cancelled,Mobile App,iOS,N,EV,01/06/2021 12:00:00 AM,01/05/2021 01:14:36 AM,Y,N,"4430 N NOBLE AVE, 91403",4430,N,NOBLE,AVE,91403,34.1513100966,-118.461943392,"(34.1513100966, -118.461943392)",561,H,4,South Valley APC,4,Nithya Raman,26,Sherman Oaks,VAN NUYS
1-1831776331,01/01/2021 09:56:20 AM,01/02/2021 03:59:04 PM,SR Created,LASAN,Bulky Items,Closed,Mobile App,Android,Y,WLA,01/02/2021 12:00:00 AM,01/02/2021 11:42:49 AM,Y,,"9800 W NATIONAL BLVD, 90034",9800,W,NATIONAL,BLVD,90034,34.0311425525,-118.400227765,"(34.0311425525, -118.400227765)",632,G,7,West Los Angeles APC,5,Paul Koretz,61,South Robertson,WEST LOS ANGELES
1-1831777221,01/01/2021 09:56:48 AM,01/05/2021 02:06:39 AM,SR Created,LASAN,Bulky Items,Closed,Mobile App,Android,Y,EV,01/04/2021 12:00:00 AM,01/04/2021 08:40:18 AM,Y,,"13282 W SAYRE ST, 91342",13282,W,SAYRE,ST,91342,34.3199842853,-118.422561776,"(34.3199842853, -118.422561776)",482,C,2,North Valley APC,7,Monica Rodriguez,5,Sylmar,MISSION
1-1831778951,01/01/2021 09:57:20 AM,01/01/2021 11:03:51 AM,SR Created,LASAN,Dead Animal Removal,Closed,Call,,N,NC,,01/01/2021 11:03:40 AM,Y,N,"944 S DEWEY AVE, 90006",944,S,DEWEY,AVE,90006,34.0542642187,-118.295710152,"(34.0542642187, -118.295710152)",634,A,3,Central APC,10,Mark Ridley-Thomas,55,Wilshire Center Koreatown,OLYMPIC
1-1831778971,01/01/2021 09:57:40 AM,01/07/2021 01:42:10 AM,SR Created,LASAN,Bulky Items,Closed,Call,,N,HB,01/06/2021 12:00:00 AM,01/06/2021 03:49:06 PM,Y,N,"508 W SHEPARD ST, 90731",508,W,SHEPARD,ST,90731,33.7070693311,-118.288197022,"(33.7070693311, -118.288197022)",854,B,2,Harbor APC,15,Joe Buscaino,96,Coastal San Pedro,HARBOR
1-1831777291,01/01/2021 09:58:52 AM,01/01/2021 12:07:05 PM,SR Created,LASAN,Dead Animal Removal,Closed,Self Service,,Y,HB,,01/01/2021 12:07:05 PM,Y,N,"620 E 111TH PL, 90059",620,E,111TH,PL,90059,33.9338510431,-118.264489964,"(33.9338510431, -118.264489964)",704,E,6,South Los Angeles APC,8,Marqueece Harris-Dawson,87,Empowerment Congress Southeast,SOUTHEAST
1-1831776491,01/01/2021 09:58:52 AM,01/06/2021 07:45:23 PM,SR Created,LASAN,Bulky Items,Closed,Mobile App,Android,Y,WLA,01/06/2021 12:00:00 AM,01/06/2021 01:48:31 PM,Y,,"3187 S BARRINGTON AVE, 90066",3187,S,BARRINGTON,AVE,90066,34.019448608,-118.436402783,"(34.019448608, -118.436402783)",672,C,2,West Los Angeles APC,11,Mike Bonin,67,Mar Vista,PACIFIC
1-1831779021,01/01/2021 09:59:35 AM,01/06/2021 01:50:23 AM,SR Created,LASAN,Bulky Items,Closed,Mobile App,iOS,N,SLA,01/05/2021 12:00:00 AM,01/05/2021 08:11:21 AM,Y,,"5708 S VICTORIA AVE, 90043",5708,S,VICTORIA,AVE,90043,33.9904900778,-118.332091295,"(33.9904900778, -118.332091295)",673,F,5,South Los Angeles APC,8,Marqueece Harris-Dawson,80,Park Mesa Heights,77TH STREET
1-1831779991,01/01/2021 10:00:21 AM,01/14/2021 06:45:58 AM,SR Created,LASAN,Homeless Encampment,Closed,Mobile App,iOS,N,EV,01/07/2021 12:00:00 AM,01/14/2021 06:43:22 AM,Y,,"4558 N LAUREL CANYON BLVD, 91607",4558,N,LAUREL CANYON,BLVD,91607,34.1537819983,-118.396291859,"(34.1537819983, -118.396291859)",562,G,4,South Valley APC,2,Paul Krekorian,27,Studio City,NORTH HOLLYWOOD
1-1831777411,01/01/2021 10:00:59 AM,01/06/2021 05:49:41 PM,SR Created,LASAN,Bulky Items,Closed,Self Service,,N,WLA,01/06/2021 12:00:00 AM,01/06/2021 05:47:51 PM,Y,N,"1277 S BARRY AVE, 90025",1277,S,BARRY,AVE,90025,34.048163899,-118.458618458,"(34.048163899, -118.458618458)",631,J,5,West Los Angeles APC,11,Mike Bonin,66,West LA - Sawtelle,WEST LOS ANGELES
1-1831777431,01/01/2021 10:01:29 AM,01/04/2021 11:08:03 PM,SR Created,LASAN,Bulky Items,Closed,Mobile App,iOS,N,WLA,01/04/2021 12:00:00 AM,01/04/2021 08:01:37 AM,Y,,"8631 S WILEY POST AVE, 90045",8631,S,WILEY POST,AVE,90045,33.9589669164,-118.387418598,"(33.9589669164, -118.387418598)",702,H,3,West Los Angeles APC,11,Mike Bonin,71,Westchester/Playa,PACIFIC
1-1831777501,01/01/2021 10:03:20 AM,01/04/2021 04:31:15 PM,SR Created,LASAN,Bulky Items,Closed,Mobile App,iOS,N,WLA,01/04/2021 12:00:00 AM,01/04/2021 04:29:40 PM,Y,,"3637 S ROSEWOOD AVE, 90066",3637,S,ROSEWOOD,AVE,90066,34.0025689057,-118.445982073,"(34.0025689057, -118.445982073)",672,A,4,West Los Angeles APC,11,Mike Bonin,67,Mar Vista,PACIFIC
1-1831779201,01/01/2021 10:05:12 AM,01/02/2021 10:58:59 AM,SR Created,LASAN,Bulky Items,Closed,Mobile App,iOS,N,NC,01/02/2021 12:00:00 AM,01/02/2021 10:30:16 AM,Y,,"4619 W 6TH ST, 90020",4619,W,6TH,ST,90020,34.0637778397,-118.325168788,"(34.0637778397, -118.325168788)",633,F,2,Central APC,4,Nithya Raman,119,Greater Wilshire,WILSHIRE
1-1831777621,01/01/2021 10:05:31 AM,01/11/2021 01:46:16 PM,SR Created,LASAN,Bulky Items,Closed,Mobile App,Android,Y,NC,01/07/2021 12:00:00 AM,01/11/2021 01:28:04 PM,Y,,"ALVARADO ST AT 12TH ST, 90006",,,,,90006,34.0487732605,-118.281760515,"(34.0487732605, -118.281760515)",634,B,4,Central APC,1,Gilbert Cedillo,76,Pico Union,RAMPART
1-1831779241,01/01/2021 10:05:35 AM,01/05/2021 05:13:58 PM,SR Created,LASAN,Bulky Items,Closed,Call,,N,SLA,01/05/2021 12:00:00 AM,01/05/2021 05:12:04 PM,Y,N,"3911 S BUDLONG AVE, 90037",3911,S,BUDLONG,AVE,90037,34.0149280877,-118.296123553,"(34.0149280877, -118.296123553)",674,A,2,South Los Angeles APC,8,Marqueece Harris-Dawson,77,Empowerment Congress North,SOUTHWEST
1-1831777651,01/01/2021 10:05:42 AM,01/04/2021 10:27:30 PM,SR Created,LASAN,Bulky Items,Closed,Self Service,,N,NC,01/04/2021 12:00:00 AM,01/04/2021 12:49:17 PM,Y,N,"3701 N GRIFFIN AVE, 90031",3701,N,GRIFFIN,AVE,90031,34.0873598348,-118.208226085,"(34.0873598348, -118.208226085)",595,B,6,East Los Angeles APC,1,Gilbert Cedillo,42,Arroyo Seco,HOLLENBECK
1-1831776831,01/01/2021 10:06:39 AM,01/04/2021 09:12:01 AM,SR Created,LASAN,Bulky Items,Closed,Self Service,,Y,SLA,01/04/2021 12:00:00 AM,01/04/2021 08:59:52 AM,Y,N,"KENWOOD AVE AT 30TH ST, 90007",,,,,90007,34.0273015425,-118.299174682,"(34.0273015425, -118.299174682)",633,J,7,South Los Angeles APC,8,Marqueece Harris-Dawson,77,Empowerment Congress North,SOUTHWEST
1-1831779261,01/01/2021 10:07:03 AM,01/04/2021 03:58:58 PM,SR Created,OCB,Graffiti Removal,Closed,Self Service,,N,CCAC,01/04/2021 03:58:17 PM,01/04/2021 03:58:57 PM,Y,N,"716 N ALVARADO ST, 90026",716,N,ALVARADO,ST,90026,34.0742227243,-118.265329695,"(34.0742227243, -118.265329695)",634,D,1,East Los Angeles APC,13,Mitch O'Farrell,44,Echo Park,RAMPART
1-1831777691,01/01/2021 10:07:08 AM,01/05/2021 04:44:51 PM,SR Created,LASAN,Illegal Dumping Pickup,Closed,Self Service,,N,NC,01/05/2021 12:00:00 AM,01/05/2021 01:40:26 PM,Y,N,"5017 N TOWNSEND AVE, 90041",5017,N,TOWNSEND,AVE,90041,34.1380069122,-118.201695335,"(34.1380069122, -118.201695335)",565,B,6,East Los Angeles APC,14,Kevin de León,40,Eagle Rock,NORTHEAST
1-1831779301,01/01/2021 10:07:47 AM,01/04/2021 10:20:32 PM,SR Created,LASAN,Bulky Items,Closed,Mobile App,iOS,Y,SLA,01/04/2021 12:00:00 AM,01/04/2021 08:58:44 AM,Y,,"3009 S KENWOOD AVE, 90007",3009,S,KENWOOD,AVE,90007,34.0269881658,-118.29930777,"(34.0269881658, -118.29930777)",633,J,7,South Los Angeles APC,8,Marqueece Harris-Dawson,77,Empowerment Congress North,SOUTHWEST
1-1831780281,01/01/2021 10:09:18 AM,01/04/2021 05:52:37 PM,SR Created,LASAN,Bulky Items,Closed,Call,,N,NC,01/04/2021 12:00:00 AM,01/04/2021 02:20:50 PM,Y,N,"3156 E FAIRMOUNT ST, 90063",3156,E,FAIRMOUNT,ST,90063,34.0473350063,-118.193570232,"(34.0473350063, -118.193570232)",635,C,4,East Los Angeles APC,14,Kevin de León,50,Boyle Heights,HOLLENBECK
1-1831777741,01/01/2021 10:09:32 AM,01/05/2021 07:09:01 AM,SR Created,LASAN,Bulky Items,Closed,Call,,N,SLA,01/05/2021 12:00:00 AM,01/05/2021 07:06:29 AM,Y,N,"3973 S BUDLONG AVE, 90037",3973,S,BUDLONG,AVE,90037,34.0124060793,-118.296080717,"(34.0124060793, -118.296080717)",674,A,2,South Los Angeles APC,8,Marqueece Harris-Dawson,77,Empowerment Congress North,SOUTHWEST
1-1831780331,01/01/2021 10:11:00 AM,01/07/2021 06:43:03 AM,SR Created,LASAN,Homeless Encampment,Closed,Mobile App,iOS,N,WLA,01/04/2021 12:00:00 AM,01/07/2021 06:42:46 AM,Y,,"1501 S LINCOLN BLVD, 90291",1501,S,LINCOLN,BLVD,90291,33.9972244402,-118.459789243,"(33.9972244402, -118.459789243)",671,J,5,West Los Angeles APC,11,Mike Bonin,68,Venice,PACIFIC
1-1831779381,01/01/2021 10:11:21 AM,01/07/2021 01:40:02 PM,SR Created,LASAN,Bulky Items,Closed,Self Service,,N,EV,01/07/2021 12:00:00 AM,01/07/2021 01:37:17 PM,Y,N,"6206 N HAZELTINE AVE, 91401",6206,N,HAZELTINE,AVE,91401,34.1828721267,-118.439821069,"(34.1828721267, -118.439821069)",532,B,7,South Valley APC,2,Paul Krekorian,21,Greater Valley Glen,VAN NUYS
1-1831777821,01/01/2021 10:12:13 AM,01/02/2021 10:36:24 AM,SR Created,ITA,Other,Closed,Self Service,,N,,,01/02/2021 10:36:24 AM,Y,N,"19734 W TRAMMELL LANE, 91311",19734,W,TRAMMELL,LANE,91311,34.2717719959,-118.563706,"(34.2717719959, -118.563706)",500,E,2,North Valley APC,12,John Lee,99,Chatsworth,DEVONSHIRE
1-1831780451,01/01/2021 10:13:28 AM,01/28/2021 12:19:52 PM,SR Created,LASAN,Illegal Dumping Pickup,Closed,Call,,N,SLA,01/06/2021 12:00:00 AM,01/28/2021 12:17:31 PM,Y,N,"1268 W 39TH PL, 90037",1268,W,39TH,PL,90037,34.01400478,-118.299450162,"(34.01400478, -118.299450162)",673,J,2,South Los Angeles APC,8,Marqueece Harris-Dawson,77,Empowerment Congress North,SOUTHWEST
1-1831779471,01/01/2021 10:14:05 AM,01/02/2021 02:36:51 PM,SR Created,LASAN,Bulky Items,Closed,Mobile App,iOS,N,NC,01/02/2021 12:00:00 AM,01/02/2021 11:32:43 AM,Y,,"6224 W DE LONGPRE AVE, 90028",6224,W,DE LONGPRE,AVE,90028,34.0960839993,-118.324645956,"(34.0960839993, -118.324645956)",593,F,5,Central APC,13,Mitch O'Farrell,32,Central Hollywood,HOLLYWOOD
1-1831781971,01/01/2021 10:14:10 AM,01/04/2021 09:01:25 PM,SR Created,LASAN,Bulky Items,Closed,Mobile App,iOS,N,WLA,01/04/2021 12:00:00 AM,01/04/2021 02:59:01 PM,Y,,"13055 W BLUFF CREEK DR, 90094",13055,W,BLUFF CREEK,DR,90094,33.9706669495,-118.423393845,"(33.9706669495, -118.423393845)",702,D,1,West Los Angeles APC,11,Mike Bonin,71,Westchester/Playa,PACIFIC
1-1831780521,01/01/2021 10:14:45 AM,01/02/2021 07:02:31 AM,SR Created,LASAN,Bulky Items,Closed,Mobile App,iOS,N,NC,01/02/2021 12:00:00 AM,01/02/2021 07:00:03 AM,Y,,"588 N BRONSON AVE, 90004",588,N,BRONSON,AVE,90004,34.081325172,-118.317793605,"(34.081325172, -118.317793605)",593,G,7,Central APC,4,Nithya Raman,119,Greater Wilshire,OLYMPIC
1-1831779531,01/01/2021 10:15:10 AM,01/08/2021 03:54:58 AM,SR Created,LASAN,Bulky Items,Closed,Self Service,,N,NC,01/07/2021 12:00:00 AM,01/07/2021 07:36:48 AM,Y,N,"1326 N VIRGIL PL, 90027",1326,N,VIRGIL,PL,90027,34.0963994316,-118.286647536,"(34.0963994316, -118.286647536)",594,B,5,Central APC,13,Mitch O'Farrell,34,East Hollywood,NORTHEAST
1-1831782061,01/01/2021 10:15:45 AM,01/02/2021 07:26:47 PM,SR Created,LASAN,Bulky Items,Closed,Call,,N,EV,01/02/2021 12:00:00 AM,01/02/2021 10:25:43 AM,Y,N,"12937 W VAN NUYS BLVD, 91331",12937,W,VAN NUYS,BLVD,91331,34.2716081852,-118.414868579,"(34.2716081852, -118.414868579)",502,D,2,North Valley APC,7,Monica Rodriguez,7,Pacoima,FOOTHILL
1-1831782081,01/01/2021 10:15:47 AM,01/02/2021 07:21:30 AM,SR Created,LASAN,Bulky Items,Closed,Call,,N,SLA,01/02/2021 12:00:00 AM,01/02/2021 07:18:56 AM,Y,N,"125 W 83RD ST, 90003",125,W,83RD,ST,90003,33.9642674027,-118.274908727,"(33.9642674027, -118.274908727)",704,C,2,South Los Angeles APC,9,Curren D. Price Jr.,86,CANNDU,77TH STREET
1-1831780561,01/01/2021 10:16:26 AM,01/03/2021 08:34:27 AM,SR Created,OCB,Graffiti Removal,Closed,Call,,N,CRCD,01/03/2021 08:33:50 AM,01/03/2021 08:33:51 AM,Y,N,"850 W MARTIN LUTHER KING, JR BLVD, 90037",850,W,"MARTIN LUTHER KING, JR",BLVD,90037,34.0108935972,-118.288671802,"(34.0108935972, -118.288671802)",674,B,2,South Los Angeles APC,9,Curren D. Price Jr.,109,Voices,SOUTHWEST
1-1831780611,01/01/2021 10:16:55 AM,01/02/2021 11:54:42 AM,SR Created,LASAN,Metal/Household Appliances,Closed,Call,,N,SLA,01/02/2021 12:00:00 AM,01/02/2021 11:52:17 AM,Y,N,"125 W 83RD ST, 90003",125,W,83RD,ST,90003,33.9642674027,-118.274908727,"(33.9642674027, -118.274908727)",704,C,2,South Los Angeles APC,9,Curren D. Price Jr.,86,CANNDU,77TH STREET
1-1831781291,01/01/2021 10:20:09 AM,01/05/2021 02:08:33 AM,SR Created,LASAN,Bulky Items,Closed,Self Service,,N,WV,01/04/2021 12:00:00 AM,01/04/2021 01:14:00 PM,Y,N,"18521 W DEARBORN ST, 91324",18521,W,DEARBORN,ST,91324,34.2374048308,-118.537190395,"(34.2374048308, -118.537190395)",500,J,7,North Valley APC,12,John Lee,113,Northridge West,DEVONSHIRE
1-1831780701,01/01/2021 10:20:16 AM,01/02/2021 08:46:28 PM,SR Created,LASAN,Bulky Items,Closed,Call,,Y,WV,01/02/2021 12:00:00 AM,01/02/2021 11:51:55 AM,Y,N,"24374 W CLIPSTONE ST, 91367",24374,W,CLIPSTONE,ST,91367,34.1791146924,-118.656718682,"(34.1791146924, -118.656718682)",559,D,1,South Valley APC,3,Bob Blumenfield,16,Woodland Hills-Warner Center,TOPANGA
1-1831781361,01/01/2021 10:20:56 AM,01/06/2021 02:54:27 AM,SR Created,LASAN,Metal/Household Appliances,Closed,Mobile App,iOS,N,EV,01/05/2021 12:00:00 AM,01/05/2021 06:19:03 PM,Y,,"10916 W PEACH GROVE ST, 91601",10916,W,PEACH GROVE,ST,91601,34.1588837933,-118.368624841,"(34.1588837933, -118.368624841)",563,A,3,South Valley APC,2,Paul Krekorian,24,NoHo,NORTH HOLLYWOOD
1-1831779741,01/01/2021 10:21:32 AM,01/06/2021 04:59:06 PM,SR Created,LASAN,Bulky Items,Closed,Self Service,,N,WLA,01/06/2021 12:00:00 AM,01/06/2021 11:42:29 AM,Y,N,"11048 W OLYMPIC BLVD, 90064",11048,W,OLYMPIC,BLVD,90064,34.0407497473,-118.436632392,"(34.0407497473, -118.436632392)",632,B,6,West Los Angeles APC,5,Paul Koretz,62,Westside,WEST LOS ANGELES
1-1831780781,01/01/2021 10:21:52 AM,01/07/2021 09:35:46 AM,SR Created,LASAN,Bulky Items,Closed,Mobile App,iOS,Y,NC,01/07/2021 12:00:00 AM,01/07/2021 09:34:12 AM,Y,,"1454 N ALLESANDRO ST, 90026",1454,N,ALLESANDRO,ST,90026,34.082345567,-118.26189858,"(34.082345567, -118.26189858)",594,D,7,East Los Angeles APC,13,Mitch O'Farrell,44,Echo Park,NORTHEAST
1-1831781391,01/01/2021 10:22:01 AM,01/02/2021 07:01:00 AM,SR Created,LASAN,Bulky Items,Closed,Self Service,,N,NC,01/02/2021 12:00:00 AM,01/02/2021 06:58:45 AM,Y,N,"512 N WINDSOR BLVD, 90004",512,N,WINDSOR,BLVD,90004,34.0793293033,-118.319527845,"(34.0793293033, -118.319527845)",593,G,7,Central APC,4,Nithya Raman,119,Greater Wilshire,OLYMPIC
1-1831782241,01/01/2021 10:24:06 AM,01/01/2021 11:04:16 AM,SR Created,LASAN,Dead Animal Removal,Closed,Mobile App,iOS,N,NC,,01/01/2021 11:04:15 AM,Y,,"5063 N GLEN IRIS AVE, 90041",5063,N,GLEN IRIS,AVE,90041,34.1380315992,-118.209764291,"(34.1380315992, -118.209764291)",565,A,6,East Los Angeles APC,14,Kevin de León,40,Eagle Rock,NORTHEAST
1-1831781461,01/01/2021 10:24:51 AM,01/02/2021 05:16:35 PM,SR Created,LASAN,Bulky Items,Closed,Mobile App,Android,N,EV,01/02/2021 12:00:00 AM,01/02/2021 05:12:37 PM,Y,,"15151 W TYLER ST, 91342",15151,W,TYLER,ST,91342,34.301845258,-118.463775101,"(34.301845258, -118.463775101)",481,H,5,North Valley APC,7,Monica Rodriguez,5,Sylmar,MISSION
1-1831779891,01/01/2021 10:24:55 AM,01/10/2021 09:49:23 AM,SR Created,OCB,Graffiti Removal,Cancelled,Call,,Y,NEGB_ELA,01/10/2021 09:46:34 AM,01/10/2021 09:49:22 AM,Y,N,"NORTH BROADWAY AT AVENUE 22, 90031",,,,,90031,34.07359957,-118.2178781,"(34.07359957, -118.2178781)",634,J,1,East Los Angeles APC,1,Gilbert Cedillo,47,Lincoln Heights,HOLLENBECK
1-1831782951,01/01/2021 10:25:14 AM,01/07/2021 06:57:44 PM,SR Created,LASAN,Bulky Items,Closed,Self Service,,N,NC,01/07/2021 12:00:00 AM,01/07/2021 12:54:04 PM,Y,N,"2848 N BUZZ CT, 90039",2848,N,BUZZ,CT,90039,34.1075275235,-118.26629315,"(34.1075275235, -118.26629315)",594,D,3,East Los Angeles APC,4,Nithya Raman,38,Silver Lake,NORTHEAST
1-1831782981,01/01/2021 10:25:42 AM,01/05/2021 10:46:50 PM,SR Created,LASAN,Bulky Items,Closed,Call,,N,NC,01/05/2021 12:00:00 AM,01/05/2021 12:47:49 PM,Y,N,"4923 E ELDRED ST, 90042",4923,E,ELDRED,ST,90042,34.1092632464,-118.206925217,"(34.1092632464, -118.206925217)",595,B,3,East Los Angeles APC,1,Gilbert Cedillo,41,Historic Highland Park,NORTHEAST
1-1831781551,01/01/2021 10:26:41 AM,01/06/2021 08:54:02 AM,SR Created,LASAN,Bulky Items,Closed,Mobile App,Android,Y,NC,01/06/2021 12:00:00 AM,01/06/2021 08:52:06 AM,Y,,"700 N HILL PL, 90012",700,N,HILL,PL,90012,34.0616146648,-118.242319892,"(34.0616146648, -118.242319892)",634,G,2,Central APC,1,Gilbert Cedillo,128,Historic Cultural North,CENTRAL
1-1831783941,01/01/2021 10:28:00 AM,01/02/2021 05:32:00 PM,SR Created,LASAN,Bulky Items,Closed,Mobile App,iOS,N,NC,01/02/2021 12:00:00 AM,01/02/2021 08:17:23 AM,Y,,"2136 N BEACHWOOD DR, 90068",2136,N,BEACHWOOD,DR,90068,34.1095366616,-118.321305046,"(34.1095366616, -118.321305046)",593,G,3,Central APC,4,Nithya Raman,30,Hollywood United,HOLLYWOOD
1-1831782371,01/01/2021 10:28:13 AM,01/07/2021 03:37:02 AM,SR Created,LASAN,Bulky Items,Closed,Mobile App,iOS,N,NC,01/06/2021 12:00:00 AM,01/06/2021 07:08:15 AM,Y,,"2380 N LAKE VIEW AVE, 90039",2380,N,LAKE VIEW,AVE,90039,34.0998086889,-118.254264964,"(34.0998086889, -118.254264964)",594,E,4,East Los Angeles APC,13,Mitch O'Farrell,38,Silver Lake,NORTHEAST
1-1831781591,01/01/2021 10:28:41 AM,01/03/2021 11:46:40 AM,SR Created,OCB,Graffiti Removal,Closed,Mobile App,iOS,N,NEGB_ELA,01/03/2021 12:00:00 AM,01/03/2021 11:46:39 AM,Y,N,"2337 N GATES ST, 90031",2337,N,GATES,ST,90031,34.0730371175,-118.206658919,"(34.0730371175, -118.206658919)",635,B,1,East Los Angeles APC,1,Gilbert Cedillo,47,Lincoln Heights,HOLLENBECK
1-1831781651,01/01/2021 10:31:17 AM,01/05/2021 08:09:32 PM,SR Created,LASAN,Homeless Encampment,Closed,Call,,N,NC,01/05/2021 12:00:00 AM,01/05/2021 01:20:46 PM,Y,N,"1042 W KIPLING AVE, 90041",1042,W,KIPLING,AVE,90041,34.1384194708,-118.188931043,"(34.1384194708, -118.188931043)",565,D,6,East Los Angeles APC,14,Kevin de León,40,Eagle Rock,NORTHEAST
1-1831781691,01/01/2021 10:31:40 AM,01/02/2021 03:52:28 PM,SR Created,LASAN,Metal/Household Appliances,Closed,Call,,N,NC,01/02/2021 12:00:00 AM,01/02/2021 09:12:04 AM,Y,N,"5839 W HAROLD WAY, 90028",5839,W,HAROLD,WAY,90028,34.0993939857,-118.31720487,"(34.0993939857, -118.31720487)",593,G,4,Central APC,13,Mitch O'Farrell,33,Hollywood Studio District,HOLLYWOOD
1-1831783151,01/01/2021 10:31:43 AM,01/06/2021 09:42:28 AM,SR Created,LASAN,Bulky Items,Closed,Call,,N,EV,01/06/2021 12:00:00 AM,01/06/2021 09:39:01 AM,Y,N,"11565 W HORTENSE ST, 91602",11565,W,HORTENSE,ST,91602,34.1549955409,-118.38431523,"(34.1549955409, -118.38431523)",562,H,4,South Valley APC,2,Paul Krekorian,25,Valley Village,NORTH HOLLYWOOD
1-1831781711,01/01/2021 10:31:58 AM,01/02/2021 07:27:33 AM,SR Created,LASAN,Bulky Items,Closed,Mobile App,iOS,N,EV,01/02/2021 12:00:00 AM,01/02/2021 07:24:05 AM,Y,,"12036 W WICKS ST, 91352",12036,W,WICKS,ST,91352,34.2328969006,-118.39504919,"(34.2328969006, -118.39504919)",502,G,7,North Valley APC,6,Nury Martinez,8,Sun Valley,FOOTHILL
1-1831781791,01/01/2021 10:33:26 AM,01/05/2021 01:01:11 AM,SR Created,LASAN,Bulky Items,Closed,Mobile App,iOS,N,WLA,01/04/2021 12:00:00 AM,01/04/2021 08:01:06 AM,Y,,"6019 W 86TH PL, 90045",6019,W,86TH,PL,90045,33.9594180303,-118.38898456,"(33.9594180303, -118.38898456)",702,H,3,West Los Angeles APC,11,Mike Bonin,71,Westchester/Playa,PACIFIC
1-1831783291,01/01/2021 10:34:01 AM,01/07/2021 03:24:12 PM,SR Created,LASAN,Bulky Items,Closed,Call,,N,WLA,01/07/2021 12:00:00 AM,01/07/2021 03:20:35 PM,Y,N,"5362 W OLYMPIC BLVD, 90036",5362,W,OLYMPIC,BLVD,90036,34.0570758972,-118.347445694,"(34.0570758972, -118.347445694)",633,D,3,Central APC,10,Mark Ridley-Thomas,60,P.I.C.O.,WILSHIRE
1-1831781821,01/01/2021 10:34:57 AM,01/05/2021 09:17:49 AM,SR Created,OCB,Graffiti Removal,Closed,Mobile App,Android,N,GAPBH,01/03/2021 09:16:51 AM,01/05/2021 09:17:49 AM,Y,N,"690 S MYERS ST, 90023",690,S,MYERS,ST,90023,34.035012282,-118.225090905,"(34.035012282, -118.225090905)",634,J,6,East Los Angeles APC,14,Kevin de León,50,Boyle Heights,HOLLENBECK
1-1831783351,01/01/2021 10:36:12 AM,01/04/2021 11:26:05 PM,SR Created,LASAN,Bulky Items,Closed,Mobile App,iOS,N,WV,01/04/2021 12:00:00 AM,01/04/2021 09:18:43 AM,Y,,"7332 N LAURA LANE, 91335",7332,N,LAURA,LANE,91335,34.2038301132,-118.554553663,"(34.2038301132, -118.554553663)",530,G,4,South Valley APC,3,Bob Blumenfield,15,Reseda,WEST VALLEY
1-1831782661,01/01/2021 10:36:48 AM,05/05/2021 08:55:43 AM,SR Created,BSL,Multiple Streetlight Issue,Closed,Call,,N,SOUTH,04/29/2021 12:00:00 AM,04/29/2021 12:00:00 AM,Y,N,"SYCAMORE AVE AT ORANGE PL, 90008",,,,,90008,34.0153133156,-118.357554517,"(34.0153133156, -118.357554517)",673,C,2,South Los Angeles APC,10,Mark Ridley-Thomas,79,Empowerment Congress West,SOUTHWEST
1-1831784181,01/01/2021 10:37:50 AM,01/20/2021 11:55:16 AM,SR Created,LASAN,Bulky Items,Closed,Mobile App,iOS,N,SLA,01/04/2021 12:00:00 AM,01/20/2021 11:48:45 AM,Y,N,"STANFORD AVE AT 116TH PL, 90059",,,,,90059,33.9282655986,-118.262197346,"(33.9282655986, -118.262197346)",704,E,7,South Los Angeles APC,15,Joe Buscaino,90,Harbor Gateway North,SOUTHEAST
1-1831782741,01/01/2021 10:38:16 AM,01/02/2021 08:32:18 PM,SR Created,LASAN,Metal/Household Appliances,Closed,Call,,N,EV,01/02/2021 12:00:00 AM,01/02/2021 02:01:33 PM,Y,N,"11225 N ACALA AVE, 91340",11225,N,ACALA,AVE,91340,34.2742879823,-118.446604693,"(34.2742879823, -118.446604693)",502,A,1,North Valley APC,7,Monica Rodriguez,101,Mission Hills,MISSION
1-1831783481,01/01/2021 10:38:22 AM,01/06/2021 10:59:59 PM,SR Created,LASAN,Bulky Items,Closed,Mobile App,Android,Y,HB,01/06/2021 12:00:00 AM,01/06/2021 04:38:10 PM,Y,,"2424 S LELAND ST, 90731",2424,S,LELAND,ST,90731,33.721872143,-118.301129575,"(33.721872143, -118.301129575)",824,A,7,Harbor APC,15,Joe Buscaino,96,Coastal San Pedro,HARBOR
1-1831784941,01/01/2021 10:38:23 AM,01/05/2021 08:21:34 AM,SR Created,LASAN,Bulky Items,Closed,Self Service,,N,EV,01/05/2021 12:00:00 AM,01/05/2021 08:06:57 AM,Y,N,"4849 N BILOXI AVE, 91601",4849,N,BILOXI,AVE,91601,34.1590646133,-118.358423668,"(34.1590646133, -118.358423668)",563,B,3,South Valley APC,4,Nithya Raman,28,Greater Toluca Lake,NORTH HOLLYWOOD
1-1831782861,01/01/2021 10:39:48 AM,01/06/2021 12:49:51 AM,SR Created,LASAN,Illegal Dumping Pickup,Closed,Mobile App,Android,N,HB,01/05/2021 12:00:00 AM,01/05/2021 03:55:04 PM,Y,,"844 N KING AVE, 90744",844,N,KING,AVE,90744,33.7805646106,-118.275442892,"(33.7805646106, -118.275442892)",794,D,6,Harbor APC,15,Joe Buscaino,93,Wilmington,HARBOR
1-1831785071,01/01/2021 10:40:22 AM,01/06/2021 07:40:28 AM,SR Created,LASAN,Bulky Items,Closed,Mobile App,iOS,Y,WLA,01/06/2021 12:00:00 AM,01/06/2021 07:36:48 AM,Y,,"11346 W IOWA AVE, 90025",11346,W,IOWA,AVE,90025,34.0444381503,-118.448733799,"(34.0444381503, -118.448733799)",632,A,5,West Los Angeles APC,11,Mike Bonin,66,West LA - Sawtelle,WEST LOS ANGELES
1-1831785101,01/01/2021 10:40:33 AM,01/02/2021 03:43:07 PM,SR Created,LASAN,Bulky Items,Closed,Mobile App,iOS,N,EV,01/02/2021 12:00:00 AM,01/02/2021 03:34:32 PM,Y,,"13259 N WOODCOCK AVE, 91342",13259,N,WOODCOCK,AVE,91342,34.3118822569,-118.463619826,"(34.3118822569, -118.463619826)",481,H,3,North Valley APC,7,Monica Rodriguez,5,Sylmar,MISSION
1-1831785121,01/01/2021 10:40:36 AM,01/08/2021 01:56:15 AM,SR Created,LASAN,Metal/Household Appliances,Closed,Call,,N,HB,01/07/2021 12:00:00 AM,01/07/2021 07:16:15 PM,Y,N,"1631 W SANTA CRUZ ST, 90732",1631,W,SANTA CRUZ,ST,90732,33.7451524226,-118.312152696,"(33.7451524226, -118.312152696)",823,H,4,Harbor APC,15,Joe Buscaino,94,Northwest San Pedro,HARBOR
1-1831783621,01/01/2021 10:42:54 AM,01/06/2021 02:56:03 AM,SR Created,LASAN,Bulky Items,Closed,Mobile App,iOS,Y,EV,01/05/2021 12:00:00 AM,01/05/2021 08:47:07 AM,Y,,"8241 N WHITSETT AVE, 91605",8241,N,WHITSETT,AVE,91605,34.221142128,-118.405468105,"(34.221142128, -118.405468105)",532,F,2,North Valley APC,2,Paul Krekorian,22,North Hollywood West,FOOTHILL
1-1831784341,01/01/2021 10:43:16 AM,01/02/2021 11:39:57 AM,SR Created,LASAN,Bulky Items,Closed,Mobile App,iOS,N,WV,01/02/2021 12:00:00 AM,01/02/2021 11:25:40 AM,Y,,"5900 N MOORCROFT AVE, 91367",5900,N,MOORCROFT,AVE,91367,34.1783800575,-118.611168218,"(34.1783800575, -118.611168218)",559,J,1,South Valley APC,3,Bob Blumenfield,16,Woodland Hills-Warner Center,TOPANGA
1-1831785981,01/01/2021 10:43:43 AM,01/02/2021 01:55:30 PM,SR Created,LASAN,Bulky Items,Closed,Mobile App,iOS,N,WLA,01/02/2021 12:00:00 AM,01/02/2021 01:53:05 PM,Y,,"1454 1/2 S CLOVERDALE AVE, 90019",1454,S,CLOVERDALE,AVE,90019,34.04655146,-118.352103706,"(34.04655146, -118.352103706)",633,C,5,Central APC,10,Mark Ridley-Thomas,60,P.I.C.O.,WILSHIRE
