SRNumber,CreatedDate,UpdatedDate,ActionTaken,Owner,RequestType,Status,RequestSource,MobileOS,Anonymous,AssignTo,ServiceDate,ClosedDate,AddressVerified,ApproximateAddress,Address,HouseNumber,Direction,StreetName,Suffix,ZipCode,Latitude,Longitude,Location,TBMPage,TBMColumn,TBMRow,APC,CD,CDMember,NC,NCName,PolicePrecinct,Zip Codes,Census Tracts,Precinct Boundaries,LA Specific Plans,Council Districts,Neighborhood Councils (Certified)
1-411049404,12/31/2016 10:08:00 PM,01/07/2017 01:18:00 PM,SR Created,BOS,Bulky Items,Closed,Mobile App,iOS,Y,WLA,01/07/2017 12:00:00 AM,01/07/2017 01:18:00 PM,Y,,"10021 W TABOR ST, 90034",10021,W,TABOR,ST,90034,34.02725789,-118.4034523,"(34.0272578935, -118.403452251)",632,F,7,West Los Angeles APC,5,Paul Koretz,115,PALMS NC,PACIFIC,23451,884,1129,9,6,74
1-411055701,12/31/2016 10:07:00 PM,01/03/2017 12:55:00 PM,SR Created,BOS,Bulky Items,Closed,Self Service,,Y,WV,01/03/2017 12:00:00 AM,01/03/2017 12:55:00 PM,Y,N,"11305 N ENCINO AVE, 91344",11305,N,ENCINO,AVE,91344,34.27585978,-118.5154353,"(34.2758597772, -118.515435275)",501,B,1,North Valley APC,12,Mitchell Englander,118,GRANADA HILLS SOUTH NC,DEVONSHIRE,19329,78,1414,,2,79
1-411055631,12/31/2016 10:06:00 PM,01/03/2017 12:19:00 PM,SR Created,BOS,Bulky Items,Closed,Self Service,,N,SLA,01/03/2017 12:00:00 AM,01/03/2017 12:19:00 PM,Y,N,"3446 S HILLCREST DR, 90016",3446,S,HILLCREST,DR,90016,34.02411011,-118.3427708,"(34.0241101132, -118.342770827)",673,D,1,South Los Angeles APC,10,Herb J. Wesson Jr.,75,WEST ADAMS NC,SOUTHWEST,23077,668,925,7,12,17
1-411055521,12/31/2016 10:02:00 PM,01/03/2017 10:32:00 AM,SR Created,BOS,Bulky Items,Closed,Self Service,,N,SLA,01/03/2017 12:00:00 AM,01/03/2017 10:32:00 AM,Y,N,"3721 W EXPOSITION BLVD, 90016",3721,W,EXPOSITION,BLVD,90016,34.0230916,-118.3371771,"(34.0230916033, -118.337177075)",673,E,1,South Los Angeles APC,10,Herb J. Wesson Jr.,75,WEST ADAMS NC,SOUTHWEST,23077,668,926,7,12,17
1-411053901,12/31/2016 10:00:00 PM,01/04/2017 08:19:00 AM,SR Created,BOS,Bulky Items,Closed,Self Service,,N,SLA,01/04/2017 12:00:00 AM,01/04/2017 08:19:00 AM,Y,N,"1414 W 36TH PL, 90018",1414,W,36TH,PL,90018,34.02176143,-118.3008036,"(34.0217614333, -118.300803572)",673,J,1,South Los Angeles APC,8,Marqueece Harris-Dawson,77,EMPOWERMENT CONGRESS NORTH AREA NDC,SOUTHWEST,23079,690,916,7,14,32
1-411048981,12/31/2016 09:48:00 PM,01/04/2017 08:20:00 AM,SR Created,BOS,Bulky Items,Closed,Self Service,,N,SLA,01/04/2017 12:00:00 AM,01/04/2017 08:20:00 AM,Y,N,"1446 W 37TH DR, 90018",1446,W,37TH,DR,90018,34.01878494,-118.3018453,"(34.0187849415, -118.301845296)",673,J,1,South Los Angeles APC,8,Marqueece Harris-Dawson,77,EMPOWERMENT CONGRESS NORTH AREA NDC,SOUTHWEST,23079,690,916,7,14,32
1-411053631,12/31/2016 09:19:00 PM,01/04/2017 09:10:00 AM,SR Created,BOS,Bulky Items,Closed,Call,,N,SLA,01/04/2017 12:00:00 AM,01/04/2017 09:10:00 AM,Y,N,"1744 W 42ND PL, 90062",1744,W,42ND,PL,90062,34.00625312,-118.3105145,"(34.0062531245, -118.310514481)",673,H,3,South Los Angeles APC,8,Marqueece Harris-Dawson,81,EMPOWERMENT CONGRESS CENTRAL AREA NDC,SOUTHWEST,24027,732,1023,7,14,35
1-411048131,12/31/2016 09:18:00 PM,01/09/2017 08:52:00 AM,SR Created,BOS,Bulky Items,Closed,Self Service,,N,WLA,01/09/2017 12:00:00 AM,01/09/2017 08:52:00 AM,Y,N,"12205 W ALBERTA DR, 90230",12205,W,ALBERTA,DR,90230,33.98578726,-118.4117852,"(33.9857872582, -118.411785204)",672,E,6,West Los Angeles APC,11,Mike Bonin,70,DEL REY NC,PACIFIC,24678,924,1139,10,10,85
1-411048611,12/31/2016 09:02:00 PM,01/05/2017 08:08:00 AM,SR Created,BOS,Bulky Items,Closed,Mobile App,Android,N,WV,01/05/2017 12:00:00 AM,01/05/2017 08:08:00 AM,Y,,"7012 N ALDEA AVE, 91406",7012,N,ALDEA,AVE,91406,34.19792481,-118.5086819,"(34.1979248066, -118.508681919)",531,C,5,South Valley APC,6,Nury Martinez,19,LAKE BALBOA NC,WEST VALLEY,19734,261,301,,3,61
1-411047831,12/31/2016 08:56:00 PM,01/06/2017 01:22:00 PM,SR Created,BOS,Bulky Items,Closed,Self Service,,Y,EV,01/06/2017 12:00:00 AM,01/06/2017 01:22:00 PM,Y,N,"7320 N LENNOX AVE, 91405",7320,N,LENNOX,AVE,91405,34.20336089,-118.446186,"(34.2033608892, -118.446185978)",532,A,4,South Valley APC,2,Paul Krekorian,20,VAN NUYS NC,VAN NUYS,19733,215,458,,5,18
1-411047749,12/31/2016 08:52:00 PM,01/07/2017 02:16:00 PM,SR Created,BOS,Bulky Items,Closed,Mobile App,iOS,Y,EV,01/07/2017 12:00:00 AM,01/07/2017 02:16:00 PM,Y,,"13595 W GAGER ST, 91331",13595,W,GAGER,ST,91331,34.25441696,-118.4293741,"(34.254416961, -118.429374103)",502,C,4,North Valley APC,7,Vacant,7,PACOIMA NC,FOOTHILL,18907,26,408,,1,11
1-411042491,12/31/2016 08:23:00 PM,01/04/2017 09:20:00 AM,SR Created,BOS,Bulky Items,Closed,Mobile App,iOS,Y,WV,01/04/2017 12:00:00 AM,01/04/2017 09:20:00 AM,Y,,"20141 W SHERMAN WAY, 91306",20141,W,SHERMAN,WAY,91306,34.20126618,-118.5725391,"(34.2012661753, -118.572539145)",530,E,5,South Valley APC,3,Bob Blumenfield,14,WINNETKA NC,TOPANGA,4282,290,281,,4,66
1-411044031,12/31/2016 07:52:00 PM,01/07/2017 10:16:00 AM,SR Created,BOS,Bulky Items,Closed,Self Service,,N,NC,01/07/2017 12:00:00 AM,01/07/2017 10:16:00 AM,Y,N,"701 S GRAMERCY DR, 90005",701,S,GRAMERCY,DR,90005,34.05921533,-118.3123656,"(34.0592153257, -118.312365552)",633,H,3,Central APC,4,David Ryu,119,GREATER WILSHIRE NC,OLYMPIC,22722,610,888,,7,86
1-411047571,12/31/2016 07:40:00 PM,01/04/2017 12:35:00 PM,SR Created,BOS,Bulky Items,Closed,Call,,N,NC,01/04/2017 12:00:00 AM,01/04/2017 12:35:00 PM,Y,N,"5200 E LINCOLN AVE, 90042",5200,E,LINCOLN,AVE,90042,34.11961981,-118.2027391,"(34.1196198077, -118.202739132)",595,B,1,East Los Angeles APC,1,Gilbert Cedillo,41,HISTORIC HIGHLAND PARK NC,NORTHEAST,23673,365,584,,11,93
1-411043875,12/31/2016 07:38:00 PM,01/03/2017 09:38:00 AM,SR Created,BOS,Bulky Items,Closed,Mobile App,iOS,N,NC,01/03/2017 12:00:00 AM,01/03/2017 09:38:00 AM,Y,,"4522 N HOMER ST, 90031",4522,N,HOMER,ST,90031,34.09466812,-118.203583,"(34.0946681192, -118.203583024)",595,B,5,East Los Angeles APC,1,Gilbert Cedillo,42,ARROYO SECO NC,HOLLENBECK,23448,490,606,,11,92
1-411044751,12/31/2016 07:21:00 PM,01/07/2017 01:53:00 PM,SR Created,BOS,Bulky Items,Closed,Self Service,,N,EV,01/07/2017 12:00:00 AM,01/07/2017 01:53:00 PM,Y,N,"12867 N COMETA AVE, 91340",12867,N,COMETA,AVE,91340,34.30405355,-118.431423,"(34.3040535475, -118.431423045)",482,B,4,North Valley APC,7,Vacant,5,SYLMAR NC,MISSION,18912,42,285,,1,47
1-411042191,12/31/2016 07:11:00 PM,01/06/2017 03:53:00 PM,SR Created,BOS,Bulky Items,Closed,Self Service,,Y,WLA,01/06/2017 12:00:00 AM,01/06/2017 03:53:00 PM,Y,Y,"2924 S SELBY AVE, 90064",2924,S,SELBY,AVE,90064,34.03256886,-118.4190736,"(34.0325688625, -118.419073585)",632,E,7,West Los Angeles APC,5,Paul Koretz,62,WESTSIDE NC,WEST LOS ANGELES,24029,888,1251,9,6,75
1-411039621,12/31/2016 06:33:00 PM,01/03/2017 11:41:00 AM,SR Created,BOS,Bulky Items,Closed,Mobile App,iOS,N,SLA,01/03/2017 12:00:00 AM,01/03/2017 11:41:00 AM,Y,,"1800 S OXFORD AVE, 90006",1800,S,OXFORD,AVE,90006,34.04118337,-118.3075571,"(34.0411833658, -118.307557072)",633,H,5,South Los Angeles APC,10,Herb J. Wesson Jr.,74,"UNITED NEIGHBORHOODS OF THE HISTORIC ARLINGTON HEIGHTS, WEST ADAMS, AND JEFFERSON PARK COMMUNITY",OLYMPIC,22723,674,906,,12,19
1-411040503,12/31/2016 06:31:00 PM,01/03/2017 11:38:00 AM,SR Created,BOS,Bulky Items,Closed,Mobile App,iOS,N,SLA,01/03/2017 12:00:00 AM,01/03/2017 11:38:00 AM,Y,,"1822 S OXFORD AVE, 90006",1822,S,OXFORD,AVE,90006,34.04049701,-118.3075523,"(34.0404970095, -118.307552328)",633,H,5,South Los Angeles APC,10,Herb J. Wesson Jr.,74,"UNITED NEIGHBORHOODS OF THE HISTORIC ARLINGTON HEIGHTS, WEST ADAMS, AND JEFFERSON PARK COMMUNITY",OLYMPIC,22723,674,906,,12,19
1-411034099,12/31/2016 06:24:00 PM,01/05/2017 11:00:00 AM,SR Created,BOS,Bulky Items,Closed,Mobile App,iOS,N,WV,01/05/2017 12:00:00 AM,01/05/2017 11:00:00 AM,Y,,"16518 W CHATSWORTH ST, 91344",16518,W,CHATSWORTH,ST,91344,34.26455362,-118.4919497,"(34.2645536196, -118.491949673)",501,E,3,North Valley APC,12,Mitchell Englander,118,GRANADA HILLS SOUTH NC,DEVONSHIRE,19329,85,391,,2,79
1-411032319,12/31/2016 06:18:00 PM,01/03/2017 01:58:00 PM,SR Created,BOS,Bulky Items,Closed,Mobile App,iOS,Y,NC,01/03/2017 12:00:00 AM,01/03/2017 01:58:00 PM,Y,,"3839 N PORTOLA AVE, 90032",3839,N,PORTOLA,AVE,90032,34.09009303,-118.1725449,"(34.0900930304, -118.172544851)",595,F,5,East Los Angeles APC,14,Jose Huizar,48,LA-32 NC,HOLLENBECK,23449,497,623,,9,91
1-411030251,12/31/2016 06:10:00 PM,01/05/2017 01:34:00 PM,SR Created,BOS,Bulky Items,Closed,Self Service,,N,HB,01/05/2017 12:00:00 AM,01/05/2017 01:34:00 PM,Y,N,"653 W 22ND ST, 90731",653,W,22ND,ST,90731,33.72414542,-118.2915065,"(33.7241454152, -118.291506452)",824,B,7,Harbor APC,15,Joe Buscaino,96,COASTAL SAN PEDRO NC,HARBOR,3342,981,1248,,15,33
1-411033561,12/31/2016 06:01:00 PM,01/07/2017 07:47:00 AM,SR Created,BOS,Bulky Items,Closed,Call,,N,SLA,01/07/2017 12:00:00 AM,01/07/2017 07:47:00 AM,Y,N,"422 E 106TH ST, 90003",422,E,106TH,ST,90003,33.93999926,-118.2665139,"(33.9399992605, -118.266513895)",704,D,5,South Los Angeles APC,8,Marqueece Harris-Dawson,87,EMPOWERMENT CONGRESS SOUTHEAST AREA NDC,SOUTHEAST,22352,807,359,7,14,45
1-411029861,12/31/2016 05:54:00 PM,01/07/2017 09:19:00 AM,SR Created,BOS,Bulky Items,Closed,Call,,N,SLA,01/07/2017 12:00:00 AM,01/07/2017 09:19:00 AM,Y,N,"422 E 106TH ST, 90003",422,E,106TH,ST,90003,33.93999926,-118.2665139,"(33.9399992605, -118.266513895)",704,D,5,South Los Angeles APC,8,Marqueece Harris-Dawson,87,EMPOWERMENT CONGRESS SOUTHEAST AREA NDC,SOUTHEAST,22352,807,359,7,14,45
1-411028381,12/31/2016 05:33:00 PM,01/04/2017 12:55:00 PM,SR Created,BOS,Bulky Items,Closed,Self Service,,N,WLA,01/04/2017 12:00:00 AM,01/04/2017 12:55:00 PM,Y,N,"565 N OCAMPO DR, 90272",565,N,OCAMPO,DR,90272,34.03855169,-118.5202739,"(34.0385516867, -118.5202739)",631,B,6,West Los Angeles APC,11,Mike Bonin,,,WEST LOS ANGELES,25066,838,1388,,10,
1-411028151,12/31/2016 05:22:00 PM,01/05/2017 07:58:00 AM,SR Created,BOS,Bulky Items,Closed,Call,,N,NC,01/05/2017 12:00:00 AM,01/05/2017 07:58:00 AM,Y,N,"4326 N LATONA AVE, 90031",4326,N,LATONA,AVE,90031,34.09122146,-118.2010274,"(34.0912214622, -118.201027407)",595,B,5,East Los Angeles APC,1,Gilbert Cedillo,42,ARROYO SECO NC,HOLLENBECK,23448,490,606,,11,92
1-411025491,12/31/2016 05:17:00 PM,01/07/2017 07:52:00 AM,SR Created,BOS,Bulky Items,Closed,Call,,N,WV,01/07/2017 12:00:00 AM,01/07/2017 07:52:00 AM,Y,N,"23034 W ENADIA WAY, 91307",23034,W,ENADIA,WAY,91307,34.19957117,-118.6291693,"(34.1995711667, -118.629169321)",529,G,5,South Valley APC,12,Mitchell Englander,11,WEST HILLS NC,TOPANGA,4283,283,1470,,2,44
1-411026422,12/31/2016 05:08:00 PM,01/03/2017 12:49:00 PM,SR Created,BOS,Bulky Items,Closed,Mobile App,iOS,N,WV,01/03/2017 12:00:00 AM,01/03/2017 12:49:00 PM,Y,,"7419 N RESEDA BLVD, 91335",7419,N,RESEDA,BLVD,91335,34.20535405,-118.5362913,"(34.2053540517, -118.536291321)",530,J,4,South Valley APC,3,Bob Blumenfield,15,RESEDA NC,WEST VALLEY,18909,250,278,,4,12
1-411027791,12/31/2016 05:05:00 PM,01/03/2017 08:44:00 AM,SR Created,BOS,Bulky Items,Closed,Self Service,,N,SLA,01/03/2017 12:00:00 AM,01/03/2017 08:44:00 AM,Y,N,"2934 S KENWOOD AVE, 90007",2934,S,KENWOOD,AVE,90007,34.02811502,-118.2990398,"(34.0281150239, -118.29903984)",633,J,7,South Los Angeles APC,8,Marqueece Harris-Dawson,77,EMPOWERMENT CONGRESS NORTH AREA NDC,SOUTHWEST,22724,688,910,7,14,32
1-411025181,12/31/2016 05:00:00 PM,01/04/2017 11:44:00 AM,SR Created,BOS,Bulky Items,Closed,Call,,N,WV,01/04/2017 12:00:00 AM,01/04/2017 11:44:00 AM,Y,N,"19408 W CALVERT ST, 91335",19408,W,CALVERT,ST,91335,34.18250057,-118.5561478,"(34.1825005727, -118.556147799)",530,F,7,South Valley APC,3,Bob Blumenfield,17,TARZANA NC,WEST VALLEY,18909,292,313,,4,10
1-411027511,12/31/2016 04:58:00 PM,01/04/2017 09:21:00 AM,SR Created,BOS,Bulky Items,Closed,Call,,N,WV,01/04/2017 12:00:00 AM,01/04/2017 09:21:00 AM,Y,N,"19408 W CALVERT ST, 91335",19408,W,CALVERT,ST,91335,34.18250057,-118.5561478,"(34.1825005727, -118.556147799)",530,F,7,South Valley APC,3,Bob Blumenfield,17,TARZANA NC,WEST VALLEY,18909,292,313,,4,10
1-411026001,12/31/2016 04:49:00 PM,01/06/2017 12:18:00 PM,SR Created,BOS,Bulky Items,Closed,Mobile App,iOS,Y,WV,01/06/2017 12:00:00 AM,01/06/2017 12:18:00 PM,Y,,"6731 N WILBUR AVE, 91335",6731,N,WILBUR,AVE,91335,34.19276994,-118.5450545,"(34.1927699431, -118.545054454)",530,H,6,South Valley APC,3,Bob Blumenfield,15,RESEDA NC,WEST VALLEY,18909,266,309,,4,12
1-411024721,12/31/2016 04:47:00 PM,01/05/2017 08:55:00 AM,SR Created,BOS,Bulky Items,Closed,Self Service,,N,WV,01/05/2017 12:00:00 AM,01/05/2017 08:55:00 AM,Y,N,"18429 W PRAIRIE ST, 91325",18429,W,PRAIRIE,ST,91325,34.23921833,-118.5349416,"(34.2392183269, -118.534941643)",500,J,6,North Valley APC,12,Mitchell Englander,120,NORTHRIDGE EAST,DEVONSHIRE,18514,107,939,,2,87
1-411023081,12/31/2016 04:44:00 PM,01/07/2017 01:47:00 PM,SR Created,BOS,Bulky Items,Closed,Call,,N,EV,01/07/2017 12:00:00 AM,01/07/2017 01:47:00 PM,Y,N,"14828 W CHATSWORTH DR, 91345",14828,W,CHATSWORTH,DR,91345,34.26856536,-118.4557288,"(34.2685653568, -118.455728752)",501,J,2,North Valley APC,7,Vacant,101,MISSION HILLS NC,MISSION,19330,70,380,,1,4
1-411016481,12/31/2016 04:28:00 PM,01/04/2017 11:53:00 AM,SR Created,BOS,Bulky Items,Closed,Call,,N,WV,01/04/2017 12:00:00 AM,01/04/2017 11:53:00 AM,Y,N,"10750 N MELVIN AVE, 91326",10750,N,MELVIN,AVE,91326,34.26611177,-118.5599285,"(34.2661117732, -118.559928545)",500,F,3,North Valley APC,12,Mitchell Englander,113,NORTHRIDGE WEST,DEVONSHIRE,18905,87,225,,2,77
1-411017831,12/31/2016 04:28:00 PM,12/31/2016 04:29:00 PM,SR Created,BOS,Bulky Items,Closed,Call,,Y,EV,01/06/2017 12:00:00 AM,12/31/2016 04:29:00 PM,Y,N,"14225 W SYLVAN ST, 91401",14225,W,SYLVAN,ST,91401,34.18478312,-118.4431022,"(34.184783119, -118.443102203)",532,A,7,South Valley APC,6,Nury Martinez,20,VAN NUYS NC,VAN NUYS,19729,237,1338,,3,18
1-411016811,12/31/2016 04:26:00 PM,12/31/2016 04:30:00 PM,SR Created,BOS,Bulky Items,Closed,Call,,Y,EV,01/06/2017 12:00:00 AM,12/31/2016 04:30:00 PM,Y,N,"14233 W SYLVAN ST, 91401",14233,W,SYLVAN,ST,91401,34.18478382,-118.4433138,"(34.1847838222, -118.443313823)",532,A,7,South Valley APC,6,Nury Martinez,20,VAN NUYS NC,VAN NUYS,19729,237,1338,,3,18
1-411021761,12/31/2016 04:25:00 PM,12/31/2016 04:31:00 PM,SR Created,BOS,Bulky Items,Closed,Call,,Y,EV,01/06/2017 12:00:00 AM,12/31/2016 04:31:00 PM,Y,N,"14223 W SYLVAN ST, 91401",14223,W,SYLVAN,ST,91401,34.18478456,-118.4429841,"(34.1847845625, -118.442984054)",532,A,7,South Valley APC,6,Nury Martinez,20,VAN NUYS NC,VAN NUYS,19729,237,1338,,3,18
1-411013340,12/31/2016 04:21:00 PM,01/06/2017 01:15:00 PM,SR Created,BOS,Bulky Items,Closed,Mobile App,Android,N,NC,01/06/2017 12:00:00 AM,01/06/2017 01:15:00 PM,Y,,"620 N HELIOTROPE DR, 90004",620,N,HELIOTROPE,DR,90004,34.08145329,-118.2951711,"(34.0814532879, -118.295171074)",594,A,7,Central APC,13,Mitch O'Farrell,55,WILSHIRE CENTER - KOREATOWN NC,RAMPART,22721,453,507,16,8,89
1-411016571,12/31/2016 04:20:00 PM,12/31/2016 04:40:00 PM,SR Created,BOS,Bulky Items,Closed,Call,,Y,EV,01/06/2017 12:00:00 AM,12/31/2016 04:40:00 PM,Y,N,"14648 W SYLVAN ST, 91411",14648,W,SYLVAN,ST,91411,34.1844746,-118.4525737,"(34.1844745981, -118.452573682)",531,J,7,South Valley APC,6,Nury Martinez,20,VAN NUYS NC,VAN NUYS,19735,240,1339,,3,18
1-411013261,12/31/2016 04:16:00 PM,01/10/2017 02:05:00 PM,SR Created,BOS,Bulky Items,Closed,Call,,N,EV,01/10/2017 12:00:00 AM,01/10/2017 02:05:00 PM,Y,N,"5329 N VANTAGE AVE, 91607",5329,N,VANTAGE,AVE,91607,34.16765379,-118.3983251,"(34.167653789, -118.398325056)",562,G,2,South Valley APC,2,Paul Krekorian,25,NC VALLEY VILLAGE,NORTH HOLLYWOOD,8890,205,637,17,5,39
1-411014961,12/31/2016 04:14:00 PM,12/31/2016 04:15:00 PM,SR Created,BOS,Bulky Items,Closed,Call,,Y,EV,01/06/2017 12:00:00 AM,12/31/2016 04:15:00 PM,Y,N,"14655 W SYLVAN ST, 91411",14655,W,SYLVAN,ST,91411,34.18481219,-118.4528014,"(34.1848121943, -118.452801359)",531,J,7,South Valley APC,6,Nury Martinez,20,VAN NUYS NC,VAN NUYS,19735,240,1339,,3,18
1-411014091,12/31/2016 04:14:00 PM,01/03/2017 10:14:00 AM,SR Created,BOS,Bulky Items,Closed,Call,,N,WV,01/03/2017 12:00:00 AM,01/03/2017 10:14:00 AM,Y,N,"8817 N DARBY AVE, 91325",8817,N,DARBY,AVE,91325,34.23127803,-118.5337518,"(34.2312780258, -118.533751844)",530,J,1,North Valley APC,12,Mitchell Englander,124,NORTHRIDGE SOUTH NC,DEVONSHIRE,18514,108,1539,,2,65
1-411014021,12/31/2016 04:14:00 PM,01/04/2017 08:14:00 AM,SR Created,BOS,Bulky Items,Closed,Call,,N,NC,01/04/2017 12:00:00 AM,01/04/2017 08:14:00 AM,Y,N,"6212 E HILLANDALE DR, 90042",6212,E,HILLANDALE,DR,90042,34.12656109,-118.1837604,"(34.126561091, -118.183760422)",565,D,7,East Los Angeles APC,14,Jose Huizar,41,HISTORIC HIGHLAND PARK NC,NORTHEAST,23673,359,437,,9,93
1-411013881,12/31/2016 04:11:00 PM,01/05/2017 10:24:00 AM,SR Created,BOS,Bulky Items,Closed,Self Service,,N,NC,01/05/2017 12:00:00 AM,01/05/2017 10:24:00 AM,Y,N,"1818 W SANTA YNEZ ST, 90026",1818,W,SANTA YNEZ,ST,90026,34.07430983,-118.2624612,"(34.0743098254, -118.262461204)",634,D,1,East Los Angeles APC,13,Mitch O'Farrell,44,GREATER ECHO PARK ELYSIAN NC,RAMPART,23444,471,635,,8,31
1-411015601,12/31/2016 04:09:00 PM,12/31/2016 04:16:00 PM,SR Created,BOS,Bulky Items,Closed,Call,,Y,EV,01/06/2017 12:00:00 AM,12/31/2016 04:16:00 PM,Y,N,"14733 W SYLVAN ST, 91411",14733,W,SYLVAN,ST,91411,34.18480915,-118.4542728,"(34.1848091531, -118.454272828)",531,J,7,South Valley APC,6,Nury Martinez,20,VAN NUYS NC,VAN NUYS,19735,239,1339,,3,18
1-411010481,12/31/2016 04:07:00 PM,12/31/2016 04:16:00 PM,SR Created,BOS,Bulky Items,Closed,Call,,Y,EV,01/06/2017 12:00:00 AM,12/31/2016 04:16:00 PM,Y,N,"14822 W SYLVAN ST, 91411",14822,W,SYLVAN,ST,91411,34.18446327,-118.4562586,"(34.1844632697, -118.45625861)",531,J,7,South Valley APC,6,Nury Martinez,20,VAN NUYS NC,VAN NUYS,19735,239,1339,,3,18
1-411014591,12/31/2016 04:03:00 PM,12/31/2016 04:17:00 PM,SR Created,BOS,Bulky Items,Closed,Call,,Y,EV,01/06/2017 12:00:00 AM,12/31/2016 04:17:00 PM,Y,N,"14839 W SYLVAN ST, 91411",14839,W,SYLVAN,ST,91411,34.18480259,-118.4567426,"(34.1848025923, -118.456742604)",531,J,7,South Valley APC,6,Nury Martinez,20,VAN NUYS NC,VAN NUYS,19735,239,1339,,3,18
1-411014511,12/31/2016 04:02:00 PM,12/31/2016 04:17:00 PM,SR Created,BOS,Bulky Items,Closed,Call,,Y,EV,01/06/2017 12:00:00 AM,12/31/2016 04:17:00 PM,Y,N,"14839 W SYLVAN ST, 91411",14839,W,SYLVAN,ST,91411,34.18480259,-118.4567426,"(34.1848025923, -118.456742604)",531,J,7,South Valley APC,6,Nury Martinez,20,VAN NUYS NC,VAN NUYS,19735,239,1339,,3,18
1-411011624,12/31/2016 03:58:00 PM,01/07/2017 11:39:00 AM,SR Created,BOS,Bulky Items,Closed,Mobile App,Android,N,NC,01/07/2017 12:00:00 AM,01/07/2017 11:39:00 AM,Y,,"1351 N ORANGE DR, 90028",1351,N,ORANGE,DR,90028,34.09572009,-118.3417353,"(34.0957200889, -118.341735298)",593,D,5,Central APC,4,David Ryu,32,CENTRAL HOLLYWOOD NC,HOLLYWOOD,23446,414,974,,7,34
1-411000401,12/31/2016 03:51:00 PM,01/04/2017 02:43:00 PM,SR Created,BOS,Bulky Items,Closed,Call,,N,WLA,01/04/2017 12:00:00 AM,01/04/2017 02:43:00 PM,Y,N,"633 S BARRINGTON AVE, 90049",633,S,BARRINGTON,AVE,90049,34.05640025,-118.468055,"(34.0564002504, -118.468055007)",631,H,3,West Los Angeles APC,11,Mike Bonin,,,WEST LOS ANGELES,23680,841,755,9,10,
1-411001411,12/31/2016 03:50:00 PM,01/04/2017 11:43:00 AM,SR Created,BOS,Bulky Items,Closed,Call,,N,WV,01/04/2017 12:00:00 AM,01/04/2017 11:43:00 AM,Y,N,"8463 S DE SOTO AVE, 91304",8463,S,DE SOTO,AVE,91304,34.22402314,-118.5889044,"(34.2240231369, -118.588904449)",530,C,2,North Valley APC,3,Bob Blumenfield,13,CANOGA PARK NC,TOPANGA,4279,94,1457,,4,37
1-410999401,12/31/2016 03:45:00 PM,01/04/2017 09:51:00 AM,SR Created,BOS,Bulky Items,Closed,Call,,Y,WV,01/04/2017 12:00:00 AM,01/04/2017 09:51:00 AM,Y,N,"10030 N OWENSMOUTH AVE, 91311",10030,N,OWENSMOUTH,AVE,91311,34.25284258,-118.6015787,"(34.2528425781, -118.601578729)",500,A,5,North Valley APC,12,Mitchell Englander,99,CHATSWORTH NC,DEVONSHIRE,4284,90,231,,2,43
1-411000141,12/31/2016 03:45:00 PM,01/03/2017 11:51:00 AM,SR Created,BOS,Bulky Items,Closed,Call,,Y,WV,01/03/2017 12:00:00 AM,01/03/2017 11:51:00 AM,Y,N,"6849 N BECKFORD AVE, 91335",6849,N,BECKFORD,AVE,91335,34.19523555,-118.551592,"(34.1952355503, -118.551591985)",530,G,6,South Valley APC,3,Bob Blumenfield,15,RESEDA NC,WEST VALLEY,18909,265,310,,4,12
1-411000021,12/31/2016 03:43:00 PM,01/04/2017 08:55:00 AM,SR Created,BOS,Bulky Items,Closed,Self Service,,Y,NC,01/04/2017 12:00:00 AM,01/04/2017 08:55:00 AM,Y,N,"1505 W COLORADO BLVD, 90041",1505,W,COLORADO,BLVD,90041,34.13942508,-118.1984705,"(34.1394250819, -118.198470513)",565,C,5,East Los Angeles APC,14,Jose Huizar,40,EAGLE ROCK NC,NORTHEAST,23672,354,1438,30,9,60
1-410999201,12/31/2016 03:41:00 PM,01/03/2017 09:44:00 AM,SR Created,BOS,Bulky Items,Closed,Call,,N,WV,01/03/2017 12:00:00 AM,01/03/2017 09:44:00 AM,Y,N,"8039 N RESEDA BLVD, 91335",8039,N,RESEDA,BLVD,91335,34.21655505,-118.5363219,"(34.2165550505, -118.536321934)",530,J,3,South Valley APC,12,Mitchell Englander,15,RESEDA NC,WEST VALLEY,18909,249,274,,2,12
1-411002541,12/31/2016 03:39:00 PM,01/07/2017 09:57:00 AM,SR Created,BOS,Bulky Items,Closed,Call,,Y,NC,01/07/2017 12:00:00 AM,01/07/2017 09:57:00 AM,Y,N,"2005 N ARGYLE AVE, 90068",2005,N,ARGYLE,AVE,90068,34.10716656,-118.3254844,"(34.1071665617, -118.325484416)",593,F,3,Central APC,4,David Ryu,30,HOLLYWOOD UNITED NC,HOLLYWOOD,24033,405,371,,7,64
1-410999831,12/31/2016 03:38:00 PM,01/06/2017 01:00:00 PM,SR Created,BOS,Bulky Items,Closed,Mobile App,Android,N,WV,01/06/2017 12:00:00 AM,01/06/2017 01:00:00 PM,Y,,"20452 W CALIFA ST, 91367",20452,W,CALIFA,ST,91367,34.17623728,-118.5792834,"(34.1762372836, -118.579283404)",560,D,1,South Valley APC,3,Bob Blumenfield,16,WOODLAND HILLS-WARNER CENTER NC,TOPANGA,19347,305,1556,,4,49
1-411000891,12/31/2016 03:37:00 PM,01/03/2017 02:10:00 PM,SR Created,BOS,Bulky Items,Closed,Call,,N,EV,01/03/2017 12:00:00 AM,01/03/2017 02:10:00 PM,Y,N,"11300 W FOOTHILL BLVD, 91342",11300,W,FOOTHILL,BLVD,91342,34.27557638,-118.3767817,"(34.275576381, -118.376781747)",502,J,1,North Valley APC,7,Vacant,9,FOOTHILL TRAILS DISTRICT NC,FOOTHILL,18912,19,1087,8,1,9
1-410998271,12/31/2016 03:36:00 PM,12/31/2016 03:37:00 PM,SR Created,BOS,Bulky Items,Closed,Call,,Y,WLA,01/07/2017 12:00:00 AM,12/31/2016 03:37:00 PM,Y,N,"3607 S MOTOR AVE, 90034",3607,S,MOTOR,AVE,90034,34.0246471,-118.4074245,"(34.0246470976, -118.407424516)",672,F,1,West Los Angeles APC,5,Paul Koretz,115,PALMS NC,PACIFIC,23451,880,786,9,6,74
1-411000671,12/31/2016 03:35:00 PM,01/07/2017 09:27:00 AM,SR Created,BOS,Bulky Items,Closed,Call,,Y,NC,01/07/2017 12:00:00 AM,01/07/2017 09:27:00 AM,Y,N,"2005 N ARGYLE AVE, 90068",2005,N,ARGYLE,AVE,90068,34.10716656,-118.3254844,"(34.1071665617, -118.325484416)",593,F,3,Central APC,4,David Ryu,30,HOLLYWOOD UNITED NC,HOLLYWOOD,24033,405,371,,7,64
1-410998201,12/31/2016 03:35:00 PM,01/05/2017 08:37:00 AM,SR Created,BOS,Bulky Items,Closed,Self Service,,Y,EV,01/05/2017 12:00:00 AM,01/05/2017 08:37:00 AM,Y,N,"11220 W MOORPARK ST, 91602",11220,W,MOORPARK,ST,91602,34.15021816,-118.3753459,"(34.1502181573, -118.375345921)",562,J,4,South Valley APC,2,Paul Krekorian,27,STUDIO CITY NC,NORTH HOLLYWOOD,8489,343,1335,,5,84
1-411000531,12/31/2016 03:33:00 PM,01/03/2017 10:25:00 AM,SR Created,BOS,Bulky Items,Closed,Self Service,,N,WLA,01/03/2017 12:00:00 AM,01/03/2017 10:25:00 AM,Y,N,"12110 W JUNIETTE ST, 90230",12110,W,JUNIETTE,ST,90230,33.98285771,-118.4080799,"(33.9828577068, -118.408079889)",672,F,7,West Los Angeles APC,11,Mike Bonin,70,DEL REY NC,PACIFIC,24678,924,1139,10,10,85
1-410991391,12/31/2016 03:31:00 PM,01/04/2017 09:52:00 AM,SR Created,BOS,Bulky Items,Closed,Self Service,,Y,WV,01/04/2017 12:00:00 AM,01/04/2017 09:52:00 AM,Y,N,"10234 N JORDAN AVE, 91311",10234,N,JORDAN,AVE,91311,34.25651656,-118.6037532,"(34.2565165641, -118.603753219)",500,A,4,North Valley APC,12,Mitchell Englander,99,CHATSWORTH NC,DEVONSHIRE,4284,90,231,,2,43
1-410991311,12/31/2016 03:31:00 PM,01/05/2017 09:22:00 AM,SR Created,BOS,Bulky Items,Closed,Self Service,,N,EV,01/05/2017 12:00:00 AM,01/05/2017 09:22:00 AM,Y,N,"4845 N WHITSETT AVE, 91607",4845,N,WHITSETT,AVE,91607,34.15893848,-118.4054446,"(34.1589384759, -118.405444559)",562,F,3,South Valley APC,2,Paul Krekorian,25,NC VALLEY VILLAGE,NORTH HOLLYWOOD,8890,191,636,17,5,39
1-410998721,12/31/2016 03:30:00 PM,01/03/2017 12:55:00 PM,SR Created,BOS,Bulky Items,Closed,Self Service,,N,WLA,01/03/2017 12:00:00 AM,01/03/2017 12:55:00 PM,Y,N,"7848 W 80TH ST, 90293",7848,W,80TH,ST,90293,33.96234752,-118.4340889,"(33.9623475236, -118.43408885)",702,C,2,West Los Angeles APC,11,Mike Bonin,71,NC WESTCHESTER/PLAYA,PACIFIC,25075,929,1142,10,10,16
1-410997881,12/31/2016 03:28:00 PM,01/07/2017 02:34:00 PM,SR Created,BOS,Bulky Items,Closed,Self Service,,N,HB,01/07/2017 12:00:00 AM,01/07/2017 02:34:00 PM,Y,N,"752 W 4TH ST, 90731",752,W,4TH,ST,90731,33.74068896,-118.2934222,"(33.7406889583, -118.29342216)",824,B,5,Harbor APC,15,Joe Buscaino,95,CENTRAL SAN PEDRO NC,HARBOR,3342,975,1205,,15,36
1-410988331,12/31/2016 03:22:00 PM,01/03/2017 08:08:00 AM,SR Created,BOS,Bulky Items,Closed,Call,,N,SLA,01/03/2017 12:00:00 AM,01/03/2017 08:08:00 AM,Y,N,"2612 S CATALINA ST, 90007",2612,S,CATALINA,ST,90007,34.03231939,-118.2941587,"(34.0323193852, -118.294158659)",634,A,6,South Los Angeles APC,8,Marqueece Harris-Dawson,77,EMPOWERMENT CONGRESS NORTH AREA NDC,SOUTHWEST,22724,683,651,7,14,32
1-410990751,12/31/2016 03:21:00 PM,01/06/2017 08:46:00 AM,SR Created,BOS,Bulky Items,Closed,Self Service,,N,WV,01/06/2017 12:00:00 AM,01/06/2017 08:46:00 AM,Y,N,"5966 N ALONZO AVE, 91316",5966,N,ALONZO,AVE,91316,34.17947204,-118.5220108,"(34.1794720365, -118.522010792)",561,A,1,South Valley APC,5,Paul Koretz,18,ENCINO NC,WEST VALLEY,4286,316,339,,6,62
1-410987274,12/31/2016 03:15:00 PM,01/03/2017 01:35:00 PM,SR Created,BOS,Bulky Items,Closed,Mobile App,iOS,N,WLA,01/03/2017 12:00:00 AM,01/03/2017 01:35:00 PM,Y,,"12103 W PACIFIC AVE, 90066",12103,W,PACIFIC,AVE,90066,34.00472047,-118.4293452,"(34.0047204735, -118.429345226)",672,C,4,West Los Angeles APC,11,Mike Bonin,67,MAR VISTA CC,PACIFIC,24031,904,700,10,10,27
1-410987311,12/31/2016 03:14:00 PM,12/31/2016 03:15:00 PM,SR Created,BOS,Bulky Items,Closed,Call,,Y,WLA,01/07/2017 12:00:00 AM,12/31/2016 03:15:00 PM,Y,N,"3740 S JASMINE AVE, 90034",3740,S,JASMINE,AVE,90034,34.02271272,-118.4025689,"(34.0227127236, -118.402568946)",672,F,1,West Los Angeles APC,5,Paul Koretz,115,PALMS NC,PACIFIC,23451,882,981,9,6,74
1-410985471,12/31/2016 03:13:00 PM,01/04/2017 01:35:00 PM,SR Created,BOS,Bulky Items,Closed,Call,,Y,EV,01/04/2017 12:00:00 AM,01/04/2017 01:35:00 PM,Y,N,"6827 N LAUREL CANYON BLVD, 91605",6827,N,LAUREL CANYON,BLVD,91605,34.19445644,-118.3966711,"(34.1944564355, -118.396671118)",532,G,5,South Valley APC,2,Paul Krekorian,23,NORTH HOLLYWOOD NORTHEAST NC,NORTH HOLLYWOOD,8888,178,495,,5,14
1-410985321,12/31/2016 03:12:00 PM,01/04/2017 08:36:00 AM,SR Created,BOS,Bulky Items,Closed,Call,,Y,EV,01/04/2017 12:00:00 AM,01/04/2017 08:36:00 AM,Y,N,"6827 N LAUREL CANYON BLVD, 91605",6827,N,LAUREL CANYON,BLVD,91605,34.19482477,-118.3967553,"(34.1948247728, -118.396755266)",532,G,5,South Valley APC,2,Paul Krekorian,23,NORTH HOLLYWOOD NORTHEAST NC,NORTH HOLLYWOOD,8888,178,495,,5,14
1-410987521,12/31/2016 03:11:00 PM,01/07/2017 01:32:00 PM,SR Created,BOS,Bulky Items,Closed,Call,,N,WLA,01/07/2017 12:00:00 AM,01/07/2017 01:32:00 PM,Y,N,"3524 S MILITARY AVE, 90034",3524,S,MILITARY,AVE,90034,34.02005547,-118.4185496,"(34.0200554652, -118.418549556)",672,E,1,West Los Angeles APC,5,Paul Koretz,67,MAR VISTA CC,PACIFIC,23451,896,1239,9,6,27
1-410984431,12/31/2016 03:09:00 PM,01/09/2017 12:19:00 PM,SR Created,BOS,Bulky Items,Closed,Self Service,,N,NC,01/09/2017 12:00:00 AM,01/09/2017 12:19:00 PM,Y,N,"1149 N MANZANITA ST, 90029",1149,N,MANZANITA,ST,90029,34.09447695,-118.2804552,"(34.0944769479, -118.280455231)",594,B,5,East Los Angeles APC,13,Mitch O'Farrell,38,SILVER LAKE NC,NORTHEAST,23447,467,620,,8,90
1-410983125,12/31/2016 03:09:00 PM,01/06/2017 09:57:00 AM,SR Created,BOS,Bulky Items,Closed,Mobile App,iOS,N,NC,01/06/2017 12:00:00 AM,01/06/2017 09:57:00 AM,Y,,"4400 W BURNS AVE, 90029",4400,W,BURNS,AVE,90029,34.08755483,-118.2895231,"(34.087554832, -118.289523095)",594,A,6,Central APC,13,Mitch O'Farrell,34,EAST HOLLYWOOD NC,RAMPART,23447,435,631,16,8,58
1-410984281,12/31/2016 03:08:00 PM,12/31/2016 04:01:00 PM,SR Created,BOS,Bulky Items,Closed,Driver Self Report,,Y,NC,01/06/2017 12:00:00 AM,12/31/2016 04:01:00 PM,Y,N,"125 S ALEXANDRIA AVE, 90004",125,S,ALEXANDRIA,AVE,90004,34.07192466,-118.2985833,"(34.0719246612, -118.298583327)",633,J,1,Central APC,13,Mitch O'Farrell,55,WILSHIRE CENTER - KOREATOWN NC,OLYMPIC,22721,583,937,,8,89
1-410983011,12/31/2016 03:05:00 PM,01/03/2017 12:37:00 PM,SR Created,BOS,Bulky Items,Closed,Call,,Y,NC,01/03/2017 12:00:00 AM,01/03/2017 12:37:00 PM,Y,N,"4944 E GAMBIER ST, 90032",4944,E,GAMBIER,ST,90032,34.08094348,-118.1753638,"(34.0809434815, -118.175363783)",595,E,7,East Los Angeles APC,14,Jose Huizar,48,LA-32 NC,HOLLENBECK,23449,504,775,,9,91
1-410981841,12/31/2016 03:04:00 PM,12/31/2016 04:01:00 PM,SR Created,BOS,Bulky Items,Closed,Driver Self Report,,Y,NC,01/05/2017 12:00:00 AM,12/31/2016 04:01:00 PM,Y,N,"1275 W INNES AVE, 90026",1275,W,INNES,AVE,90026,34.07144526,-118.2500572,"(34.0714452646, -118.250057151)",634,F,1,East Los Angeles APC,1,Gilbert Cedillo,44,GREATER ECHO PARK ELYSIAN NC,CENTRAL,23444,484,1010,,11,31
1-410983651,12/31/2016 03:03:00 PM,12/31/2016 03:07:00 PM,SR Created,BOS,Bulky Items,Closed,Call,,Y,WLA,01/07/2017 12:00:00 AM,12/31/2016 03:07:00 PM,Y,N,"3753 S CLARINGTON AVE, 90034",3753,S,CLARINGTON,AVE,90034,34.02347061,-118.4012395,"(34.0234706149, -118.401239547)",672,G,1,West Los Angeles APC,5,Paul Koretz,115,PALMS NC,PACIFIC,23451,882,981,9,6,74
1-410980171,12/31/2016 03:01:00 PM,01/03/2017 12:01:00 PM,SR Created,BOS,Bulky Items,Closed,Call,,N,NC,01/03/2017 12:00:00 AM,01/03/2017 12:01:00 PM,Y,N,"4338 N MAYCREST AVE, 90032",4338,N,MAYCREST,AVE,90032,34.09523699,-118.1612092,"(34.095236986, -118.161209195)",595,G,5,East Los Angeles APC,14,Jose Huizar,48,LA-32 NC,HOLLENBECK,23449,496,514,,9,91
1-410982631,12/31/2016 03:01:00 PM,12/31/2016 04:01:00 PM,SR Created,BOS,Bulky Items,Closed,Driver Self Report,,Y,NC,01/05/2017 12:00:00 AM,12/31/2016 04:01:00 PM,Y,N,"1025 N MARVIEW AVE, 90012",1025,N,MARVIEW,AVE,90012,34.07053795,-118.2473232,"(34.0705379546, -118.247323203)",634,F,1,East Los Angeles APC,1,Gilbert Cedillo,46,HISTORIC CULTURAL NC,CENTRAL,23444,484,1010,,11,28
1-410978251,12/31/2016 02:59:00 PM,01/03/2017 08:55:00 AM,SR Created,BOS,Bulky Items,Closed,Self Service,,Y,EV,01/03/2017 12:00:00 AM,01/03/2017 08:55:00 AM,Y,N,"14152 W FOOTHILL BLVD, 91342",14152,W,FOOTHILL,BLVD,91342,34.31623926,-118.4421305,"(34.316239261, -118.442130544)",482,A,3,North Valley APC,7,Vacant,5,SYLMAR NC,MISSION,18912,44,1529,,1,47
1-410976281,12/31/2016 02:58:00 PM,12/31/2016 04:01:00 PM,SR Created,BOS,Bulky Items,Closed,Driver Self Report,,Y,NC,01/05/2017 12:00:00 AM,12/31/2016 04:01:00 PM,Y,N,"930 N MARVIEW AVE, 90012",930,N,MARVIEW,AVE,90012,34.0681883,-118.248337,"(34.0681882968, -118.248336995)",634,F,1,Central APC,1,Gilbert Cedillo,46,HISTORIC CULTURAL NC,CENTRAL,22728,484,1368,,11,28
1-410978001,12/31/2016 02:57:00 PM,01/03/2017 07:21:00 AM,SR Created,BOS,Bulky Items,Closed,Call,,N,SLA,01/03/2017 12:00:00 AM,01/03/2017 07:21:00 AM,Y,N,"1515 S HIGHLAND AVE, 90019",1515,S,HIGHLAND,AVE,90019,34.04657291,-118.3441535,"(34.0465729145, -118.344153522)",633,D,5,Central APC,10,Herb J. Wesson Jr.,73,MID CITY NC,WILSHIRE,23080,647,1352,,12,
1-410976161,12/31/2016 02:57:00 PM,01/03/2017 02:04:00 PM,SR Created,BOS,Bulky Items,Closed,Call,,Y,EV,01/03/2017 12:00:00 AM,01/03/2017 02:04:00 PM,Y,N,"14235 W BERG ST, 91342",14235,W,BERG,ST,91342,34.30613377,-118.4434612,"(34.306133769, -118.443461179)",482,A,4,North Valley APC,7,Vacant,5,SYLMAR NC,MISSION,18912,43,1401,,1,47
1-410979691,12/31/2016 02:56:00 PM,12/31/2016 04:01:00 PM,SR Created,BOS,Bulky Items,Closed,Driver Self Report,,Y,NC,01/05/2017 12:00:00 AM,12/31/2016 04:01:00 PM,Y,N,"956 N EVERETT ST, 90026",956,N,EVERETT,ST,90026,34.06880264,-118.2489673,"(34.0688026357, -118.248967327)",634,F,1,East Los Angeles APC,1,Gilbert Cedillo,46,HISTORIC CULTURAL NC,CENTRAL,23444,484,1010,,11,28
1-410975951,12/31/2016 02:54:00 PM,01/03/2017 09:53:00 AM,SR Created,BOS,Bulky Items,Closed,Call,,N,SLA,01/03/2017 12:00:00 AM,01/03/2017 09:53:00 AM,Y,N,"1537 S 6TH AVE, 90019",1537,S,6TH,AVE,90019,34.04425657,-118.3238768,"(34.044256569, -118.323876819)",633,F,5,South Los Angeles APC,10,Herb J. Wesson Jr.,74,"UNITED NEIGHBORHOODS OF THE HISTORIC ARLINGTON HEIGHTS, WEST ADAMS, AND JEFFERSON PARK COMMUNITY",WILSHIRE,23080,648,899,,12,19
1-410976031,12/31/2016 02:54:00 PM,01/03/2017 01:47:00 PM,SR Created,BOS,Bulky Items,Closed,Call,,N,EV,01/03/2017 12:00:00 AM,01/03/2017 01:47:00 PM,Y,N,"10536 N HILLHAVEN AVE, 91042",10536,N,HILLHAVEN,AVE,91042,34.26045823,-118.2900513,"(34.2604582318, -118.290051322)",504,A,3,North Valley APC,7,Vacant,10,SUNLAND-TUJUNGA NC,FOOTHILL,3222,1,533,,1,7
1-410975381,12/31/2016 02:53:00 PM,12/31/2016 04:01:00 PM,SR Created,BOS,Bulky Items,Closed,Driver Self Report,,Y,NC,01/05/2017 12:00:00 AM,12/31/2016 04:01:00 PM,Y,N,"967 N FIGUEROA TER, 90012",967,N,FIGUEROA,TER,90012,34.06797177,-118.2441297,"(34.0679717701, -118.244129664)",634,G,1,Central APC,1,Gilbert Cedillo,46,HISTORIC CULTURAL NC,CENTRAL,22728,484,1368,,11,28
1-410969453,12/31/2016 02:52:00 PM,01/03/2017 07:42:00 AM,SR Created,BOS,Bulky Items,Closed,Mobile App,Android,Y,NC,01/03/2017 12:00:00 AM,01/03/2017 07:42:00 AM,Y,,"2218 N PARKSIDE AVE, 90031",2218,N,PARKSIDE,AVE,90031,34.0709528,-118.2000192,"(34.0709528048, -118.200019207)",635,C,1,East Los Angeles APC,1,Gilbert Cedillo,47,LINCOLN HEIGHTS NC,HOLLENBECK,23448,487,337,,11,1
1-410976911,12/31/2016 02:52:00 PM,01/03/2017 02:13:00 PM,SR Created,BOS,Bulky Items,Closed,Call,,N,EV,01/03/2017 12:00:00 AM,01/03/2017 02:13:00 PM,Y,N,"8002 W ELLENBOGEN ST, 91040",8002,W,ELLENBOGEN,ST,91040,34.27115735,-118.3073523,"(34.2711573541, -118.307352306)",503,H,2,North Valley APC,7,Vacant,10,SUNLAND-TUJUNGA NC,FOOTHILL,3221,11,529,,1,7
1-410976791,12/31/2016 02:50:00 PM,12/31/2016 04:01:00 PM,SR Created,BOS,Bulky Items,Closed,Driver Self Report,,Y,NC,01/05/2017 12:00:00 AM,12/31/2016 04:01:00 PM,Y,N,"905 N FIGUEROA TER, 90012",905,N,FIGUEROA,TER,90012,34.06642139,-118.2440053,"(34.066421391, -118.244005263)",634,G,2,Central APC,1,Gilbert Cedillo,46,HISTORIC CULTURAL NC,CENTRAL,22728,484,1368,,11,28
1-410974951,12/31/2016 02:49:00 PM,01/03/2017 12:39:00 PM,SR Created,BOS,Bulky Items,Closed,Call,,N,NC,01/03/2017 12:00:00 AM,01/03/2017 12:39:00 PM,Y,N,"2522 E ALCAZAR ST, 90033",2522,E,ALCAZAR,ST,90033,34.06141405,-118.1962482,"(34.0614140547, -118.196248231)",635,C,2,East Los Angeles APC,14,Jose Huizar,,,HOLLENBECK,23450,508,335,,9,
1-410969051,12/31/2016 02:48:00 PM,01/03/2017 09:32:00 AM,SR Created,BOS,Bulky Items,Closed,Call,,N,NC,01/03/2017 12:00:00 AM,01/03/2017 09:32:00 AM,Y,N,"2522 E ALCAZAR ST, 90033",2522,E,ALCAZAR,ST,90033,34.06141405,-118.1962482,"(34.0614140547, -118.196248231)",635,C,2,East Los Angeles APC,14,Jose Huizar,,,HOLLENBECK,23450,508,335,,9,
1-410974641,12/31/2016 02:47:00 PM,01/03/2017 09:25:00 AM,SR Created,BOS,Bulky Items,Closed,Call,,N,SLA,01/03/2017 12:00:00 AM,01/03/2017 09:25:00 AM,Y,N,"3754 W LOCKLAND DR, 90008",3754,W,LOCKLAND,DR,90008,34.00791802,-118.3400334,"(34.0079180235, -118.340033372)",673,E,3,South Los Angeles APC,8,Marqueece Harris-Dawson,79,EMPOWERMENT CONGRESS WEST AREA NDC,SOUTHWEST,22725,761,1025,7,14,54
1-410968591,12/31/2016 02:42:00 PM,12/31/2016 04:01:00 PM,SR Created,BOS,Bulky Items,Closed,Driver Self Report,,Y,NC,01/05/2017 12:00:00 AM,12/31/2016 04:01:00 PM,Y,N,"820 N CENTENNIAL ST, 90012",820,N,CENTENNIAL,ST,90012,34.06563428,-118.2464254,"(34.0656342839, -118.246425414)",634,F,2,Central APC,1,Gilbert Cedillo,46,HISTORIC CULTURAL NC,CENTRAL,22728,484,1368,,11,28
1-410966602,12/31/2016 02:39:00 PM,01/04/2017 11:16:00 AM,SR Created,BOS,Bulky Items,Closed,Mobile App,iOS,N,NC,01/04/2017 12:00:00 AM,01/04/2017 11:16:00 AM,Y,,"3249 N ANDRITA ST, 90065",3249,N,ANDRITA,ST,90065,34.1186071,-118.2429701,"(34.1186070962, -118.242970052)",594,G,1,East Los Angeles APC,13,Mitch O'Farrell,39,GLASSELL PARK NC,NORTHEAST,24030,388,476,,8,56
1-410963981,12/31/2016 02:36:00 PM,01/06/2017 01:32:00 PM,SR Created,BOS,Bulky Items,Closed,Call,,N,EV,01/06/2017 12:00:00 AM,01/06/2017 01:32:00 PM,Y,N,"8846 N DORRINGTON AVE, 91331",8846,N,DORRINGTON,AVE,91331,34.23065172,-118.4313171,"(34.2306517229, -118.431317134)",502,C,7,North Valley APC,6,Nury Martinez,6,ARLETA NC,MISSION,18907,139,453,,3,41
1-410962201,12/31/2016 02:35:00 PM,01/07/2017 02:35:00 PM,SR Created,BOS,Bulky Items,Closed,Call,,N,HB,01/07/2017 12:00:00 AM,01/07/2017 02:35:00 PM,Y,N,"956 W 11TH ST, 90731",956,W,11TH,ST,90731,33.73435628,-118.2980934,"(33.7343562807, -118.298093388)",824,A,6,Harbor APC,15,Joe Buscaino,95,CENTRAL SAN PEDRO NC,HARBOR,3342,977,1210,,15,36
1-410962061,12/31/2016 02:34:00 PM,01/07/2017 02:35:00 PM,SR Created,BOS,Bulky Items,Closed,Call,,N,HB,01/07/2017 12:00:00 AM,01/07/2017 02:35:00 PM,Y,N,"956 W 11TH ST, 90731",956,W,11TH,ST,90731,33.73435628,-118.2980934,"(33.7343562807, -118.298093388)",824,A,6,Harbor APC,15,Joe Buscaino,95,CENTRAL SAN PEDRO NC,HARBOR,3342,977,1210,,15,36
1-410961701,12/31/2016 02:33:00 PM,12/31/2016 04:01:00 PM,SR Created,BOS,Bulky Items,Closed,Driver Self Report,,Y,NC,01/05/2017 12:00:00 AM,12/31/2016 04:01:00 PM,Y,N,"821 N CENTENNIAL ST, 90012",821,N,CENTENNIAL,ST,90012,34.06578436,-118.2466228,"(34.0657843577, -118.246622821)",634,F,2,Central APC,1,Gilbert Cedillo,46,HISTORIC CULTURAL NC,CENTRAL,22728,484,1368,,11,28
1-410959928,12/31/2016 02:33:00 PM,01/06/2017 03:14:00 PM,SR Created,BOS,Bulky Items,Closed,Mobile App,Android,Y,HB,01/06/2017 12:00:00 AM,01/06/2017 03:14:00 PM,Y,,"1107 E O ST, 90744",1107,E,O,ST,90744,33.79253892,-118.2493174,"(33.7925389206, -118.249317394)",794,G,4,Harbor APC,15,Joe Buscaino,93,WILMINGTON NC,HARBOR,3350,953,626,,15,15
1-410952421,12/31/2016 02:27:00 PM,01/04/2017 09:19:00 AM,SR Created,BOS,Bulky Items,Closed,Call,,N,WV,01/04/2017 12:00:00 AM,01/04/2017 09:19:00 AM,Y,N,"20111 W LEADWELL ST, 91306",20111,W,LEADWELL,ST,91306,34.2035795,-118.571378,"(34.2035795013, -118.571377964)",530,E,4,South Valley APC,3,Bob Blumenfield,14,WINNETKA NC,TOPANGA,4282,290,281,,4,66
1-410953411,12/31/2016 02:26:00 PM,01/05/2017 03:01:00 PM,SR Created,BOS,Bulky Items,Closed,Call,,N,WLA,01/05/2017 12:00:00 AM,01/05/2017 03:01:00 PM,Y,N,"12012 W GOSHEN AVE, 90049",12012,W,GOSHEN,AVE,90049,34.04598604,-118.4668457,"(34.0459860386, -118.466845713)",631,H,5,West Los Angeles APC,11,Mike Bonin,,,WEST LOS ANGELES,23680,844,1383,9,10,
1-410952261,12/31/2016 02:25:00 PM,01/05/2017 12:00:00 PM,SR Created,BOS,Bulky Items,Closed,Call,,N,WLA,01/05/2017 12:00:00 AM,01/05/2017 12:00:00 PM,Y,N,"12012 W GOSHEN AVE, 90049",12012,W,GOSHEN,AVE,90049,34.04598604,-118.4668457,"(34.0459860386, -118.466845713)",631,H,5,West Los Angeles APC,11,Mike Bonin,,,WEST LOS ANGELES,23680,844,1383,9,10,
1-410955051,12/31/2016 02:21:00 PM,12/31/2016 02:24:00 PM,SR Created,BOS,Bulky Items,Closed,Call,,Y,WLA,01/07/2017 12:00:00 AM,12/31/2016 02:24:00 PM,Y,N,"3652 S CLARINGTON AVE, 90034",3652,S,CLARINGTON,AVE,90034,34.02581921,-118.4027756,"(34.0258192117, -118.4027756)",672,F,1,West Los Angeles APC,5,Paul Koretz,115,PALMS NC,PACIFIC,23451,883,1129,9,6,74
1-410952831,12/31/2016 02:17:00 PM,01/04/2017 12:23:00 PM,SR Created,BOS,Bulky Items,Closed,Call,,N,WLA,01/04/2017 12:00:00 AM,01/04/2017 12:23:00 PM,Y,N,"609 E CALIFORNIA AVE, 90291",609,E,CALIFORNIA,AVE,90291,33.99164471,-118.4655393,"(33.9916447114, -118.465539331)",671,H,5,West Los Angeles APC,11,Mike Bonin,68,VENICE NC,PACIFIC,25073,906,850,10,10,30
1-410953815,12/31/2016 02:17:00 PM,01/06/2017 09:28:00 AM,SR Created,BOS,Bulky Items,Closed,Mobile App,Android,Y,NC,01/06/2017 12:00:00 AM,01/06/2017 09:28:00 AM,Y,,"509 N BERENDO ST, 90004",509,N,BERENDO,ST,90004,34.07944144,-118.2942407,"(34.079441442, -118.29424074)",594,A,7,Central APC,13,Mitch O'Farrell,55,WILSHIRE CENTER - KOREATOWN NC,RAMPART,22721,453,933,16,8,89
1-410951621,12/31/2016 02:16:00 PM,01/19/2017 06:10:00 AM,SR Created,BOS,Bulky Items,Closed,Self Service,,N,WLA,01/05/2017 12:00:00 AM,01/19/2017 06:10:00 AM,Y,N,"PARK AVE AT OCEAN FRONT WALK, 90291",,,,,90291,33.9911353,-118.4776762,"(33.9911353042, -118.477676204)",671,G,6,West Los Angeles APC,11,Mike Bonin,68,VENICE NC,PACIFIC,25073,908,970,10,10,30
1-410944397,12/31/2016 02:14:00 PM,01/03/2017 01:38:00 PM,SR Created,BOS,Bulky Items,Closed,Mobile App,Android,Y,EV,01/03/2017 12:00:00 AM,01/03/2017 01:38:00 PM,Y,,"11670 W REMINGTON ST, 91342",11670,W,REMINGTON,ST,91342,34.28242122,-118.3867074,"(34.2824212156, -118.386707397)",482,H,7,North Valley APC,7,Vacant,9,FOOTHILL TRAILS DISTRICT NC,FOOTHILL,18912,16,1559,,1,9
1-410943181,12/31/2016 02:14:00 PM,12/31/2016 02:15:00 PM,SR Created,BOS,Bulky Items,Closed,Call,,Y,WLA,01/07/2017 12:00:00 AM,12/31/2016 02:15:00 PM,Y,N,"3729 S DUNN DR, 90034",3729,S,DUNN,DR,90034,34.02442476,-118.4010528,"(34.0244247645, -118.401052832)",672,G,1,West Los Angeles APC,5,Paul Koretz,115,PALMS NC,PACIFIC,23451,883,688,9,6,74
1-410949903,12/31/2016 02:13:00 PM,01/03/2017 02:07:00 PM,SR Created,BOS,Bulky Items,Closed,Mobile App,Android,Y,EV,01/03/2017 12:00:00 AM,01/03/2017 02:07:00 PM,Y,,"11682 W REMINGTON ST, 91342",11682,W,REMINGTON,ST,91342,34.28214142,-118.3870659,"(34.2821414187, -118.387065888)",482,H,7,North Valley APC,7,Vacant,9,FOOTHILL TRAILS DISTRICT NC,FOOTHILL,18912,16,1559,,1,9
1-410950096,12/31/2016 02:13:00 PM,01/06/2017 08:39:00 AM,SR Created,BOS,Bulky Items,Closed,Mobile App,iOS,N,SLA,01/06/2017 12:00:00 AM,01/06/2017 08:39:00 AM,Y,,"8955 S DENKER AVE, 90047",8955,S,DENKER,AVE,90047,33.95486724,-118.3048258,"(33.954867241, -118.304825803)",703,J,3,South Los Angeles APC,8,Marqueece Harris-Dawson,84,EMPOWERMENT CONGRESS SOUTHWEST AREA NDC,77TH STREET,23678,784,1167,7,14,20
1-410942841,12/31/2016 02:12:00 PM,01/05/2017 03:07:00 PM,SR Created,BOS,Bulky Items,Closed,Self Service,,N,WLA,01/05/2017 12:00:00 AM,01/05/2017 03:07:00 PM,Y,Y,"1825 S BUTLER AVE, 90025",1825,S,BUTLER,AVE,90025,34.04148145,-118.4487586,"(34.0414814457, -118.448758628)",632,A,6,West Los Angeles APC,11,Mike Bonin,66,WEST LOS ANGELES NC,WEST LOS ANGELES,23443,868,746,9,10,50
1-410945061,12/31/2016 02:10:00 PM,01/03/2017 10:24:00 AM,SR Created,BOS,Bulky Items,Closed,Call,,N,WLA,01/03/2017 12:00:00 AM,01/03/2017 10:24:00 AM,Y,N,"2100 S WALGROVE AVE, 90066",2100,S,WALGROVE,AVE,90066,34.00109621,-118.4491914,"(34.0010962109, -118.449191394)",672,A,4,West Los Angeles APC,11,Mike Bonin,67,MAR VISTA CC,PACIFIC,24031,900,855,10,10,27
1-410943731,12/31/2016 02:10:00 PM,01/06/2017 09:44:00 AM,SR Created,BOS,Bulky Items,Closed,Call,,N,NC,01/06/2017 12:00:00 AM,01/06/2017 09:44:00 AM,Y,N,"1610 N NORMANDIE AVE, 90027",1610,N,NORMANDIE,AVE,90027,34.10025149,-118.3001996,"(34.1002514934, -118.300199597)",593,J,4,Central APC,13,Mitch O'Farrell,34,EAST HOLLYWOOD NC,NORTHEAST,23445,430,574,16,8,58
1-410939686,12/31/2016 02:03:00 PM,01/07/2017 07:39:00 AM,SR Created,BOS,Bulky Items,Closed,Mobile App,iOS,N,WLA,01/07/2017 12:00:00 AM,01/07/2017 07:39:00 AM,Y,,"1617 S POINT VIEW ST, 90035",1617,S,POINT VIEW,ST,90035,34.04764049,-118.371326,"(34.0476404859, -118.37132597)",633,A,5,Central APC,10,Herb J. Wesson Jr.,60,P.I.C.O. NC,WILSHIRE,23666,641,1102,,12,23
1-410940735,12/31/2016 02:03:00 PM,01/03/2017 08:54:00 AM,SR Created,BOS,Bulky Items,Closed,Mobile App,iOS,N,WV,01/03/2017 12:00:00 AM,01/03/2017 08:54:00 AM,Y,,"18139 W ROSCOE BLVD, 91325",18139,W,ROSCOE,BLVD,91325,34.2209869,-118.5288999,"(34.2209869, -118.528899853)",531,A,2,North Valley APC,12,Mitchell Englander,124,NORTHRIDGE SOUTH NC,DEVONSHIRE,18514,112,590,,2,65
1-410937061,12/31/2016 02:00:00 PM,01/06/2017 12:44:00 PM,SR Created,BOS,Bulky Items,Closed,Call,,N,WLA,01/06/2017 12:00:00 AM,01/06/2017 12:44:00 PM,Y,N,"6314 W ORANGE ST, 90048",6314,W,ORANGE,ST,90048,34.06440522,-118.3657243,"(34.0644052235, -118.365724334)",633,B,2,Central APC,5,Paul Koretz,58,MID CITY WEST CC,WILSHIRE,23679,630,1098,,6,26
1-410936851,12/31/2016 01:59:00 PM,01/03/2017 10:14:00 AM,SR Created,BOS,Bulky Items,Closed,Call,,Y,WV,01/03/2017 12:00:00 AM,01/03/2017 10:14:00 AM,Y,N,"19249 W WOODMONT DR, 91326",19249,W,WOODMONT,DR,91326,34.28664577,-118.5527489,"(34.2866457721, -118.552748944)",480,G,7,North Valley APC,12,Mitchell Englander,114,PORTER RANCH NC,DEVONSHIRE,18905,62,1413,,2,48
1-410929121,12/31/2016 01:57:00 PM,01/13/2017 07:03:00 AM,SR Created,BOS,Bulky Items,Closed,Self Service,,N,WLA,01/10/2017 12:00:00 AM,01/13/2017 07:03:00 AM,Y,N,"APPLE ST AT HAUSER BLVD, 90016",,,,,90016,34.03427811,-118.3620888,"(34.0342781063, -118.3620888)",633,B,6,South Los Angeles APC,10,Herb J. Wesson Jr.,73,MID CITY NC,WILSHIRE,23077,653,1123,,12,69
1-410935471,12/31/2016 01:57:00 PM,01/03/2017 10:18:00 AM,SR Created,BOS,Bulky Items,Closed,Call,,Y,SLA,01/03/2017 12:00:00 AM,01/03/2017 10:18:00 AM,Y,N,"3626 S WEST BLVD, 90016",3626,S,WEST,BLVD,90016,34.02052761,-118.3411602,"(34.0205276129, -118.34116019)",673,D,1,South Los Angeles APC,10,Herb J. Wesson Jr.,75,WEST ADAMS NC,SOUTHWEST,23077,663,1007,7,12,17
1-410935151,12/31/2016 01:56:00 PM,12/31/2016 04:01:00 PM,SR Created,BOS,Bulky Items,Closed,Driver Self Report,,Y,NC,01/03/2017 12:00:00 AM,12/31/2016 04:01:00 PM,Y,N,"341 N INDIANA ST, 90063",341,N,INDIANA,ST,90063,34.03936709,-118.1926187,"(34.0393670876, -118.192618703)",635,C,5,East Los Angeles APC,14,Jose Huizar,50,BOYLE HEIGHTS NC,HOLLENBECK,24028,516,954,,9,38
1-410935231,12/31/2016 01:56:00 PM,01/07/2017 01:33:00 PM,SR Created,BOS,Bulky Items,Closed,Call,,Y,WLA,01/07/2017 12:00:00 AM,01/07/2017 01:33:00 PM,Y,N,"3700 S SEPULVEDA BLVD, 90034",3700,S,SEPULVEDA,BLVD,90034,34.01498222,-118.4186534,"(34.0149822158, -118.418653377)",672,E,2,West Los Angeles APC,5,Paul Koretz,115,PALMS NC,PACIFIC,23451,896,1239,9,6,74
1-410933901,12/31/2016 01:53:00 PM,12/31/2016 01:55:00 PM,SR Created,BOS,Bulky Items,Closed,Call,,Y,WLA,01/07/2017 12:00:00 AM,12/31/2016 01:55:00 PM,Y,N,"3719 S CLARINGTON AVE, 90034",3719,S,CLARINGTON,AVE,90034,34.02426067,-118.4018486,"(34.0242606676, -118.401848596)",672,G,1,West Los Angeles APC,5,Paul Koretz,115,PALMS NC,PACIFIC,23451,882,981,9,6,74
1-410925021,12/31/2016 01:48:00 PM,01/07/2017 01:54:00 PM,SR Created,BOS,Bulky Items,Closed,Call,,N,EV,01/07/2017 12:00:00 AM,01/07/2017 01:54:00 PM,Y,N,"10900 N SEPULVEDA BLVD, 91345",10900,N,SEPULVEDA,BLVD,91345,34.26806928,-118.4667724,"(34.268069283, -118.466772443)",501,H,2,North Valley APC,7,Vacant,101,MISSION HILLS NC,MISSION,19330,70,302,,1,4
1-410926741,12/31/2016 01:44:00 PM,01/05/2017 12:57:00 PM,SR Created,BOS,Bulky Items,Closed,Self Service,,N,NC,01/05/2017 12:00:00 AM,01/05/2017 12:57:00 PM,Y,N,"419 S COMMONWEALTH AVE, 90020",419,S,COMMONWEALTH,AVE,90020,34.06603579,-118.2858759,"(34.0660357861, -118.285875926)",634,B,2,Central APC,13,Mitch O'Farrell,53,RAMPART VILLAGE NC,OLYMPIC,23081,578,1317,,8,80
1-410918361,12/31/2016 01:43:00 PM,01/03/2017 10:03:00 AM,SR Created,BOS,Bulky Items,Closed,Call,,Y,NC,01/03/2017 12:00:00 AM,01/03/2017 10:03:00 AM,Y,N,"2740 E WABASH AVE, 90033",2740,E,WABASH,AVE,90033,34.05066894,-118.1989385,"(34.050668942, -118.198938486)",635,C,4,East Los Angeles APC,14,Jose Huizar,50,BOYLE HEIGHTS NC,HOLLENBECK,23450,513,944,,9,38
1-410918045,12/31/2016 01:41:00 PM,01/05/2017 09:41:00 AM,SR Created,BOS,Bulky Items,Closed,Mobile App,iOS,N,SLA,01/05/2017 12:00:00 AM,01/05/2017 09:41:00 AM,Y,,"358 E 56TH ST, 90011",358,E,56TH,ST,90011,33.99143722,-118.2681481,"(33.9914372185, -118.268148109)",674,D,5,South Los Angeles APC,9,Curren D. Price Jr.,125,ZAPATA KING NC,NEWTON,22727,725,895,7,13,
1-410917951,12/31/2016 01:40:00 PM,12/31/2016 01:41:00 PM,SR Created,BOS,Bulky Items,Closed,Call,,Y,WLA,01/07/2017 12:00:00 AM,12/31/2016 01:41:00 PM,Y,N,"3609 S DUNN DR, 90034",3609,S,DUNN,DR,90034,34.02693002,-118.4028411,"(34.0269300218, -118.402841062)",632,F,7,West Los Angeles APC,5,Paul Koretz,115,PALMS NC,PACIFIC,23451,883,1129,9,6,74
1-410919451,12/31/2016 01:38:00 PM,01/03/2017 02:24:00 PM,SR Created,BOS,Bulky Items,Closed,Call,,N,HB,01/03/2017 12:00:00 AM,01/03/2017 02:24:00 PM,Y,N,"1521 W 187TH PL, 90248",1521,W,187TH,PL,90248,33.86067154,-118.3035596,"(33.8606715388, -118.303559587)",763,J,2,Harbor APC,15,Joe Buscaino,91,HARBOR GATEWAY SOUTH NC,HARBOR,24685,943,798,,15,55
1-410920411,12/31/2016 01:37:00 PM,01/03/2017 02:15:00 PM,SR Created,BOS,Bulky Items,Closed,Call,,N,HB,01/03/2017 12:00:00 AM,01/03/2017 02:15:00 PM,Y,N,"1521 W 187TH PL, 90248",1521,W,187TH,PL,90248,33.86067154,-118.3035596,"(33.8606715388, -118.303559587)",763,J,2,Harbor APC,15,Joe Buscaino,91,HARBOR GATEWAY SOUTH NC,HARBOR,24685,943,798,,15,55
1-410919721,12/31/2016 01:34:00 PM,12/31/2016 04:01:00 PM,SR Created,BOS,Bulky Items,Closed,Driver Self Report,,Y,NC,01/03/2017 12:00:00 AM,12/31/2016 04:01:00 PM,Y,N,"4743 N BUTTERFLY LANE, 90032",4743,N,BUTTERFLY,LANE,90032,34.08154827,-118.1811528,"(34.0815482708, -118.181152773)",595,E,6,East Los Angeles APC,14,Jose Huizar,48,LA-32 NC,HOLLENBECK,23449,500,610,,9,91
1-410910460,12/31/2016 01:33:00 PM,01/06/2017 09:39:00 AM,SR Created,BOS,Bulky Items,Closed,Mobile App,Android,Y,WV,01/06/2017 12:00:00 AM,01/06/2017 09:39:00 AM,Y,,"18563 W CLARK ST, 91356",18563,W,CLARK,ST,91356,34.17099858,-118.5379918,"(34.170998576, -118.537991789)",560,J,2,South Valley APC,3,Bob Blumenfield,17,TARZANA NC,WEST VALLEY,19339,320,1496,,4,10
1-410910131,12/31/2016 01:31:00 PM,12/31/2016 01:33:00 PM,SR Created,BOS,Bulky Items,Closed,Call,,Y,WLA,01/07/2017 12:00:00 AM,12/31/2016 01:33:00 PM,Y,N,"3717 S CLARINGTON AVE, 90034",3717,S,CLARINGTON,AVE,90034,34.02430714,-118.4018844,"(34.0243071412, -118.401884422)",672,G,1,West Los Angeles APC,5,Paul Koretz,115,PALMS NC,PACIFIC,23451,882,981,9,6,74
1-410911461,12/31/2016 01:31:00 PM,01/04/2017 12:31:00 PM,SR Created,BOS,Bulky Items,Closed,Call,,Y,EV,01/04/2017 12:00:00 AM,01/04/2017 12:31:00 PM,Y,N,"11223 W TIARA ST, 91601",11223,W,TIARA,ST,91601,34.17859498,-118.3755897,"(34.1785949755, -118.375589715)",532,J,7,South Valley APC,2,Paul Krekorian,24,MID-TOWN NORTH HOLLYWOOD NC,NORTH HOLLYWOOD,8488,197,280,,5,13
1-410912531,12/31/2016 01:31:00 PM,12/31/2016 04:01:00 PM,SR Created,BOS,Bulky Items,Closed,Driver Self Report,,Y,NC,01/03/2017 12:00:00 AM,12/31/2016 04:01:00 PM,Y,N,"4806 E CONVERSE ST, 90032",4806,E,CONVERSE,ST,90032,34.08261804,-118.1804306,"(34.0826180438, -118.180430571)",595,E,6,East Los Angeles APC,14,Jose Huizar,48,LA-32 NC,HOLLENBECK,23449,500,610,,9,91
1-410907341,12/31/2016 01:30:00 PM,01/03/2017 08:47:00 AM,SR Created,BOS,Bulky Items,Closed,Call,,Y,NC,01/03/2017 12:00:00 AM,01/03/2017 08:47:00 AM,Y,N,"5039 E O'SULLIVAN DR, 90032",5039,E,O'SULLIVAN,DR,90032,34.06791244,-118.1732836,"(34.0679124404, -118.17328364)",635,F,1,East Los Angeles APC,14,Jose Huizar,48,LA-32 NC,HOLLENBECK,23449,507,616,,9,91
1-410907151,12/31/2016 01:29:00 PM,12/31/2016 04:01:00 PM,SR Created,BOS,Bulky Items,Closed,Driver Self Report,,Y,NC,01/03/2017 12:00:00 AM,12/31/2016 04:01:00 PM,Y,N,"4787 E TEMPLETON ST, 90032",4787,E,TEMPLETON,ST,90032,34.08194959,-118.1801803,"(34.0819495938, -118.180180289)",595,E,6,East Los Angeles APC,14,Jose Huizar,48,LA-32 NC,HOLLENBECK,23449,500,610,,9,91
1-410906197,12/31/2016 01:28:00 PM,01/04/2017 10:11:00 AM,SR Created,BOS,Bulky Items,Closed,Mobile App,Android,Y,NC,01/04/2017 12:00:00 AM,01/04/2017 10:11:00 AM,Y,,"4838 E BUCHANAN ST, 90042",4838,E,BUCHANAN,ST,90042,34.12016526,-118.2104129,"(34.1201652579, -118.210412935)",595,A,1,East Los Angeles APC,1,Gilbert Cedillo,41,HISTORIC HIGHLAND PARK NC,NORTHEAST,23673,366,1433,,11,93
1-410908271,12/31/2016 01:27:00 PM,01/05/2017 09:12:00 AM,SR Created,BOS,Bulky Items,Closed,Self Service,,N,EV,01/05/2017 12:00:00 AM,01/05/2017 09:12:00 AM,Y,N,"4507 N NAGLE AVE, 91423",4507,N,NAGLE,AVE,91423,34.15192843,-118.4238013,"(34.1519284267, -118.423801337)",562,D,4,South Valley APC,4,David Ryu,26,SHERMAN OAKS NC,VAN NUYS,19736,331,1341,,7,83
1-410908081,12/31/2016 01:27:00 PM,01/03/2017 01:05:00 PM,SR Created,BOS,Bulky Items,Closed,Call,,N,WV,01/03/2017 12:00:00 AM,01/03/2017 01:05:00 PM,Y,N,"13141 N CONSTABLE AVE, 91344",13141,N,CONSTABLE,AVE,91344,34.30867913,-118.5036508,"(34.308679133, -118.503650806)",481,C,4,North Valley APC,12,Mitchell Englander,4,GRANADA HILLS NORTH NC,DEVONSHIRE,19329,50,1406,,2,78
1-410904891,12/31/2016 01:26:00 PM,12/31/2016 04:01:00 PM,SR Created,BOS,Bulky Items,Closed,Driver Self Report,,Y,NC,01/03/2017 12:00:00 AM,12/31/2016 04:01:00 PM,Y,N,"4829 E GAMBIER ST, 90032",4829,E,GAMBIER,ST,90032,34.08102093,-118.1788384,"(34.0810209273, -118.178838403)",595,E,7,East Los Angeles APC,14,Jose Huizar,48,LA-32 NC,HOLLENBECK,23449,500,610,,9,91
1-410907697,12/31/2016 01:26:00 PM,01/04/2017 10:10:00 AM,SR Created,BOS,Bulky Items,Closed,Mobile App,Android,Y,NC,01/04/2017 12:00:00 AM,01/04/2017 10:10:00 AM,Y,,"4906 N BUCHANAN ST, 90042",4906,N,BUCHANAN,ST,90042,34.11990023,-118.2092619,"(34.1199002296, -118.209261854)",595,A,1,East Los Angeles APC,1,Gilbert Cedillo,41,HISTORIC HIGHLAND PARK NC,NORTHEAST,23673,366,586,,11,93
1-410904221,12/31/2016 01:24:00 PM,01/11/2017 12:21:00 PM,SR Created,BOS,Bulky Items,Closed,Call,,N,NC,01/11/2017 12:00:00 AM,01/11/2017 12:21:00 PM,Y,N,"6347 W RODGERTON DR, 90068",6347,W,RODGERTON,DR,90068,34.1250837,-118.3226425,"(34.1250836995, -118.322642514)",593,F,1,Central APC,4,David Ryu,30,HOLLYWOOD UNITED NC,HOLLYWOOD,24033,404,543,42,7,64
1-410905511,12/31/2016 01:24:00 PM,01/03/2017 01:55:00 PM,SR Created,BOS,Bulky Items,Closed,Call,,Y,EV,01/03/2017 12:00:00 AM,01/03/2017 01:55:00 PM,Y,N,"10514 N SUNLAND BLVD, 91040",10514,N,SUNLAND,BLVD,91040,34.25958761,-118.3250526,"(34.2595876074, -118.325052639)",503,F,3,North Valley APC,7,Vacant,10,SUNLAND-TUJUNGA NC,FOOTHILL,3221,15,1511,18,1,7
1-410903841,12/31/2016 01:23:00 PM,12/31/2016 04:01:00 PM,SR Created,BOS,Bulky Items,Closed,Driver Self Report,,Y,NC,01/03/2017 12:00:00 AM,12/31/2016 04:01:00 PM,Y,N,"2920 N EASTERN AVE, 90032",2920,N,EASTERN,AVE,90032,34.08059383,-118.1778999,"(34.0805938286, -118.177899895)",595,E,7,East Los Angeles APC,14,Jose Huizar,48,LA-32 NC,HOLLENBECK,23449,504,775,,9,91
1-410902131,12/31/2016 01:20:00 PM,12/31/2016 04:01:00 PM,SR Created,BOS,Bulky Items,Closed,Driver Self Report,,Y,NC,01/03/2017 12:00:00 AM,12/31/2016 04:01:00 PM,Y,N,"2808 N LYNNFIELD CIR, 90032",2808,N,LYNNFIELD,CIR,90032,34.07800503,-118.1760618,"(34.0780050334, -118.176061811)",595,E,7,East Los Angeles APC,14,Jose Huizar,48,LA-32 NC,HOLLENBECK,23449,504,775,,9,91
1-410902721,12/31/2016 01:19:00 PM,01/03/2017 12:20:00 PM,SR Created,BOS,Bulky Items,Closed,Call,,N,SLA,01/03/2017 12:00:00 AM,01/03/2017 12:20:00 PM,Y,N,"2820 S 6TH AVE, 90018",2820,S,6TH,AVE,90018,34.02895908,-118.3234951,"(34.0289590849, -118.323495132)",633,F,7,South Los Angeles APC,10,Herb J. Wesson Jr.,74,"UNITED NEIGHBORHOODS OF THE HISTORIC ARLINGTON HEIGHTS, WEST ADAMS, AND JEFFERSON PARK COMMUNITY",SOUTHWEST,23079,660,918,7,12,19
1-410892491,12/31/2016 01:19:00 PM,01/03/2017 12:57:00 PM,SR Created,BOS,Bulky Items,Closed,Call,,Y,WLA,01/03/2017 12:00:00 AM,01/03/2017 12:57:00 PM,Y,N,"8114 S MCCONNELL AVE, 90045",8114,S,MCCONNELL,AVE,90045,33.964518,-118.4118514,"(33.9645179986, -118.411851374)",702,F,2,West Los Angeles APC,11,Mike Bonin,71,NC WESTCHESTER/PLAYA,PACIFIC,23676,927,443,10,10,16
1-410892331,12/31/2016 01:18:00 PM,01/06/2017 12:44:00 PM,SR Created,BOS,Bulky Items,Closed,Call,,N,WLA,01/06/2017 12:00:00 AM,01/06/2017 12:44:00 PM,Y,N,"6310 W ORANGE ST, 90048",6310,W,ORANGE,ST,90048,34.06439183,-118.3656063,"(34.0643918314, -118.365606283)",633,B,2,Central APC,5,Paul Koretz,58,MID CITY WEST CC,WILSHIRE,23679,630,1098,,6,26
1-410896389,12/31/2016 01:18:00 PM,01/04/2017 11:11:00 AM,SR Created,BOS,Bulky Items,Closed,Mobile App,iOS,N,WV,01/04/2017 12:00:00 AM,01/04/2017 11:11:00 AM,Y,,"9901 N VARIEL AVE, 91311",9901,N,VARIEL,AVE,91311,34.25027,-118.5931018,"(34.2502700018, -118.593101789)",500,B,5,North Valley APC,12,Mitchell Englander,99,CHATSWORTH NC,DEVONSHIRE,4284,99,233,,2,43
1-410894961,12/31/2016 01:18:00 PM,01/03/2017 10:48:00 AM,SR Created,BOS,Bulky Items,Closed,Call,,N,NC,01/03/2017 12:00:00 AM,01/03/2017 10:48:00 AM,Y,N,"1417 E WARREN ST, 90033",1417,E,WARREN,ST,90033,34.05086573,-118.2198828,"(34.05086573, -118.219882769)",634,J,4,East Los Angeles APC,14,Jose Huizar,50,BOYLE HEIGHTS NC,HOLLENBECK,23450,511,1033,,9,38
1-410896191,12/31/2016 01:17:00 PM,01/07/2017 08:59:00 AM,SR Created,BOS,Bulky Items,Closed,Call,,Y,WLA,01/07/2017 12:00:00 AM,01/07/2017 08:59:00 AM,Y,N,"1636 S RIDGELEY DR, 90019",1636,S,RIDGELEY,DR,90019,34.04295891,-118.3577718,"(34.0429589084, -118.357771784)",633,C,5,South Los Angeles APC,10,Herb J. Wesson Jr.,73,MID CITY NC,WILSHIRE,23080,652,1110,,12,69
1-410894831,12/31/2016 01:17:00 PM,01/03/2017 01:07:00 PM,SR Created,BOS,Bulky Items,Closed,Call,,Y,WLA,01/03/2017 12:00:00 AM,01/03/2017 01:07:00 PM,Y,N,"8114 S MCCONNELL AVE, 90045",8114,S,MCCONNELL,AVE,90045,33.964518,-118.4118514,"(33.9645179986, -118.411851374)",702,F,2,West Los Angeles APC,11,Mike Bonin,71,NC WESTCHESTER/PLAYA,PACIFIC,23676,927,443,10,10,16
1-410892221,12/31/2016 01:17:00 PM,01/07/2017 12:49:00 PM,SR Created,BOS,Bulky Items,Closed,Self Service,,N,NC,01/07/2017 12:00:00 AM,01/07/2017 12:49:00 PM,Y,N,"329 N IRVING BLVD, 90004",329,N,IRVING,BLVD,90004,34.07702493,-118.3188997,"(34.0770249315, -118.31889967)",593,G,7,Central APC,4,David Ryu,119,GREATER WILSHIRE NC,OLYMPIC,22721,449,1308,,7,86
1-410892031,12/31/2016 01:16:00 PM,01/03/2017 12:31:00 PM,SR Created,BOS,Bulky Items,Closed,Call,,N,NC,01/03/2017 12:00:00 AM,01/03/2017 12:31:00 PM,Y,N,"1417 E WARREN ST, 90033",1417,E,WARREN,ST,90033,34.05086573,-118.2198828,"(34.05086573, -118.219882769)",634,J,4,East Los Angeles APC,14,Jose Huizar,50,BOYLE HEIGHTS NC,HOLLENBECK,23450,511,1033,,9,38
1-410891911,12/31/2016 01:14:00 PM,12/31/2016 04:01:00 PM,SR Created,BOS,Bulky Items,Closed,Driver Self Report,,Y,NC,01/03/2017 12:00:00 AM,12/31/2016 04:01:00 PM,Y,N,"4751 E KLAMATH PL, 90032",4751,E,KLAMATH,PL,90032,34.07484373,-118.1807918,"(34.0748437328, -118.180791773)",595,E,7,East Los Angeles APC,14,Jose Huizar,48,LA-32 NC,HOLLENBECK,23449,501,771,,9,91
1-410892855,12/31/2016 01:13:00 PM,01/06/2017 09:30:00 AM,SR Created,BOS,Bulky Items,Closed,Mobile App,Android,N,NC,01/06/2017 12:00:00 AM,01/06/2017 09:30:00 AM,Y,,"1179 N EDGEMONT ST, 90029",1179,N,EDGEMONT,ST,90029,34.09305739,-118.2962829,"(34.0930573934, -118.296282905)",593,J,5,Central APC,13,Mitch O'Farrell,34,EAST HOLLYWOOD NC,NORTHEAST,23447,432,460,16,8,58
1-410891641,12/31/2016 01:12:00 PM,12/31/2016 04:01:00 PM,SR Created,BOS,Bulky Items,Closed,Driver Self Report,,Y,NC,01/03/2017 12:00:00 AM,12/31/2016 04:01:00 PM,Y,N,"4745 E NORELLE ST, 90032",4745,E,NORELLE,ST,90032,34.07294152,-118.1815246,"(34.0729415227, -118.181524577)",635,E,1,East Los Angeles APC,14,Jose Huizar,48,LA-32 NC,HOLLENBECK,23449,501,771,,9,91
1-410889190,12/31/2016 01:10:00 PM,01/06/2017 09:28:00 AM,SR Created,BOS,Bulky Items,Closed,Mobile App,Android,Y,NC,01/06/2017 12:00:00 AM,01/06/2017 09:28:00 AM,Y,,"245 N KENMORE AVE, 90004",245,N,KENMORE,AVE,90004,34.07579737,-118.2967299,"(34.07579737, -118.296729915)",593,J,7,Central APC,13,Mitch O'Farrell,55,WILSHIRE CENTER - KOREATOWN NC,OLYMPIC,22721,581,936,,8,89
1-410886041,12/31/2016 01:10:00 PM,01/03/2017 01:47:00 PM,SR Created,BOS,Bulky Items,Closed,Call,,Y,EV,01/03/2017 12:00:00 AM,01/03/2017 01:47:00 PM,Y,N,"14110 N ALMETZ CIR, 91342",14110,N,ALMETZ,CIR,91342,34.32855536,-118.4402548,"(34.3285553645, -118.440254804)",482,A,1,North Valley APC,7,Vacant,5,SYLMAR NC,MISSION,18912,37,1279,,1,47
1-410885861,12/31/2016 01:10:00 PM,12/31/2016 04:01:00 PM,SR Created,BOS,Bulky Items,Closed,Driver Self Report,,Y,NC,01/03/2017 12:00:00 AM,12/31/2016 04:01:00 PM,Y,N,"4627 N TWINING ST, 90032",4627,N,TWINING,ST,90032,34.08414929,-118.1842236,"(34.0841492934, -118.184223604)",595,D,6,East Los Angeles APC,14,Jose Huizar,48,LA-32 NC,HOLLENBECK,23449,500,610,,9,91
1-410890611,12/31/2016 01:09:00 PM,01/06/2017 11:57:00 AM,SR Created,BOS,Bulky Items,Closed,Mobile App,Android,Y,NC,01/06/2017 12:00:00 AM,01/06/2017 11:57:00 AM,Y,,"227 N BERENDO ST, 90004",227,N,BERENDO,ST,90004,34.07532841,-118.2943672,"(34.0753284115, -118.294367218)",634,A,1,Central APC,13,Mitch O'Farrell,55,WILSHIRE CENTER - KOREATOWN NC,OLYMPIC,22721,582,936,16,8,89
1-410885741,12/31/2016 01:09:00 PM,01/04/2017 11:47:00 AM,SR Created,BOS,Bulky Items,Closed,Call,,Y,WV,01/04/2017 12:00:00 AM,01/04/2017 11:47:00 AM,Y,N,"20234 W CANTARA ST, 91306",20234,W,CANTARA,ST,91306,34.21908865,-118.5745921,"(34.2190886466, -118.574592122)",530,D,2,South Valley APC,3,Bob Blumenfield,14,WINNETKA NC,TOPANGA,4282,274,431,,4,66
1-410885611,12/31/2016 01:08:00 PM,12/31/2016 04:01:00 PM,SR Created,BOS,Bulky Items,Closed,Driver Self Report,,Y,NC,01/03/2017 12:00:00 AM,12/31/2016 04:01:00 PM,Y,N,"4729 CATALPA ST, 90032",4729,,CATALPA,ST,90032,34.06468573,-118.1822126,"(34.0646857338, -118.182212552)",635,E,2,East Los Angeles APC,14,Jose Huizar,48,LA-32 NC,HOLLENBECK,23449,501,771,,9,91
1-410888551,12/31/2016 01:06:00 PM,01/03/2017 02:07:00 PM,SR Created,BOS,Bulky Items,Closed,Call,,Y,EV,01/03/2017 12:00:00 AM,01/03/2017 02:07:00 PM,Y,N,"14110 N ALMETZ CIR, 91342",14110,N,ALMETZ,CIR,91342,34.32855536,-118.4402548,"(34.3285553645, -118.440254804)",482,A,1,North Valley APC,7,Vacant,5,SYLMAR NC,MISSION,18912,37,1279,,1,47
1-410878411,12/31/2016 01:04:00 PM,12/31/2016 04:01:00 PM,SR Created,BOS,Bulky Items,Closed,Driver Self Report,,Y,NC,01/03/2017 12:00:00 AM,12/31/2016 04:01:00 PM,Y,N,"5381 HUNTINGTON DR, 90032",5381,,HUNTINGTON,DR,90032,34.09179495,-118.1637491,"(34.0917949496, -118.163749116)",595,G,5,East Los Angeles APC,14,Jose Huizar,48,LA-32 NC,HOLLENBECK,23449,496,514,,9,91
1-410878321,12/31/2016 01:03:00 PM,01/03/2017 12:35:00 PM,SR Created,BOS,Bulky Items,Closed,Call,,N,SLA,01/03/2017 12:00:00 AM,01/03/2017 12:35:00 PM,Y,N,"1475 W ADAMS BLVD, 90007",1475,W,ADAMS,BLVD,90007,34.03289415,-118.293718,"(34.0328941497, -118.293717967)",634,A,6,South Los Angeles APC,8,Marqueece Harris-Dawson,77,EMPOWERMENT CONGRESS NORTH AREA NDC,SOUTHWEST,22724,680,907,7,14,32
1-410884541,12/31/2016 01:02:00 PM,12/31/2016 04:01:00 PM,SR Created,BOS,Bulky Items,Closed,Driver Self Report,,Y,NC,01/03/2017 12:00:00 AM,12/31/2016 04:01:00 PM,Y,N,"4868 E NAVARRO ST, 90032",4868,E,NAVARRO,ST,90032,34.08536796,-118.1773941,"(34.0853679553, -118.177394128)",595,E,6,East Los Angeles APC,14,Jose Huizar,48,LA-32 NC,HOLLENBECK,23449,503,611,,9,91
1-410881951,12/31/2016 12:59:00 PM,12/31/2016 04:01:00 PM,SR Created,BOS,Bulky Items,Closed,Driver Self Report,,Y,NC,01/03/2017 12:00:00 AM,12/31/2016 04:01:00 PM,Y,N,"4879 E NAVARRO ST, 90032",4879,E,NAVARRO,ST,90032,34.08577605,-118.1771441,"(34.0857760492, -118.177144147)",595,E,6,East Los Angeles APC,14,Jose Huizar,48,LA-32 NC,HOLLENBECK,23449,503,611,,9,91
1-410879301,12/31/2016 12:58:00 PM,01/03/2017 12:51:00 PM,SR Created,BOS,Bulky Items,Closed,Call,,N,WV,01/03/2017 12:00:00 AM,01/03/2017 12:51:00 PM,Y,N,"19501 W ELKWOOD ST, 91335",19501,W,ELKWOOD,ST,91335,34.21284766,-118.5582691,"(34.2128476593, -118.558269081)",530,F,3,South Valley APC,3,Bob Blumenfield,15,RESEDA NC,WEST VALLEY,18909,255,1545,,4,12
1-410879051,12/31/2016 12:57:00 PM,12/31/2016 04:01:00 PM,SR Created,BOS,Bulky Items,Closed,Driver Self Report,,Y,NC,01/03/2017 12:00:00 AM,12/31/2016 04:01:00 PM,Y,N,"4901 E AXTELL ST, 90032",4901,E,AXTELL,ST,90032,34.085352,-118.175889,"(34.0853519978, -118.175889008)",595,E,6,East Los Angeles APC,14,Jose Huizar,48,LA-32 NC,HOLLENBECK,23449,503,611,,9,91
1-410876221,12/31/2016 12:56:00 PM,01/04/2017 07:38:00 AM,SR Created,BOS,Bulky Items,Closed,Call,,Y,EV,01/04/2017 12:00:00 AM,01/04/2017 07:38:00 AM,Y,N,"11022 W MORRISON ST, 91601",11022,W,MORRISON,ST,91601,34.16092181,-118.3713944,"(34.1609218078, -118.371394387)",563,A,3,South Valley APC,2,Paul Krekorian,24,MID-TOWN NORTH HOLLYWOOD NC,NORTH HOLLYWOOD,8488,210,553,,5,13
1-410875931,12/31/2016 12:56:00 PM,01/03/2017 10:14:00 AM,SR Created,BOS,Bulky Items,Closed,Self Service,,N,WV,01/03/2017 12:00:00 AM,01/03/2017 10:14:00 AM,Y,N,"11355 N PALA MESA DR, 91326",11355,N,PALA MESA,DR,91326,34.27783744,-118.5496931,"(34.2778374447, -118.549693093)",500,G,1,North Valley APC,12,Mitchell Englander,114,PORTER RANCH NC,DEVONSHIRE,18905,62,1089,,2,48
1-410877701,12/31/2016 12:54:00 PM,01/05/2017 01:06:00 PM,SR Created,BOS,Bulky Items,Closed,Self Service,,N,NC,01/05/2017 12:00:00 AM,01/05/2017 01:06:00 PM,Y,N,"146 N CORONADO ST, 90026",146,N,CORONADO,ST,90026,34.07020173,-118.2750244,"(34.0702017263, -118.275024352)",634,C,1,Central APC,13,Mitch O'Farrell,44,GREATER ECHO PARK ELYSIAN NC,RAMPART,23444,553,838,,8,31
1-410877241,12/31/2016 12:54:00 PM,12/31/2016 04:01:00 PM,SR Created,BOS,Bulky Items,Closed,Driver Self Report,,Y,NC,01/03/2017 12:00:00 AM,12/31/2016 04:01:00 PM,Y,N,"2258 N PARKSIDE AVE, 90031",2258,N,PARKSIDE,AVE,90031,34.07211643,-118.2000445,"(34.0721164254, -118.200044483)",635,C,1,East Los Angeles APC,1,Gilbert Cedillo,47,LINCOLN HEIGHTS NC,HOLLENBECK,23448,487,337,,11,1
1-410874801,12/31/2016 12:52:00 PM,12/31/2016 04:01:00 PM,SR Created,BOS,Bulky Items,Closed,Driver Self Report,,Y,NC,01/03/2017 12:00:00 AM,12/31/2016 04:01:00 PM,Y,N,"3740 N HELLMAN AVE, 90032",3740,N,HELLMAN,AVE,90032,34.08904707,-118.1845583,"(34.0890470741, -118.184558297)",595,D,5,East Los Angeles APC,14,Jose Huizar,48,LA-32 NC,HOLLENBECK,23449,498,374,,9,91
1-410869371,12/31/2016 12:50:00 PM,12/31/2016 04:01:00 PM,SR Created,BOS,Bulky Items,Closed,Driver Self Report,,Y,NC,01/03/2017 12:00:00 AM,12/31/2016 04:01:00 PM,Y,N,"3730 N COLLIS AVE, 90032",3730,N,COLLIS,AVE,90032,34.08844464,-118.1834812,"(34.0884446396, -118.183481231)",595,D,5,East Los Angeles APC,14,Jose Huizar,48,LA-32 NC,HOLLENBECK,23449,498,374,,9,91
1-410872291,12/31/2016 12:49:00 PM,01/03/2017 09:09:00 AM,SR Created,BOS,Bulky Items,Closed,Call,,N,NC,01/03/2017 12:00:00 AM,01/03/2017 09:09:00 AM,Y,N,"347 S AVENUE 18, 90031",347,S,AVENUE 18,,90031,34.06842321,-118.2206011,"(34.0684232098, -118.220601111)",634,J,1,East Los Angeles APC,1,Gilbert Cedillo,47,LINCOLN HEIGHTS NC,HOLLENBECK,23448,492,943,1,11,1
1-410871811,12/31/2016 12:48:00 PM,12/31/2016 04:01:00 PM,SR Created,BOS,Bulky Items,Closed,Driver Self Report,,Y,NC,01/03/2017 12:00:00 AM,12/31/2016 04:01:00 PM,Y,N,"3701 N RANDOLPH AVE, 90032",3701,N,RANDOLPH,AVE,90032,34.08886929,-118.180978,"(34.0888692872, -118.180978023)",595,E,5,East Los Angeles APC,14,Jose Huizar,48,LA-32 NC,HOLLENBECK,23449,497,374,,9,91
1-410868201,12/31/2016 12:46:00 PM,01/07/2017 01:35:00 PM,SR Created,BOS,Bulky Items,Closed,Call,,Y,WLA,01/07/2017 12:00:00 AM,01/07/2017 01:35:00 PM,Y,N,"9006 W DAVID AVE, 90034",9006,W,DAVID,AVE,90034,34.04035179,-118.3881894,"(34.0403517902, -118.388189408)",632,H,6,West Los Angeles APC,5,Paul Koretz,61,SOUTH ROBERTSON NC,WEST LOS ANGELES,23451,875,749,,6,95
1-410866421,12/31/2016 12:45:00 PM,12/31/2016 04:01:00 PM,SR Created,BOS,Bulky Items,Closed,Call,,Y,NC,01/03/2017 12:00:00 AM,12/31/2016 04:01:00 PM,Y,N,"3740 N RANDOLPH AVE, 90032",3740,N,RANDOLPH,AVE,90032,34.08973341,-118.1802871,"(34.089733407, -118.180287099)",595,E,5,East Los Angeles APC,14,Jose Huizar,48,LA-32 NC,HOLLENBECK,23449,497,374,,9,91
1-410868041,12/31/2016 12:45:00 PM,01/03/2017 09:56:00 AM,SR Created,BOS,Bulky Items,Closed,Self Service,,N,WV,01/03/2017 12:00:00 AM,01/03/2017 09:56:00 AM,Y,N,"11737 N BAIRD AVE, 91326",11737,N,BAIRD,AVE,91326,34.28462894,-118.542315,"(34.2846289368, -118.542314983)",480,H,7,North Valley APC,12,Mitchell Englander,114,PORTER RANCH NC,DEVONSHIRE,18905,63,1532,,2,48
1-410863201,12/31/2016 12:43:00 PM,12/31/2016 04:01:00 PM,SR Created,BOS,Bulky Items,Closed,Driver Self Report,,Y,NC,01/03/2017 12:00:00 AM,12/31/2016 04:01:00 PM,Y,N,"3756 N LOCKE AVE, 90032",3756,N,LOCKE,AVE,90032,34.08977805,-118.1789399,"(34.0897780542, -118.178939907)",595,E,5,East Los Angeles APC,14,Jose Huizar,48,LA-32 NC,HOLLENBECK,23449,497,374,,9,91
1-410864471,12/31/2016 12:41:00 PM,12/31/2016 04:01:00 PM,SR Created,BOS,Bulky Items,Closed,Driver Self Report,,Y,NC,01/03/2017 12:00:00 AM,12/31/2016 04:01:00 PM,Y,N,"3849 N ROSEMEAD AVE, 90032",3849,N,ROSEMEAD,AVE,90032,34.09020488,-118.1779678,"(34.0902048836, -118.177967758)",595,E,5,East Los Angeles APC,14,Jose Huizar,48,LA-32 NC,HOLLENBECK,23449,497,374,,9,91
1-410864871,12/31/2016 12:39:00 PM,01/06/2017 02:18:00 PM,SR Created,BOS,Bulky Items,Closed,Call,,N,WLA,01/06/2017 12:00:00 AM,01/06/2017 02:18:00 PM,Y,N,"2043 N CURSON AVE, 90046",2043,N,CURSON,AVE,90046,34.10869198,-118.3559537,"(34.108691978, -118.355953666)",593,C,3,Central APC,4,David Ryu,29,HOLLYWOOD HILLS WEST NC,HOLLYWOOD,23677,456,625,,7,82
1-410863941,12/31/2016 12:38:00 PM,12/31/2016 04:01:00 PM,SR Created,BOS,Bulky Items,Closed,Driver Self Report,,Y,NC,01/03/2017 12:00:00 AM,12/31/2016 04:01:00 PM,Y,N,"3733 N LOCKE AVE, 90032",3733,N,LOCKE,AVE,90032,34.08921698,-118.1795058,"(34.0892169783, -118.179505831)",595,E,5,East Los Angeles APC,14,Jose Huizar,48,LA-32 NC,HOLLENBECK,23449,497,374,,9,91
1-410860491,12/31/2016 12:37:00 PM,01/04/2017 01:55:00 PM,SR Created,BOS,Bulky Items,Closed,Call,,Y,HB,01/04/2017 12:00:00 AM,01/04/2017 01:55:00 PM,Y,N,"1112 W 254TH ST, 90710",1112,W,254TH,ST,90710,33.79365273,-118.2962755,"(33.7936527284, -118.296275529)",794,A,4,Harbor APC,15,Joe Buscaino,92,HARBOR CITY NC,HARBOR,26327,958,1288,,15,29
1-410860411,12/31/2016 12:37:00 PM,01/04/2017 01:39:00 PM,SR Created,BOS,Bulky Items,Closed,Call,,N,EV,01/04/2017 12:00:00 AM,01/04/2017 01:39:00 PM,Y,N,"11331 W EMELITA ST, 91601",11331,W,EMELITA,ST,91601,34.17678071,-118.3778998,"(34.1767807129, -118.377899782)",562,J,1,South Valley APC,2,Paul Krekorian,24,MID-TOWN NORTH HOLLYWOOD NC,NORTH HOLLYWOOD,8488,197,280,,5,13
1-410862521,12/31/2016 12:34:00 PM,01/07/2017 09:34:00 AM,SR Created,BOS,Bulky Items,Closed,Call,,N,SLA,01/09/2017 12:00:00 AM,01/07/2017 09:34:00 AM,Y,N,"6116 S HOBART BLVD, 90047",6116,S,HOBART,BLVD,90047,33.98417696,-118.3077658,"(33.9841769628, -118.307765829)",673,H,6,South Los Angeles APC,8,Marqueece Harris-Dawson,81,EMPOWERMENT CONGRESS CENTRAL AREA NDC,77TH STREET,23678,769,1052,7,14,35
1-410859431,12/31/2016 12:33:00 PM,12/31/2016 04:01:00 PM,SR Created,BOS,Bulky Items,Closed,Driver Self Report,,Y,NC,01/03/2017 12:00:00 AM,12/31/2016 04:01:00 PM,Y,N,"3635 N LOCKE AVE, 90032",3635,N,LOCKE,AVE,90032,34.08801688,-118.1800063,"(34.0880168812, -118.180006325)",595,E,6,East Los Angeles APC,14,Jose Huizar,48,LA-32 NC,HOLLENBECK,23449,497,374,,9,91
1-410860681,12/31/2016 12:33:00 PM,01/03/2017 12:32:00 PM,SR Created,BOS,Bulky Items,Closed,Call,,Y,NC,01/03/2017 12:00:00 AM,01/03/2017 12:32:00 PM,Y,N,"5646 E BERKSHIRE DR, 90032",5646,E,BERKSHIRE,DR,90032,34.09744732,-118.1573068,"(34.0974473153, -118.157306784)",595,G,4,East Los Angeles APC,14,Jose Huizar,48,LA-32 NC,HOLLENBECK,23449,496,514,,9,91
1-410859221,12/31/2016 12:32:00 PM,01/03/2017 12:02:00 PM,SR Created,BOS,Bulky Items,Closed,Call,,Y,NC,01/03/2017 12:00:00 AM,01/03/2017 12:02:00 PM,Y,N,"5646 E BERKSHIRE DR, 90032",5646,E,BERKSHIRE,DR,90032,34.09744732,-118.1573068,"(34.0974473153, -118.157306784)",595,G,4,East Los Angeles APC,14,Jose Huizar,48,LA-32 NC,HOLLENBECK,23449,496,514,,9,91
1-410859601,12/31/2016 12:31:00 PM,12/31/2016 04:01:00 PM,SR Created,BOS,Bulky Items,Closed,Driver Self Report,,Y,NC,01/03/2017 12:00:00 AM,12/31/2016 04:01:00 PM,Y,N,"3626 N LOCKE AVE, 90032",3626,N,LOCKE,AVE,90032,34.08790215,-118.1797216,"(34.0879021498, -118.179721633)",595,E,6,East Los Angeles APC,14,Jose Huizar,48,LA-32 NC,HOLLENBECK,23449,497,374,,9,91
1-410848408,12/31/2016 12:29:00 PM,01/10/2017 02:10:00 PM,SR Created,BOS,Bulky Items,Closed,Mobile App,iOS,Y,SLA,01/09/2017 12:00:00 AM,01/10/2017 02:10:00 PM,Y,N,"210 E 103RD ST, 90003",210,E,103RD,ST,90003,33.9427273,-118.2714373,"(33.9427273022, -118.271437292)",704,D,5,South Los Angeles APC,8,Marqueece Harris-Dawson,87,EMPOWERMENT CONGRESS SOUTHEAST AREA NDC,SOUTHEAST,22352,805,1177,7,14,45
1-410844081,12/31/2016 12:28:00 PM,01/06/2017 10:28:00 AM,SR Created,BOS,Bulky Items,Closed,Call,,N,NC,01/06/2017 12:00:00 AM,01/06/2017 10:28:00 AM,Y,N,"4436 W FRANKLIN AVE, 90027",4436,W,FRANKLIN,AVE,90027,34.10520398,-118.2865475,"(34.1052039843, -118.286547493)",594,B,3,Central APC,4,David Ryu,36,LOS FELIZ NC,NORTHEAST,23445,399,1328,,7,3
1-410848261,12/31/2016 12:28:00 PM,01/03/2017 08:59:00 AM,SR Created,BOS,Bulky Items,Closed,Call,,N,SLA,01/03/2017 12:00:00 AM,01/03/2017 08:59:00 AM,Y,N,"3016 S BRIGHTON AVE, 90018",3016,S,BRIGHTON,AVE,90018,34.02668134,-118.3013526,"(34.0266813427, -118.301352613)",633,J,7,South Los Angeles APC,8,Marqueece Harris-Dawson,77,EMPOWERMENT CONGRESS NORTH AREA NDC,SOUTHWEST,23079,688,910,7,14,32
1-410845121,12/31/2016 12:26:00 PM,12/31/2016 04:01:00 PM,SR Created,BOS,Bulky Items,Closed,Driver Self Report,,Y,NC,01/03/2017 12:00:00 AM,12/31/2016 04:01:00 PM,Y,N,"3731 N PUEBLO AVE, 90032",3731,N,PUEBLO,AVE,90032,34.08851206,-118.1756146,"(34.0885120642, -118.175614623)",595,E,5,East Los Angeles APC,14,Jose Huizar,48,LA-32 NC,HOLLENBECK,23449,497,374,,9,91
1-410847321,12/31/2016 12:25:00 PM,01/04/2017 12:57:00 PM,SR Created,BOS,Bulky Items,Closed,Call,,Y,WLA,01/04/2017 12:00:00 AM,01/04/2017 12:57:00 PM,Y,N,"725 E MILWOOD AVE, 90291",725,E,MILWOOD,AVE,90291,33.99322853,-118.4631355,"(33.9932285267, -118.463135482)",671,J,5,West Los Angeles APC,11,Mike Bonin,68,VENICE NC,PACIFIC,25073,910,851,10,10,30
1-410846851,12/31/2016 12:24:00 PM,01/04/2017 02:05:00 PM,SR Created,BOS,Bulky Items,Closed,Call,,N,HB,01/04/2017 12:00:00 AM,01/04/2017 02:05:00 PM,Y,N,"1157 N FRIGATE AVE, 90744",1157,N,FRIGATE,AVE,90744,33.78572272,-118.2780446,"(33.7857227155, -118.278044567)",794,C,5,Harbor APC,15,Joe Buscaino,93,WILMINGTON NC,HARBOR,3350,956,1201,,15,15
1-410846131,12/31/2016 12:24:00 PM,01/04/2017 12:06:00 PM,SR Created,BOS,Bulky Items,Closed,Call,,Y,WLA,01/04/2017 12:00:00 AM,01/04/2017 12:06:00 PM,Y,N,"725 E MILWOOD AVE, 90291",725,E,MILWOOD,AVE,90291,33.99322853,-118.4631355,"(33.9932285267, -118.463135482)",671,J,5,West Los Angeles APC,11,Mike Bonin,68,VENICE NC,PACIFIC,25073,910,851,10,10,30
1-410845871,12/31/2016 12:23:00 PM,12/31/2016 04:01:00 PM,SR Created,BOS,Bulky Items,Closed,Driver Self Report,,Y,NC,01/03/2017 12:00:00 AM,12/31/2016 04:01:00 PM,Y,N,"4984 E NOVGOROD ST, 90032",4984,E,NOVGOROD,ST,90032,34.08964015,-118.1754919,"(34.0896401461, -118.175491927)",595,E,5,East Los Angeles APC,14,Jose Huizar,48,LA-32 NC,HOLLENBECK,23449,497,374,,9,91
1-410843045,12/31/2016 12:22:00 PM,01/05/2017 01:22:00 PM,SR Created,BOS,Bulky Items,Closed,Mobile App,Android,N,EV,01/05/2017 12:00:00 AM,01/05/2017 01:22:00 PM,Y,,"5009 N ALCOVE AVE, 91607",5009,N,ALCOVE,AVE,91607,34.16156167,-118.4128867,"(34.1615616688, -118.412886732)",562,E,3,South Valley APC,4,David Ryu,,,VAN NUYS,19736,203,689,,7,
1-410842286,12/31/2016 12:21:00 PM,01/04/2017 04:20:00 PM,SR Created,BOS,Bulky Items,Closed,Mobile App,iOS,Y,EV,01/04/2017 12:00:00 AM,01/04/2017 04:20:00 PM,Y,,"6310 N COLFAX AVE, 91606",6310,N,COLFAX,AVE,91606,34.18532124,-118.3876566,"(34.1853212375, -118.387656572)",532,H,7,South Valley APC,2,Paul Krekorian,24,MID-TOWN NORTH HOLLYWOOD NC,NORTH HOLLYWOOD,8889,194,546,,5,13
1-410839371,12/31/2016 12:20:00 PM,12/31/2016 04:01:00 PM,SR Created,BOS,Bulky Items,Closed,Driver Self Report,,Y,NC,01/03/2017 12:00:00 AM,12/31/2016 04:01:00 PM,Y,N,"3907 N TAMPICO AVE, 90032",3907,N,TAMPICO,AVE,90032,34.09054117,-118.1741774,"(34.0905411655, -118.174177378)",595,E,5,East Los Angeles APC,14,Jose Huizar,48,LA-32 NC,HOLLENBECK,23449,495,623,,9,91
1-410841771,12/31/2016 12:18:00 PM,12/31/2016 04:01:00 PM,SR Created,BOS,Bulky Items,Closed,Driver Self Report,,Y,NC,01/03/2017 12:00:00 AM,12/31/2016 04:01:00 PM,Y,N,"2759 N BUDAU AVE, 90032",2759,N,BUDAU,AVE,90032,34.07747775,-118.1752076,"(34.0774777467, -118.175207595)",595,E,7,East Los Angeles APC,14,Jose Huizar,48,LA-32 NC,HOLLENBECK,23449,504,775,,9,91
1-410840341,12/31/2016 12:18:00 PM,01/03/2017 12:57:00 PM,SR Created,BOS,Bulky Items,Closed,Call,,N,WLA,01/03/2017 12:00:00 AM,01/03/2017 12:57:00 PM,Y,N,"12480 W GILMORE AVE, 90066",12480,W,GILMORE,AVE,90066,33.99105159,-118.4250272,"(33.9910515924, -118.42502724)",672,D,5,West Los Angeles APC,11,Mike Bonin,70,DEL REY NC,PACIFIC,24031,920,1268,10,10,85
1-410835231,12/31/2016 12:17:00 PM,01/04/2017 10:12:00 AM,SR Created,BOS,Bulky Items,Closed,Call,,N,NC,01/04/2017 12:00:00 AM,01/04/2017 10:12:00 AM,Y,N,"6308 E ELGIN ST, 90042",6308,E,ELGIN,ST,90042,34.11831274,-118.1801935,"(34.1183127361, -118.180193543)",595,E,1,East Los Angeles APC,14,Jose Huizar,41,HISTORIC HIGHLAND PARK NC,NORTHEAST,23673,359,575,,9,93
1-410839151,12/31/2016 12:17:00 PM,12/31/2016 12:18:00 PM,SR Created,BOS,Bulky Items,Closed,Call,,Y,WLA,01/07/2017 12:00:00 AM,12/31/2016 12:18:00 PM,Y,N,"8619 W MELVIL ST, 90034",8619,W,MELVIL,ST,90034,34.03281026,-118.3805528,"(34.0328102576, -118.380552833)",632,J,7,South Los Angeles APC,10,Herb J. Wesson Jr.,61,SOUTH ROBERTSON NC,WEST LOS ANGELES,23451,886,987,,12,95
1-410835021,12/31/2016 12:16:00 PM,12/31/2016 04:01:00 PM,SR Created,BOS,Bulky Items,Closed,Driver Self Report,,Y,NC,01/03/2017 12:00:00 AM,12/31/2016 04:01:00 PM,Y,N,"2859 N BALLARD ST, 90032",2859,N,BALLARD,ST,90032,34.07901325,-118.1738825,"(34.0790132496, -118.173882529)",595,F,7,East Los Angeles APC,14,Jose Huizar,48,LA-32 NC,HOLLENBECK,23449,504,775,,9,91
1-410837993,12/31/2016 12:16:00 PM,01/06/2017 01:28:00 PM,SR Created,BOS,Bulky Items,Closed,Mobile App,iOS,N,EV,01/06/2017 12:00:00 AM,01/06/2017 01:28:00 PM,Y,,"14500 W VAN NUYS BLVD, 91402",14500,W,VAN NUYS,BLVD,91402,34.24661923,-118.4485094,"(34.2466192251, -118.448509397)",502,A,5,North Valley APC,6,Nury Martinez,100,PANORAMA CITY NC,MISSION,19730,132,958,,3,59
1-410837101,12/31/2016 12:16:00 PM,01/03/2017 01:18:00 PM,SR Created,BOS,Bulky Items,Closed,Call,,N,WLA,01/03/2017 12:00:00 AM,01/03/2017 01:18:00 PM,Y,N,"12480 W GILMORE AVE, 90066",12480,W,GILMORE,AVE,90066,33.99105159,-118.4250272,"(33.9910515924, -118.42502724)",672,D,5,West Los Angeles APC,11,Mike Bonin,70,DEL REY NC,PACIFIC,24031,920,1268,10,10,85
1-410839011,12/31/2016 12:16:00 PM,01/03/2017 02:18:00 PM,SR Created,BOS,Bulky Items,Closed,Call,,Y,HB,01/03/2017 12:00:00 AM,01/03/2017 02:18:00 PM,Y,N,"632 W 170TH ST, 90247",632,W,170TH,ST,90247,33.87682656,-118.2856524,"(33.8768265592, -118.285652397)",734,B,7,Harbor APC,15,Joe Buscaino,90,HARBOR GATEWAY NORTH NC,SOUTHEAST,24684,942,779,7,15,53
1-410836675,12/31/2016 12:14:00 PM,01/03/2017 12:47:00 PM,SR Created,BOS,Bulky Items,Closed,Mobile App,iOS,N,NC,01/03/2017 12:00:00 AM,01/03/2017 12:47:00 PM,Y,,"2324 N JOHNSTON ST, 90031",2324,N,JOHNSTON,ST,90031,34.07263724,-118.2102601,"(34.0726372437, -118.210260118)",635,A,1,East Los Angeles APC,1,Gilbert Cedillo,47,LINCOLN HEIGHTS NC,HOLLENBECK,23448,493,619,,11,1
1-410838641,12/31/2016 12:13:00 PM,12/31/2016 04:01:00 PM,SR Created,BOS,Bulky Items,Closed,Driver Self Report,,Y,NC,01/03/2017 12:00:00 AM,12/31/2016 04:01:00 PM,Y,N,"3124 N PUEBLO AVE, 90032",3124,N,PUEBLO,AVE,90032,34.08194504,-118.1741513,"(34.0819450385, -118.174151264)",595,E,6,East Los Angeles APC,14,Jose Huizar,48,LA-32 NC,HOLLENBECK,23449,504,775,,9,91
1-410833307,12/31/2016 12:12:00 PM,01/04/2017 01:05:00 PM,SR Created,BOS,Bulky Items,Closed,Mobile App,iOS,N,NC,01/04/2017 12:00:00 AM,01/04/2017 01:05:00 PM,Y,,"1210 N EL PASO DR, 90065",1210,N,EL PASO,DR,90065,34.11772357,-118.2177061,"(34.1177235733, -118.217706138)",594,J,2,East Los Angeles APC,1,Gilbert Cedillo,40,EAGLE ROCK NC,NORTHEAST,23672,383,1433,,11,60
1-410831987,12/31/2016 12:11:00 PM,01/03/2017 09:43:00 AM,SR Created,BOS,Bulky Items,Closed,Mobile App,iOS,N,NC,01/03/2017 12:00:00 AM,01/03/2017 09:43:00 AM,Y,,"2324 N JOHNSTON ST, 90031",2324,N,JOHNSTON,ST,90031,34.07263724,-118.2102601,"(34.0726372437, -118.210260118)",635,A,1,East Los Angeles APC,1,Gilbert Cedillo,47,LINCOLN HEIGHTS NC,HOLLENBECK,23448,493,619,,11,1
1-410832151,12/31/2016 12:11:00 PM,12/31/2016 04:01:00 PM,SR Created,BOS,Bulky Items,Closed,Driver Self Report,,Y,NC,01/03/2017 12:00:00 AM,12/31/2016 04:01:00 PM,Y,N,"5011 E AXTELL ST, 90032",5011,E,AXTELL,ST,90032,34.08635129,-118.1733179,"(34.0863512882, -118.173317932)",595,F,6,East Los Angeles APC,14,Jose Huizar,48,LA-32 NC,HOLLENBECK,23449,503,611,,9,91
1-410832561,12/31/2016 12:10:00 PM,01/06/2017 01:30:00 PM,SR Created,BOS,Bulky Items,Closed,Call,,N,EV,01/06/2017 12:00:00 AM,01/06/2017 01:30:00 PM,Y,N,"8521 N MATILIJA AVE, 91402",8521,N,MATILIJA,AVE,91402,34.22531917,-118.4353264,"(34.2253191662, -118.435326381)",532,B,1,North Valley APC,6,Nury Martinez,100,PANORAMA CITY NC,MISSION,19730,151,1040,,3,59
1-410826841,12/31/2016 12:08:00 PM,12/31/2016 04:01:00 PM,SR Created,BOS,Bulky Items,Closed,Driver Self Report,,Y,NC,01/03/2017 12:00:00 AM,12/31/2016 04:01:00 PM,Y,N,"3838 N TAMPICO AVE, 90032",3838,N,TAMPICO,AVE,90032,34.08965738,-118.1733631,"(34.0896573801, -118.173363085)",595,F,5,East Los Angeles APC,14,Jose Huizar,48,LA-32 NC,HOLLENBECK,23449,497,623,,9,91
1-410826741,12/31/2016 12:08:00 PM,01/03/2017 08:19:00 AM,SR Created,BOS,Bulky Items,Closed,Call,,Y,SLA,01/03/2017 12:00:00 AM,01/03/2017 08:19:00 AM,Y,N,"1727 W 24TH ST, 90018",1727,W,24TH,ST,90018,34.03463847,-118.3010837,"(34.0346384719, -118.301083737)",633,J,6,South Los Angeles APC,8,Marqueece Harris-Dawson,77,EMPOWERMENT CONGRESS NORTH AREA NDC,SOUTHWEST,23079,679,643,7,14,32
1-410827571,12/31/2016 12:06:00 PM,12/31/2016 04:01:00 PM,SR Created,BOS,Bulky Items,Closed,Driver Self Report,,Y,NC,01/03/2017 12:00:00 AM,12/31/2016 04:01:00 PM,Y,N,"5055 NOVGOROD ST, 90032",5055,,NOVGOROD,ST,90032,34.09070844,-118.1732459,"(34.0907084435, -118.173245863)",595,F,5,East Los Angeles APC,14,Jose Huizar,48,LA-32 NC,HOLLENBECK,23449,495,623,,9,91
1-410824541,12/31/2016 12:05:00 PM,12/31/2016 12:10:00 PM,SR Created,BOS,Bulky Items,Closed,Call,,Y,WLA,01/07/2017 12:00:00 AM,12/31/2016 12:10:00 PM,Y,N,"3620 S WATSEKA AVE, 90034",3620,S,WATSEKA,AVE,90034,34.02814887,-118.3995029,"(34.0281488735, -118.399502859)",632,G,7,West Los Angeles APC,5,Paul Koretz,115,PALMS NC,PACIFIC,23451,885,1129,,6,74
1-410820141,12/31/2016 12:04:00 PM,12/31/2016 04:01:00 PM,SR Created,BOS,Bulky Items,Closed,Driver Self Report,,Y,NC,01/03/2017 12:00:00 AM,12/31/2016 04:01:00 PM,Y,N,"3205 N BUDAU AVE, 90032",3205,N,BUDAU,AVE,90032,34.08304632,-118.1694242,"(34.0830463186, -118.16942417)",595,F,6,East Los Angeles APC,14,Jose Huizar,48,LA-32 NC,HOLLENBECK,23449,504,775,,9,91
1-410820781,12/31/2016 12:02:00 PM,12/31/2016 04:01:00 PM,SR Created,BOS,Bulky Items,Closed,Driver Self Report,,Y,NC,01/03/2017 12:00:00 AM,12/31/2016 04:01:00 PM,Y,N,"5355 E EDNA ST, 90032",5355,E,EDNA,ST,90032,34.0841616,-118.1664222,"(34.0841616001, -118.166422204)",595,F,6,East Los Angeles APC,14,Jose Huizar,48,LA-32 NC,HOLLENBECK,23449,502,613,,9,91
1-410815431,12/31/2016 12:02:00 PM,01/04/2017 09:18:00 AM,SR Created,BOS,Bulky Items,Closed,Call,,N,WV,01/04/2017 12:00:00 AM,01/04/2017 09:18:00 AM,Y,N,"8612 N BELMAR AVE, 91324",8612,N,BELMAR,AVE,91324,34.22677558,-118.5588781,"(34.2267755835, -118.558878062)",530,F,1,North Valley APC,12,Mitchell Englander,124,NORTHRIDGE SOUTH NC,DEVONSHIRE,18513,101,1426,,2,65
1-410819811,12/31/2016 12:01:00 PM,01/04/2017 11:42:00 AM,SR Created,BOS,Bulky Items,Closed,Call,,N,WV,01/04/2017 12:00:00 AM,01/04/2017 11:42:00 AM,Y,N,"8612 N BELMAR AVE, 91324",8612,N,BELMAR,AVE,91324,34.22677558,-118.5588781,"(34.2267755835, -118.558878062)",530,F,1,North Valley APC,12,Mitchell Englander,124,NORTHRIDGE SOUTH NC,DEVONSHIRE,18513,101,1426,,2,65
1-410817351,12/31/2016 11:59:00 AM,12/31/2016 04:01:00 PM,SR Created,BOS,Bulky Items,Closed,Driver Self Report,,Y,NC,01/03/2017 12:00:00 AM,12/31/2016 04:01:00 PM,Y,N,"3217 N FARNSWORTH AVE, 90032",3217,N,FARNSWORTH,AVE,90032,34.08372753,-118.1656841,"(34.0837275311, -118.165684077)",595,F,6,East Los Angeles APC,14,Jose Huizar,48,LA-32 NC,HOLLENBECK,23449,502,613,,9,91
1-410817851,12/31/2016 11:59:00 AM,01/03/2017 10:27:00 AM,SR Created,BOS,Bulky Items,Closed,Call,,N,WLA,01/03/2017 12:00:00 AM,01/03/2017 10:27:00 AM,Y,N,"1311 E VENICE BLVD, 90291",1311,E,VENICE,BLVD,90291,33.99570103,-118.4499478,"(33.9957010284, -118.449947822)",672,A,5,West Los Angeles APC,11,Mike Bonin,68,VENICE NC,PACIFIC,25073,911,854,10,10,30
1-410816961,12/31/2016 11:58:00 AM,01/07/2017 02:15:00 PM,SR Created,BOS,Bulky Items,Closed,Call,,N,EV,01/06/2017 12:00:00 AM,01/07/2017 02:15:00 PM,Y,N,"9354 N LANGDON AVE, 91343",9354,N,LANGDON,AVE,91343,34.24048778,-118.468947,"(34.2404877772, -118.468946991)",501,G,6,North Valley APC,7,Vacant,112,NORTH HILLS EAST,MISSION,18914,116,1092,,1,73
1-410817091,12/31/2016 11:58:00 AM,01/09/2017 01:49:00 PM,SR Created,BOS,Bulky Items,Closed,Call,,Y,EV,01/09/2017 12:00:00 AM,01/09/2017 01:49:00 PM,Y,N,"10966 N HILLHAVEN AVE, 91042",10966,N,HILLHAVEN,AVE,91042,34.26849761,-118.287802,"(34.2684976107, -118.287801961)",504,A,2,North Valley APC,7,Vacant,10,SUNLAND-TUJUNGA NC,FOOTHILL,3222,2,532,,1,7
1-410815569,12/31/2016 11:57:00 AM,01/05/2017 11:55:00 AM,SR Created,BOS,Bulky Items,Closed,Mobile App,Android,Y,WV,01/05/2017 12:00:00 AM,01/05/2017 11:55:00 AM,Y,,"16656 W LOS ALIMOS ST, 91344",16656,W,LOS ALIMOS,ST,91344,34.26546415,-118.4955566,"(34.2654641496, -118.495556642)",501,D,3,North Valley APC,12,Mitchell Englander,118,GRANADA HILLS SOUTH NC,DEVONSHIRE,19329,77,1240,,2,79
1-410816711,12/31/2016 11:57:00 AM,12/31/2016 04:01:00 PM,SR Created,BOS,Bulky Items,Closed,Driver Self Report,,Y,NC,01/03/2017 12:00:00 AM,12/31/2016 04:01:00 PM,Y,N,"3326 N FARNSWORTH AVE, 90032",3326,N,FARNSWORTH,AVE,90032,34.08497154,-118.1654575,"(34.0849715391, -118.165457488)",595,F,6,East Los Angeles APC,14,Jose Huizar,48,LA-32 NC,HOLLENBECK,23449,502,609,,9,91
1-410815691,12/31/2016 11:56:00 AM,01/07/2017 01:40:00 PM,SR Created,BOS,Bulky Items,Closed,Call,,N,WLA,01/07/2017 12:00:00 AM,01/07/2017 01:40:00 PM,Y,N,"2911 S REDONDO BLVD, 90016",2911,S,REDONDO,BLVD,90016,34.02673876,-118.3588348,"(34.0267387636, -118.358834849)",633,B,7,South Los Angeles APC,10,Herb J. Wesson Jr.,75,WEST ADAMS NC,SOUTHWEST,23077,666,986,,12,17
1-410813301,12/31/2016 11:54:00 AM,12/31/2016 04:01:00 PM,SR Created,BOS,Bulky Items,Closed,Driver Self Report,,Y,NC,01/03/2017 12:00:00 AM,12/31/2016 04:01:00 PM,Y,N,"3518 N SHEFFIELD AVE, 90032",3518,N,SHEFFIELD,AVE,90032,34.08695342,-118.1613379,"(34.0869534185, -118.161337896)",595,G,6,East Los Angeles APC,14,Jose Huizar,48,LA-32 NC,HOLLENBECK,23449,502,609,,9,91
1-410813521,12/31/2016 11:52:00 AM,12/31/2016 04:01:00 PM,SR Created,BOS,Bulky Items,Closed,Driver Self Report,,Y,NC,01/03/2017 12:00:00 AM,12/31/2016 04:01:00 PM,Y,N,"3530 N SHEFFIELD AVE, 90032",3530,N,SHEFFIELD,AVE,90032,34.08732126,-118.1613384,"(34.0873212596, -118.161338437)",595,G,6,East Los Angeles APC,14,Jose Huizar,48,LA-32 NC,HOLLENBECK,23449,502,609,,9,91
1-410812131,12/31/2016 11:51:00 AM,01/06/2017 10:04:00 AM,SR Created,BOS,Bulky Items,Closed,Self Service,,N,NC,01/06/2017 12:00:00 AM,01/06/2017 10:04:00 AM,Y,N,"1838 N EDGEMONT ST, 90027",1838,N,EDGEMONT,ST,90027,34.10460898,-118.2960745,"(34.1046089757, -118.296074477)",593,J,4,Central APC,4,David Ryu,36,LOS FELIZ NC,NORTHEAST,23445,401,1327,16,7,3
1-410812651,12/31/2016 11:51:00 AM,01/06/2017 07:22:00 AM,SR Created,BOS,Bulky Items,Closed,Self Service,,N,WV,01/06/2017 12:00:00 AM,01/06/2017 07:22:00 AM,Y,N,"17641 W KITTRIDGE ST, 91406",17641,W,KITTRIDGE,ST,91406,34.19034905,-118.5178835,"(34.1903490475, -118.517883485)",531,B,6,South Valley APC,6,Nury Martinez,19,LAKE BALBOA NC,WEST VALLEY,19734,260,571,,3,61
1-410811982,12/31/2016 11:51:00 AM,01/05/2017 11:42:00 AM,SR Created,BOS,Bulky Items,Closed,Mobile App,Android,Y,WV,01/05/2017 12:00:00 AM,01/05/2017 11:42:00 AM,Y,,"16709 W CHATSWORTH ST, 91344",16709,W,CHATSWORTH,ST,91344,34.26486325,-118.4960188,"(34.2648632517, -118.496018781)",501,D,3,North Valley APC,12,Mitchell Englander,118,GRANADA HILLS SOUTH NC,DEVONSHIRE,19329,77,1240,,2,79
1-410807981,12/31/2016 11:50:00 AM,12/31/2016 04:01:00 PM,SR Created,BOS,Bulky Items,Closed,Driver Self Report,,Y,NC,01/03/2017 12:00:00 AM,12/31/2016 04:01:00 PM,Y,N,"3716 N SHEFFIELD AVE, 90032",3716,N,SHEFFIELD,AVE,90032,34.0881421,-118.1613503,"(34.0881420991, -118.161350284)",595,G,5,East Los Angeles APC,14,Jose Huizar,48,LA-32 NC,HOLLENBECK,23449,502,609,,9,91
1-410807421,12/31/2016 11:49:00 AM,01/03/2017 12:07:00 PM,SR Created,BOS,Bulky Items,Closed,Call,,N,WV,01/03/2017 12:00:00 AM,01/03/2017 12:07:00 PM,Y,N,"19516 W ELKWOOD ST, 91335",19516,W,ELKWOOD,ST,91335,34.21264334,-118.5587648,"(34.212643336, -118.55876478)",530,F,3,South Valley APC,3,Bob Blumenfield,15,RESEDA NC,WEST VALLEY,18909,255,1545,,4,12
1-410809831,12/31/2016 11:48:00 AM,12/31/2016 04:02:00 PM,SR Created,BOS,Bulky Items,Closed,Driver Self Report,,Y,NC,01/03/2017 12:00:00 AM,12/31/2016 04:02:00 PM,Y,N,"3723 N SHEFFIELD AVE, 90032",3723,N,SHEFFIELD,AVE,90032,34.08844955,-118.1616833,"(34.0884495535, -118.161683347)",595,G,5,East Los Angeles APC,14,Jose Huizar,48,LA-32 NC,HOLLENBECK,23449,502,609,,9,91
1-410809711,12/31/2016 11:47:00 AM,01/05/2017 08:33:00 AM,SR Created,BOS,Bulky Items,Closed,Self Service,,N,EV,01/05/2017 12:00:00 AM,01/05/2017 08:33:00 AM,Y,N,"14440 W DICKENS ST, 91423",14440,W,DICKENS,ST,91423,34.14954551,-118.447592,"(34.1495455081, -118.447592021)",562,A,5,South Valley APC,4,David Ryu,26,SHERMAN OAKS NC,VAN NUYS,19736,334,681,,7,83
1-410808931,12/31/2016 11:47:00 AM,01/05/2017 10:19:00 AM,SR Created,BOS,Bulky Items,Closed,Call,,Y,NC,01/05/2017 12:00:00 AM,01/05/2017 10:19:00 AM,Y,N,"1908 W KENT ST, 90026",1908,W,KENT,ST,90026,34.07386099,-118.2640385,"(34.0738609935, -118.264038514)",634,D,1,East Los Angeles APC,13,Mitch O'Farrell,44,GREATER ECHO PARK ELYSIAN NC,RAMPART,23444,471,635,,8,31
1-410806211,12/31/2016 11:46:00 AM,01/06/2017 08:29:00 AM,SR Created,BOS,Bulky Items,Closed,Call,,N,WV,01/06/2017 12:00:00 AM,01/06/2017 08:29:00 AM,Y,N,"18408 W HATTERAS ST, 91356",18408,W,HATTERAS,ST,91356,34.17724897,-118.5336558,"(34.1772489691, -118.533655777)",560,J,1,South Valley APC,3,Bob Blumenfield,17,TARZANA NC,WEST VALLEY,19339,319,327,,4,10
1-410801781,12/31/2016 11:42:00 AM,01/05/2017 12:23:00 PM,SR Created,BOS,Bulky Items,Closed,Call,,Y,WLA,01/05/2017 12:00:00 AM,01/05/2017 12:23:00 PM,Y,N,"2269 PARNELL AV, 90064",2269,,PARNELL,AV,90064,34.04622689,-118.4245004,"(34.0462268909, -118.424500378)",632,D,5,West Los Angeles APC,5,Paul Koretz,62,WESTSIDE NC,WEST LOS ANGELES,24029,871,816,9,6,75
1-410800847,12/31/2016 11:41:00 AM,01/05/2017 01:28:00 PM,SR Created,BOS,Bulky Items,Closed,Mobile App,iOS,N,HB,01/05/2017 12:00:00 AM,01/05/2017 01:28:00 PM,Y,,"2249 W AMIRANTE DR, 90732",2249,W,AMIRANTE,DR,90732,33.7291138,-118.3257081,"(33.7291137966, -118.325708096)",823,G,6,Harbor APC,15,Joe Buscaino,96,COASTAL SAN PEDRO NC,HARBOR,3343,984,1213,,15,33
1-410800721,12/31/2016 11:41:00 AM,01/05/2017 11:01:00 AM,SR Created,BOS,Bulky Items,Closed,Self Service,,N,WV,01/05/2017 12:00:00 AM,01/05/2017 11:01:00 AM,Y,N,"16866 W KINGSBURY ST, 91344",16866,W,KINGSBURY,ST,91344,34.26290247,-118.5002319,"(34.262902467, -118.500231907)",501,D,3,North Valley APC,12,Mitchell Englander,118,GRANADA HILLS SOUTH NC,DEVONSHIRE,19329,85,324,,2,79
1-410796071,12/31/2016 11:37:00 AM,01/03/2017 11:55:00 AM,SR Created,BOS,Bulky Items,Closed,Call,,N,NC,01/03/2017 12:00:00 AM,01/03/2017 11:55:00 AM,Y,N,"4914 E NAVARRO ST, 90032",4914,E,NAVARRO,ST,90032,34.0860486,-118.1757752,"(34.086048603, -118.175775234)",595,E,6,East Los Angeles APC,14,Jose Huizar,48,LA-32 NC,HOLLENBECK,23449,503,611,,9,91
1-410792341,12/31/2016 11:35:00 AM,01/03/2017 11:23:00 AM,SR Created,BOS,Bulky Items,Closed,Call,,N,SLA,01/03/2017 12:00:00 AM,01/03/2017 11:23:00 AM,Y,N,"2175 W 26TH PL, 90018",2175,W,26TH,PL,90018,34.03185269,-118.3141251,"(34.0318526914, -118.314125094)",633,H,7,South Los Angeles APC,10,Herb J. Wesson Jr.,74,"UNITED NEIGHBORHOODS OF THE HISTORIC ARLINGTON HEIGHTS, WEST ADAMS, AND JEFFERSON PARK COMMUNITY",SOUTHWEST,23079,677,902,7,12,19
1-410788482,12/31/2016 11:28:00 AM,01/03/2017 09:09:00 AM,SR Created,BOS,Bulky Items,Closed,Mobile App,iOS,N,NC,01/03/2017 12:00:00 AM,01/03/2017 09:09:00 AM,Y,,"303 N SAN FERNANDO ROAD, 90031",303,N,SAN FERNANDO,ROAD,90031,34.07691728,-118.2230601,"(34.0769172756, -118.223060095)",594,J,7,East Los Angeles APC,1,Gilbert Cedillo,47,LINCOLN HEIGHTS NC,HOLLENBECK,23448,485,648,1,11,1
1-410787231,12/31/2016 11:27:00 AM,01/09/2017 12:08:00 PM,SR Created,BOS,Bulky Items,Closed,Mobile App,Android,N,NC,01/09/2017 12:00:00 AM,01/09/2017 12:08:00 PM,Y,,"7057 W LANEWOOD AVE, 90028",7057,W,LANEWOOD,AVE,90028,34.09931872,-118.3434806,"(34.0993187226, -118.343480603)",593,D,4,Central APC,13,Mitch O'Farrell,32,CENTRAL HOLLYWOOD NC,HOLLYWOOD,23446,414,1303,,8,34
1-410786951,12/31/2016 11:26:00 AM,01/05/2017 07:59:00 AM,SR Created,BOS,Bulky Items,Closed,Call,,N,NC,01/05/2017 12:00:00 AM,01/05/2017 07:59:00 AM,Y,N,"307 N RAMPART BLVD, 90026",307,N,RAMPART,BLVD,90026,34.07284175,-118.2748781,"(34.0728417494, -118.274878127)",634,C,1,East Los Angeles APC,13,Mitch O'Farrell,44,GREATER ECHO PARK ELYSIAN NC,RAMPART,23444,472,612,,8,31
1-410786806,12/31/2016 11:25:00 AM,01/07/2017 01:30:00 PM,SR Created,BOS,Bulky Items,Closed,Mobile App,iOS,Y,WLA,01/07/2017 12:00:00 AM,01/07/2017 01:30:00 PM,Y,,"3769 S HUGHES AVE, 90034",3769,S,HUGHES,AVE,90034,34.02387356,-118.399549,"(34.0238735615, -118.39954903)",672,G,1,West Los Angeles APC,5,Paul Koretz,115,PALMS NC,PACIFIC,23451,883,688,9,6,74
1-410785327,12/31/2016 11:24:00 AM,01/04/2017 11:59:00 AM,SR Created,BOS,Bulky Items,Closed,Mobile App,iOS,N,WV,01/04/2017 12:00:00 AM,01/04/2017 11:59:00 AM,Y,,"10025 N DE SOTO AVE, 91311",10025,N,DE SOTO,AVE,91311,34.25234397,-118.5887941,"(34.2523439665, -118.588794053)",500,C,5,North Valley APC,12,Mitchell Englander,99,CHATSWORTH NC,DEVONSHIRE,4284,99,233,,2,43
1-410783931,12/31/2016 11:22:00 AM,01/04/2017 09:47:00 AM,SR Created,BOS,Bulky Items,Closed,Mobile App,iOS,N,WV,01/04/2017 12:00:00 AM,01/04/2017 09:47:00 AM,Y,,"9937 N DE SOTO AVE, 91311",9937,N,DE SOTO,AVE,91311,34.25106267,-118.5889148,"(34.2510626748, -118.588914824)",500,C,5,North Valley APC,12,Mitchell Englander,99,CHATSWORTH NC,DEVONSHIRE,4284,99,233,,2,43
1-410784641,12/31/2016 11:20:00 AM,01/03/2017 02:18:00 PM,SR Created,BOS,Bulky Items,Closed,Call,,Y,HB,01/03/2017 12:00:00 AM,01/03/2017 02:18:00 PM,Y,N,"724 W 146TH ST, 90247",724,W,146TH,ST,90247,33.89949342,-118.2885292,"(33.8994934168, -118.28852917)",734,B,4,Harbor APC,15,Joe Buscaino,90,HARBOR GATEWAY NORTH NC,SOUTHEAST,24684,940,761,7,15,53
1-410780211,12/31/2016 11:19:00 AM,01/03/2017 02:05:00 PM,SR Created,BOS,Bulky Items,Closed,Call,,N,EV,01/03/2017 12:00:00 AM,01/03/2017 02:05:00 PM,Y,N,"11735 N TRIPOLI AVE, 91342",11735,N,TRIPOLI,AVE,91342,34.28313385,-118.3893298,"(34.283133853, -118.389329849)",482,G,7,North Valley APC,7,Vacant,9,FOOTHILL TRAILS DISTRICT NC,FOOTHILL,18912,16,1559,,1,9
1-410783501,12/31/2016 11:19:00 AM,01/07/2017 02:11:00 PM,SR Created,BOS,Bulky Items,Closed,Call,,N,EV,01/07/2017 12:00:00 AM,01/07/2017 02:11:00 PM,Y,N,"12721 N COMETA AVE, 91340",12721,N,COMETA,AVE,91340,34.30120246,-118.4280803,"(34.3012024581, -118.428080348)",482,C,5,North Valley APC,7,Vacant,5,SYLMAR NC,MISSION,18910,42,285,,1,47
1-410780291,12/31/2016 11:19:00 AM,01/03/2017 02:21:00 PM,SR Created,BOS,Bulky Items,Closed,Call,,Y,HB,01/03/2017 12:00:00 AM,01/03/2017 02:21:00 PM,Y,N,"724 W 146TH ST, 90247",724,W,146TH,ST,90247,33.89949342,-118.2885292,"(33.8994934168, -118.28852917)",734,B,4,Harbor APC,15,Joe Buscaino,90,HARBOR GATEWAY NORTH NC,SOUTHEAST,24684,940,761,7,15,53
1-410779621,12/31/2016 11:16:00 AM,01/07/2017 01:53:00 PM,SR Created,BOS,Bulky Items,Closed,Call,,N,EV,01/07/2017 12:00:00 AM,01/07/2017 01:53:00 PM,Y,N,"15025 W HIAWATHA ST, 91345",15025,W,HIAWATHA,ST,91345,34.2592161,-118.4595914,"(34.2592161026, -118.459591394)",501,H,4,North Valley APC,7,Vacant,101,MISSION HILLS NC,MISSION,19330,74,398,,1,4
1-410772791,12/31/2016 11:10:00 AM,01/03/2017 08:24:00 AM,SR Created,BOS,Bulky Items,Closed,Call,,Y,WLA,01/03/2017 12:00:00 AM,01/03/2017 08:24:00 AM,Y,N,"2415 S OCEAN AVE, 90291",2415,S,OCEAN,AVE,90291,33.98532864,-118.4637871,"(33.9853286367, -118.463787065)",671,H,6,West Los Angeles APC,11,Mike Bonin,68,VENICE NC,PACIFIC,25073,913,1133,10,10,30
1-410773800,12/31/2016 11:09:00 AM,01/05/2017 10:17:00 AM,SR Created,BOS,Bulky Items,Closed,Mobile App,iOS,N,NC,01/05/2017 12:00:00 AM,01/05/2017 10:17:00 AM,Y,,"218 WILHARDT ST, 90012",218,,WILHARDT,ST,90012,34.0688701,-118.2269734,"(34.0688701035, -118.226973447)",634,H,1,Central APC,1,Gilbert Cedillo,46,HISTORIC CULTURAL NC,CENTRAL,22728,531,886,1,11,28
1-410765321,12/31/2016 11:09:00 AM,01/04/2017 08:07:00 AM,SR Created,BOS,Bulky Items,Closed,Call,,N,NC,01/04/2017 12:00:00 AM,01/04/2017 08:07:00 AM,Y,N,"6220 E SAYLIN LANE, 90042",6220,E,SAYLIN,LANE,90042,34.12271334,-118.1820634,"(34.1227133419, -118.182063393)",595,D,1,East Los Angeles APC,14,Jose Huizar,41,HISTORIC HIGHLAND PARK NC,NORTHEAST,23673,359,575,,9,93
1-410773605,12/31/2016 11:09:00 AM,01/04/2017 11:06:00 AM,SR Created,BOS,Bulky Items,Closed,Mobile App,iOS,N,NC,01/04/2017 12:00:00 AM,01/04/2017 11:06:00 AM,Y,,"3569 N FLETCHER DR, 90065",3569,N,FLETCHER,DR,90065,34.11888026,-118.2361542,"(34.1188802619, -118.236154212)",594,G,1,East Los Angeles APC,13,Mitch O'Farrell,39,GLASSELL PARK NC,NORTHEAST,24030,386,476,,8,56
1-410759271,12/31/2016 11:07:00 AM,01/05/2017 01:09:00 PM,SR Created,BOS,Bulky Items,Closed,Mobile App,iOS,Y,EV,01/05/2017 12:00:00 AM,01/05/2017 01:09:00 PM,Y,,"5036 COLDWATER CANYON AV, 91423",5036,,COLDWATER CANYON,AV,91423,34.16237358,-118.413658,"(34.1623735837, -118.413657999)",562,E,3,South Valley APC,4,David Ryu,26,SHERMAN OAKS NC,VAN NUYS,19736,203,645,,7,
1-410764611,12/31/2016 11:05:00 AM,01/05/2017 01:08:00 PM,SR Created,BOS,Bulky Items,Closed,Call,,N,NC,01/05/2017 12:00:00 AM,01/05/2017 01:08:00 PM,Y,N,"730 S ALVARADO ST, 90057",730,S,ALVARADO,ST,90057,34.05546256,-118.2772435,"(34.0554625648, -118.277243531)",634,C,3,Central APC,1,Gilbert Cedillo,121,WESTLAKE SOUTH NC,RAMPART,24352,570,628,,11,68
1-410760154,12/31/2016 11:04:00 AM,01/06/2017 07:45:00 AM,SR Created,BOS,Bulky Items,Closed,Mobile App,iOS,N,WV,01/06/2017 12:00:00 AM,01/06/2017 07:45:00 AM,Y,,"6409 N BERTRAND AVE, 91335",6409,N,BERTRAND,AVE,91335,34.1871715,-118.5247625,"(34.1871715049, -118.524762523)",531,A,7,South Valley APC,3,Bob Blumenfield,15,RESEDA NC,WEST VALLEY,18909,267,247,,4,12
1-410758400,12/31/2016 11:03:00 AM,01/04/2017 01:28:00 PM,SR Created,BOS,Bulky Items,Closed,Mobile App,iOS,N,EV,01/04/2017 12:00:00 AM,01/04/2017 01:28:00 PM,Y,,"5126 N WILLOW CREST AVE, 91601",5126,N,WILLOW CREST,AVE,91601,34.1638203,-118.3625826,"(34.1638203043, -118.362582573)",563,B,2,South Valley APC,2,Paul Krekorian,24,MID-TOWN NORTH HOLLYWOOD NC,NORTH HOLLYWOOD,8488,212,338,,5,13
1-410758701,12/31/2016 11:01:00 AM,01/04/2017 06:56:00 AM,SR Created,BOS,Bulky Items,Closed,Call,,N,WV,01/04/2017 12:00:00 AM,01/04/2017 06:56:00 AM,Y,N,"20215 W GRESHAM ST, 91306",20215,W,GRESHAM,ST,91306,34.23087128,-118.574043,"(34.2308712836, -118.574042967)",530,D,1,North Valley APC,3,Bob Blumenfield,14,WINNETKA NC,DEVONSHIRE,4282,102,935,,4,66
1-410756784,12/31/2016 11:00:00 AM,01/03/2017 12:35:00 PM,SR Created,BOS,Bulky Items,Closed,Mobile App,iOS,N,SLA,01/03/2017 12:00:00 AM,01/03/2017 12:35:00 PM,Y,,"1240 W 24TH ST, 90007",1240,W,24TH,ST,90007,34.03420051,-118.287637,"(34.0342005142, -118.287637031)",634,B,6,South Los Angeles APC,8,Marqueece Harris-Dawson,77,EMPOWERMENT CONGRESS NORTH AREA NDC,SOUTHWEST,22724,682,963,7,14,32
