SRNumber,CreatedDate,UpdatedDate,ActionTaken,Owner,RequestType,Status,RequestSource,MobileOS,Anonymous,AssignTo,ServiceDate,ClosedDate,AddressVerified,ApproximateAddress,Address,HouseNumber,Direction,StreetName,Suffix,ZipCode,Latitude,Longitude,Location,TBMPage,TBMColumn,TBMRow,APC,CD,CDMember,NC,NCName,PolicePrecinct,Zip Codes,Census Tracts,Precinct Boundaries,LA Specific Plans,Council Districts,Neighborhood Councils (Certified)
1-88226601,12/31/2015 09:59:00 PM,01/02/2016 02:29:00 PM,SR Created,BOS,Dead Animal Removal,Closed,Call,,N,EV,,01/02/2016 02:29:00 PM,Y,N,"6827 W FOOTHILL BLVD, 91042",6827,W,FOOTHILL,BLVD,91042,34.24781809,-118.2802653,"(34.2478180903, -118.280265306)",504,B,5,North Valley APC,7,Felipe Fuentes,10,SUNLAND-TUJUNGA NC,FOOTHILL,3222,4,538,18,1,7
1-88226481,12/31/2015 08:15:00 PM,12/31/2015 08:21:00 PM,SR Created,BOS,Dead Animal Removal,Cancelled,Call,,N,SLA,,12/31/2015 08:21:00 PM,Y,N,"118 W 67TH ST, 90003",118,W,67TH,ST,90003,33.97897178,-118.2752618,"(33.9789717768, -118.275261824)",674,C,7,South Los Angeles APC,9,Curren D. Price Jr.,86,COMMUNITY AND NEIGHBORS FOR NINTH DISTRICT UNITY (CANNDU),NEWTON,22352,787,995,7,13,46
1-88226431,12/31/2015 08:02:00 PM,01/06/2016 09:38:00 AM,SR Created,BOS,Bulky Items,Closed,Call,,N,EV,01/06/2016 12:00:00 AM,01/06/2016 09:38:00 AM,Y,N,"14227 W MOORPARK ST, 91423",14227,W,MOORPARK,ST,91423,34.1509936,-118.4430256,"(34.1509935991, -118.443025561)",562,A,4,South Valley APC,4,David Ryu,26,SHERMAN OAKS NC,VAN NUYS,19736,333,676,,7,83
1-88214281,12/31/2015 06:59:00 PM,01/02/2016 09:04:00 AM,SR Created,BOS,Bulky Items,Closed,Email,,N,WLA,01/02/2016 12:00:00 AM,01/02/2016 09:04:00 AM,Y,N,"9032 W CRESTA DR, 90035",9032,W,CRESTA,,90035,34.04592422,-118.3875995,"(34.0459242166, -118.387599456)",632,H,5,West Los Angeles APC,5,,,SOUTH ROBERTSON NC,,23666,875,749,,6,95
1-88213271,12/31/2015 06:58:00 PM,01/02/2016 09:02:00 AM,SR Created,BOS,Bulky Items,Closed,Email,,N,WLA,01/02/2016 12:00:00 AM,01/02/2016 09:02:00 AM,Y,N,"9032 W CRESTA DR, 90035",9032,W,CRESTA,DR,90035,34.04592422,-118.3875995,"(34.0459242166, -118.387599456)",632,H,5,West Los Angeles APC,5,Paul Koretz,61,SOUTH ROBERTSON NC,WEST LOS ANGELES,23666,875,749,,6,95
1-88212231,12/31/2015 06:29:00 PM,01/04/2016 03:51:00 PM,SR Created,BOS,Metal/Household Appliances,Closed,Call,,N,SLA,01/04/2016 12:00:00 AM,01/04/2016 03:51:00 PM,Y,N,"2933 S RIMPAU BLVD, 90016",2933,S,RIMPAU,BLVD,90016,34.02703776,-118.3515512,"(34.0270377601, -118.351551166)",633,C,7,South Los Angeles APC,10,Herb J. Wesson Jr.,75,WEST ADAMS NC,SOUTHWEST,23077,664,924,7,12,17
1-88213191,12/31/2015 06:28:00 PM,01/04/2016 12:35:00 PM,SR Created,BOS,Bulky Items,Closed,Call,,N,SLA,01/04/2016 12:00:00 AM,01/04/2016 12:35:00 PM,Y,N,"2933 S RIMPAU BLVD, 90016",2933,S,RIMPAU,BLVD,90016,34.02703776,-118.3515512,"(34.0270377601, -118.351551166)",633,C,7,South Los Angeles APC,10,Herb J. Wesson Jr.,75,WEST ADAMS NC,SOUTHWEST,23077,664,924,7,12,17
1-88218911,12/31/2015 06:27:00 PM,01/04/2016 10:52:00 AM,SR Created,BOS,Bulky Items,Closed,Call,,N,SLA,01/04/2016 12:00:00 AM,01/04/2016 10:52:00 AM,Y,N,"2933 S RIMPAU BLVD, 90016",2933,S,RIMPAU,BLVD,90016,34.02703776,-118.3515512,"(34.0270377601, -118.351551166)",633,C,7,South Los Angeles APC,10,Herb J. Wesson Jr.,75,WEST ADAMS NC,SOUTHWEST,23077,664,924,7,12,17
1-88218741,12/31/2015 06:14:00 PM,01/06/2016 12:33:00 PM,SR Created,BOS,Metal/Household Appliances,Closed,Call,,N,EV,01/06/2016 12:00:00 AM,01/06/2016 12:33:00 PM,Y,N,"15014 W MAGNOLIA BLVD, 91403",15014,W,MAGNOLIA,BLVD,91403,34.16479842,-118.4601816,"(34.1647984222, -118.460181622)",561,J,3,South Valley APC,4,David Ryu,26,SHERMAN OAKS NC,VAN NUYS,19732,248,675,,7,83
1-88213931,12/31/2015 06:13:00 PM,01/06/2016 10:48:00 AM,SR Created,BOS,Bulky Items,Closed,Call,,N,EV,01/06/2016 12:00:00 AM,01/06/2016 10:48:00 AM,Y,N,"15014 W MAGNOLIA BLVD, 91403",15014,W,MAGNOLIA,BLVD,91403,34.16479842,-118.4601816,"(34.1647984222, -118.460181622)",561,J,3,South Valley APC,4,David Ryu,26,SHERMAN OAKS NC,VAN NUYS,19732,248,675,,7,83
1-88213651,12/31/2015 05:52:00 PM,01/02/2016 09:40:00 AM,SR Created,BOS,Bulky Items,Closed,Call,,N,WV,01/02/2016 12:00:00 AM,01/02/2016 09:40:00 AM,Y,N,"22633 W MARGARITA DR, 91364",22633,W,MARGARITA,DR,91364,34.15114355,-118.6193764,"(34.1511435547, -118.619376415)",559,H,5,South Valley APC,3,Bob Blumenfield,16,WOODLAND HILLS-WARNER CENTER NC,TOPANGA,19346,310,985,11,4,49
1-88218451,12/31/2015 05:46:00 PM,01/04/2016 01:56:00 PM,SR Created,BOS,Bulky Items,Closed,Call,,N,NC,01/04/2016 12:00:00 AM,01/04/2016 01:56:00 PM,Y,N,"2519 N SICHEL ST, 90031",2519,N,SICHEL,ST,90031,34.07606342,-118.2132861,"(34.0760634185, -118.21328611)",595,A,7,East Los Angeles APC,1,Gilbert Cedillo,47,LINCOLN HEIGHTS NC,HOLLENBECK,23448,488,516,,11,1
1-88218341,12/31/2015 05:43:00 PM,01/02/2016 02:56:00 PM,SR Created,BOS,Metal/Household Appliances,Cancelled,Call,,N,EV,01/06/2016 12:00:00 AM,01/02/2016 02:56:00 PM,Y,N,"14749 W MAGNOLIA BLVD, 91403",14749,W,MAGNOLIA,BLVD,91403,34.16501948,-118.454757,"(34.1650194809, -118.454757002)",561,J,2,South Valley APC,4,David Ryu,26,SHERMAN OAKS NC,VAN NUYS,19732,247,346,,7,83
1-88218401,12/31/2015 05:43:00 PM,01/02/2016 09:07:00 AM,SR Created,BOS,Electronic Waste,Closed,Call,,N,NC,01/02/2016 12:00:00 AM,01/02/2016 09:07:00 AM,Y,N,"1121 S LUCERNE BLVD, 90019",1121,S,LUCERNE,BLVD,90019,34.05327761,-118.3292169,"(34.0532776087, -118.329216872)",633,F,4,Central APC,10,Herb J. Wesson Jr.,104,OLYMPIC PARK NC,WILSHIRE,23080,614,1345,,12,52
1-88212671,12/31/2015 05:43:00 PM,01/02/2016 10:20:00 AM,SR Created,BOS,Bulky Items,Closed,Call,,N,NC,01/02/2016 12:00:00 AM,01/02/2016 10:20:00 AM,Y,N,"1121 S LUCERNE BLVD, 90019",1121,S,LUCERNE,BLVD,90019,34.05327761,-118.3292169,"(34.0532776087, -118.329216872)",633,F,4,Central APC,10,Herb J. Wesson Jr.,104,OLYMPIC PARK NC,WILSHIRE,23080,614,1345,,12,52
1-88213361,12/31/2015 05:24:00 PM,01/02/2016 09:54:00 AM,SR Created,BOS,Bulky Items,Closed,Email,,N,EV,01/02/2016 12:00:00 AM,01/02/2016 09:54:00 AM,Y,N,"13213 W JUDD ST, 91331",13213,W,JUDD,ST,91331,34.27096249,-118.4212549,"(34.2709624903, -118.421254905)",502,D,2,North Valley APC,7,Felipe Fuentes,7,PACOIMA NC,FOOTHILL,18907,24,1376,,1,11
1-88212471,12/31/2015 05:21:00 PM,01/02/2016 08:08:00 AM,SR Created,BOS,Dead Animal Removal,Closed,Call,,N,HB,,01/02/2016 08:08:00 AM,Y,N,"830 W 1ST ST, 90731",830,W,1ST,ST,90731,33.7434187,-118.2952853,"(33.7434186986, -118.295285294)",824,A,4,Harbor APC,15,Joe Buscaino,95,CENTRAL SAN PEDRO NC,HARBOR,3342,975,1205,,15,36
1-88209271,12/31/2015 05:18:00 PM,01/02/2016 09:10:00 AM,SR Created,BOS,Bulky Items,Closed,Call,,N,SLA,01/02/2016 12:00:00 AM,01/02/2016 09:10:00 AM,Y,N,"830 E 116TH PL, 90059",830,E,116TH,PL,90059,33.92815414,-118.2597513,"(33.9281541432, -118.259751336)",704,E,7,South Los Angeles APC,15,Joe Buscaino,90,HARBOR GATEWAY NORTH NC,SOUTHEAST,24354,809,1194,7,15,53
1-88209201,12/31/2015 05:16:00 PM,01/02/2016 11:05:00 AM,SR Created,BOS,Bulky Items,Closed,Call,,Y,NC,01/02/2016 12:00:00 AM,01/02/2016 11:05:00 AM,Y,N,"746 N CHEROKEE AVE, 90038",746,N,CHEROKEE,AVE,90038,34.0848085,-118.3351224,"(34.0848085036, -118.33512238)",593,E,6,Central APC,4,David Ryu,119,GREATER WILSHIRE NC,WILSHIRE,23669,445,869,,7,86
1-88212411,12/31/2015 05:16:00 PM,01/02/2016 11:06:00 AM,SR Created,BOS,Illegal Dumping Pickup,Closed,Call,,N,NC,01/02/2016 12:00:00 AM,01/02/2016 11:06:00 AM,Y,N,"746 N CHEROKEE AVE, 90038",746,N,CHEROKEE,AVE,90038,34.0848085,-118.3351224,"(34.0848085036, -118.33512238)",593,E,6,Central APC,4,David Ryu,119,GREATER WILSHIRE NC,WILSHIRE,23669,445,869,,7,86
1-88209061,12/31/2015 04:52:00 PM,01/07/2016 11:43:00 AM,SR Created,BOS,Bulky Items,Closed,Call,,N,NC,01/07/2016 12:00:00 AM,01/07/2016 11:43:00 AM,Y,N,"1836 N NEW HAMPSHIRE AVE, 90027",1836,N,NEW HAMPSHIRE,AVE,90027,34.10464786,-118.2931942,"(34.1046478573, -118.293194179)",594,A,3,Central APC,4,David Ryu,36,LOS FELIZ NC,NORTHEAST,23445,401,1328,16,7,3
1-88209971,12/31/2015 04:50:00 PM,01/07/2016 12:53:00 PM,SR Created,BOS,Bulky Items,Closed,Call,,N,NC,01/07/2016 12:00:00 AM,01/07/2016 12:53:00 PM,Y,N,"1836 N NEW HAMPSHIRE AVE, 90027",1836,N,NEW HAMPSHIRE,AVE,90027,34.10464786,-118.2931942,"(34.1046478573, -118.293194179)",594,A,3,Central APC,4,David Ryu,36,LOS FELIZ NC,NORTHEAST,23445,401,1328,16,7,3
1-88209911,12/31/2015 04:48:00 PM,01/07/2016 12:16:00 PM,SR Created,BOS,Bulky Items,Closed,Call,,Y,SLA,01/07/2016 12:00:00 AM,01/07/2016 12:16:00 PM,Y,N,"6526 S ARLINGTON AVE, 90043",6526,S,ARLINGTON,AVE,90043,33.98026586,-118.3186106,"(33.9802658594, -118.318610597)",673,G,7,South Los Angeles APC,8,Marqueece Harris-Dawson,80,PARK MESA HEIGHTS CC,77TH STREET,23674,754,1060,7,14,24
1-88207261,12/31/2015 04:47:00 PM,01/07/2016 09:41:00 AM,SR Created,BOS,Illegal Dumping Pickup,Closed,Call,,Y,SLA,01/07/2016 12:00:00 AM,01/07/2016 09:41:00 AM,Y,N,"6526 S ARLINGTON AVE, 90043",6526,S,ARLINGTON,AVE,90043,33.98026586,-118.3186106,"(33.9802658594, -118.318610597)",673,G,7,South Los Angeles APC,8,Marqueece Harris-Dawson,80,PARK MESA HEIGHTS CC,77TH STREET,23674,754,1060,7,14,24
1-88208911,12/31/2015 04:47:00 PM,01/04/2016 04:53:00 PM,SR Created,BOS,Bulky Items,Closed,Call,,N,WLA,01/04/2016 12:00:00 AM,01/04/2016 04:53:00 PM,Y,N,"2440 S LOUELLA AVE, 90291",2440,S,LOUELLA,AVE,90291,33.99525431,-118.4473352,"(33.9952543109, -118.447335192)",672,A,5,West Los Angeles APC,11,Mike Bonin,68,VENICE NC,PACIFIC,25073,912,1394,10,10,30
1-88209711,12/31/2015 04:42:00 PM,01/02/2016 08:56:00 AM,SR Created,BOS,Bulky Items,Closed,Call,,N,NC,01/02/2016 12:00:00 AM,01/02/2016 08:56:00 AM,Y,N,"7056 W LANEWOOD AVE, 90028",7056,W,LANEWOOD,AVE,90028,34.09906883,-118.3434775,"(34.0990688306, -118.343477547)",593,D,4,Central APC,13,Mitch O'Farrell,32,CENTRAL HOLLYWOOD NC,HOLLYWOOD,23446,414,1303,,8,34
1-88207131,12/31/2015 04:42:00 PM,01/04/2016 01:20:00 PM,SR Created,BOS,Bulky Items,Closed,Call,,N,EV,01/04/2016 12:00:00 AM,01/04/2016 01:20:00 PM,Y,N,"8231 W WYNGATE ST, 91040",8231,W,WYNGATE,ST,91040,34.25787936,-118.3126765,"(34.2578793644, -118.312676464)",503,G,3,North Valley APC,7,Felipe Fuentes,10,SUNLAND-TUJUNGA NC,FOOTHILL,3221,15,260,18,1,7
1-88209761,12/31/2015 04:42:00 PM,01/02/2016 08:09:00 AM,SR Created,BOS,Illegal Dumping Pickup,Closed,Call,,Y,HB,01/02/2016 12:00:00 AM,01/02/2016 08:09:00 AM,Y,N,"765 W 17TH ST, 90731",765,W,17TH,ST,90731,33.72874839,-118.2936874,"(33.7287483944, -118.293687449)",824,B,6,Harbor APC,15,Joe Buscaino,95,CENTRAL SAN PEDRO NC,HARBOR,3342,976,1207,,15,36
1-88207911,12/31/2015 04:41:00 PM,01/02/2016 09:36:00 AM,SR Created,BOS,Bulky Items,Closed,Call,,N,WLA,01/02/2016 12:00:00 AM,01/02/2016 09:36:00 AM,Y,N,"3607 S HUGHES AVE, 90034",3607,S,HUGHES,AVE,90034,34.02742298,-118.4021368,"(34.0274229837, -118.402136765)",632,F,7,West Los Angeles APC,5,Paul Koretz,115,PALMS NC,PACIFIC,23451,883,1129,9,6,74
1-88207061,12/31/2015 04:41:00 PM,01/05/2016 10:25:00 AM,SR Created,BOS,Bulky Items,Closed,Call,,N,SLA,01/05/2016 12:00:00 AM,01/05/2016 10:25:00 AM,Y,N,"5328 S 6TH AVE, 90043",5328,S,6TH,AVE,90043,33.99413162,-118.3235185,"(33.9941316173, -118.323518453)",673,G,5,South Los Angeles APC,8,Marqueece Harris-Dawson,80,PARK MESA HEIGHTS CC,77TH STREET,23674,752,1036,7,14,24
1-88207761,12/31/2015 04:38:00 PM,01/06/2016 12:39:00 PM,SR Created,BOS,Electronic Waste,Closed,Call,,N,WLA,01/06/2016 12:00:00 AM,01/06/2016 12:39:00 PM,Y,N,"6716 W 85TH PL, 90045",6716,W,85TH,PL,90045,33.96027197,-118.4078122,"(33.9602719715, -118.407812246)",702,F,3,West Los Angeles APC,11,Mike Bonin,71,NC WESTCHESTER/PLAYA,PACIFIC,23676,927,443,10,10,16
1-88207711,12/31/2015 04:37:00 PM,01/04/2016 09:36:00 AM,SR Created,BOS,Bulky Items,Closed,Call,,N,WLA,01/04/2016 12:00:00 AM,01/04/2016 09:36:00 AM,Y,N,"6716 W 85TH PL, 90045",6716,W,85TH,PL,90045,33.96027197,-118.4078122,"(33.9602719715, -118.407812246)",702,F,3,West Los Angeles APC,11,Mike Bonin,71,NC WESTCHESTER/PLAYA,PACIFIC,23676,927,443,10,10,16
1-88209521,12/31/2015 04:37:00 PM,01/06/2016 11:29:00 AM,SR Created,BOS,Bulky Items,Closed,Call,,N,SLA,01/06/2016 12:00:00 AM,01/06/2016 11:29:00 AM,Y,N,"404 E 43RD PL, 90011",404,E,43RD,PL,90011,34.00472357,-118.267692,"(34.004723571, -118.26769197)",674,D,3,South Los Angeles APC,9,Curren D. Price Jr.,125,ZAPATA KING NC,NEWTON,22727,716,1342,7,13,
1-88208611,12/31/2015 04:36:00 PM,01/06/2016 01:02:00 PM,SR Created,BOS,Bulky Items,Closed,Call,,N,SLA,01/06/2016 12:00:00 AM,01/06/2016 01:02:00 PM,Y,N,"404 E 43RD PL, 90011",404,E,43RD,PL,90011,34.00472357,-118.267692,"(34.004723571, -118.26769197)",674,D,3,South Los Angeles APC,9,Curren D. Price Jr.,125,ZAPATA KING NC,NEWTON,22727,716,1342,7,13,
1-88206831,12/31/2015 04:34:00 PM,01/05/2016 11:15:00 AM,SR Created,BOS,Bulky Items,Closed,Call,,Y,NC,01/05/2016 12:00:00 AM,01/05/2016 11:15:00 AM,Y,N,"404 W JAMES ST, 90065",404,W,JAMES,ST,90065,34.09024337,-118.2164562,"(34.0902433701, -118.216456219)",595,A,5,East Los Angeles APC,1,Gilbert Cedillo,102,GREATER CYPRESS PARK NC,NORTHEAST,24030,377,482,13,11,94
1-88208411,12/31/2015 04:33:00 PM,01/06/2016 10:57:00 AM,SR Created,BOS,Bulky Items,Closed,Call,,N,EV,01/06/2016 12:00:00 AM,01/06/2016 10:57:00 AM,Y,N,"4907 N KESTER AVE, 91403",4907,N,KESTER,AVE,91403,34.15973892,-118.4576337,"(34.1597389168, -118.457633715)",561,J,3,South Valley APC,4,David Ryu,26,SHERMAN OAKS NC,VAN NUYS,19732,248,675,,7,83
1-88204221,12/31/2015 04:31:00 PM,01/04/2016 09:37:00 AM,SR Created,BOS,Metal/Household Appliances,Closed,Call,,Y,NC,01/04/2016 12:00:00 AM,01/04/2016 09:37:00 AM,Y,N,"3123 N LOWELL AVE, 90032",3123,N,LOWELL,AVE,90032,34.08177374,-118.1625942,"(34.0817737428, -118.162594184)",595,G,6,East Los Angeles APC,14,Jose Huizar,48,LA-32 NC,HOLLENBECK,23449,502,609,,9,91
1-88206751,12/31/2015 04:31:00 PM,01/06/2016 10:56:00 AM,SR Created,BOS,Bulky Items,Closed,Call,,N,EV,01/06/2016 12:00:00 AM,01/06/2016 10:56:00 AM,Y,N,"4907 N KESTER AVE, 91403",4907,N,KESTER,AVE,91403,34.15973892,-118.4576337,"(34.1597389168, -118.457633715)",561,J,3,South Valley APC,4,David Ryu,26,SHERMAN OAKS NC,VAN NUYS,19732,248,675,,7,83
1-88203271,12/31/2015 04:29:00 PM,01/04/2016 10:06:00 AM,SR Created,BOS,Electronic Waste,Closed,Call,,Y,NC,01/04/2016 12:00:00 AM,01/04/2016 10:06:00 AM,Y,N,"3123 N LOWELL AVE, 90032",3123,N,LOWELL,AVE,90032,34.08177374,-118.1625942,"(34.0817737428, -118.162594184)",595,G,6,East Los Angeles APC,14,Jose Huizar,48,LA-32 NC,HOLLENBECK,23449,502,609,,9,91
1-88207301,12/31/2015 04:29:00 PM,01/02/2016 12:00:00 PM,SR Created,BOS,Bulky Items,Closed,Call,,N,SLA,01/02/2016 12:00:00 AM,01/02/2016 12:00:00 PM,Y,N,"9210 S GRAHAM AVE, 90002",9210,S,GRAHAM,AVE,90002,33.95284335,-118.2429333,"(33.9528433515, -118.242933312)",704,G,3,South Los Angeles APC,15,Joe Buscaino,88,WATTS NC,SOUTHEAST,22351,819,1178,7,15,40
1-88207401,12/31/2015 04:29:00 PM,01/02/2016 12:36:00 PM,SR Created,BOS,Metal/Household Appliances,Closed,Call,,N,SLA,01/02/2016 12:00:00 AM,01/02/2016 12:36:00 PM,Y,N,"9210 S GRAHAM AVE, 90002",9210,S,GRAHAM,AVE,90002,33.95284335,-118.2429333,"(33.9528433515, -118.242933312)",704,G,3,South Los Angeles APC,15,Joe Buscaino,88,WATTS NC,SOUTHEAST,22351,819,1178,7,15,40
1-88206571,12/31/2015 04:28:00 PM,01/07/2016 12:54:00 PM,SR Created,BOS,Bulky Items,Closed,Call,,N,NC,01/07/2016 12:00:00 AM,01/07/2016 12:54:00 PM,Y,N,"1536 N COMMONWEALTH AVE, 90027",1536,N,COMMONWEALTH,AVE,90027,34.09925192,-118.2850832,"(34.0992519199, -118.285083174)",594,B,4,Central APC,4,David Ryu,36,LOS FELIZ NC,NORTHEAST,23445,466,377,,7,3
1-88202241,12/31/2015 04:28:00 PM,01/05/2016 09:40:00 AM,SR Created,BOS,Bulky Items,Closed,Call,,N,NC,01/05/2016 12:00:00 AM,01/05/2016 09:40:00 AM,Y,N,"4922 N WAWONA ST, 90041",4922,N,WAWONA,ST,90041,34.13782989,-118.2251204,"(34.1378298878, -118.225120438)",564,J,6,East Los Angeles APC,14,Jose Huizar,40,EAGLE ROCK NC,NORTHEAST,23672,355,570,,9,60
1-88204031,12/31/2015 04:28:00 PM,01/02/2016 12:51:00 PM,SR Created,BOS,Bulky Items,Closed,Call,,N,WV,01/02/2016 12:00:00 AM,01/02/2016 12:51:00 PM,Y,N,"4572 N LARKWOOD AVE, 91364",4572,N,LARKWOOD,AVE,91364,34.15478763,-118.6279364,"(34.1547876328, -118.62793638)",559,G,4,South Valley APC,3,Bob Blumenfield,16,WOODLAND HILLS-WARNER CENTER NC,TOPANGA,19346,310,985,,4,49
1-88202181,12/31/2015 04:28:00 PM,01/04/2016 12:48:00 PM,SR Created,BOS,Bulky Items,Closed,Call,,Y,NC,01/04/2016 12:00:00 AM,01/04/2016 12:48:00 PM,Y,N,"3123 N LOWELL AVE, 90032",3123,N,LOWELL,AVE,90032,34.08177374,-118.1625942,"(34.0817737428, -118.162594184)",595,G,6,East Los Angeles APC,14,Jose Huizar,48,LA-32 NC,HOLLENBECK,23449,502,609,,9,91
1-88202031,12/31/2015 04:24:00 PM,01/06/2016 12:37:00 PM,SR Created,BOS,Electronic Waste,Closed,Call,,N,WLA,01/06/2016 12:00:00 AM,01/06/2016 12:37:00 PM,Y,N,"5507 W 79TH ST, 90045",5507,W,79TH,ST,90045,33.96481319,-118.3756412,"(33.9648131891, -118.37564123)",703,A,2,West Los Angeles APC,11,Mike Bonin,71,NC WESTCHESTER/PLAYA,PACIFIC,23676,933,1065,10,10,16
1-88203091,12/31/2015 04:24:00 PM,01/02/2016 08:49:00 AM,SR Created,BOS,Bulky Items,Closed,Call,,N,EV,01/02/2016 12:00:00 AM,01/02/2016 08:49:00 AM,Y,N,"15215 W DEVONSHIRE ST, 91345",15215,W,DEVONSHIRE,ST,91345,34.25741631,-118.4635785,"(34.2574163118, -118.463578534)",501,H,4,North Valley APC,7,Felipe Fuentes,101,MISSION HILLS NC,MISSION,19330,74,398,,1,4
1-88203021,12/31/2015 04:23:00 PM,01/02/2016 08:50:00 AM,SR Created,BOS,Bulky Items,Closed,Call,,N,EV,01/02/2016 12:00:00 AM,01/02/2016 08:50:00 AM,Y,N,"15215 W DEVONSHIRE ST, 91345",15215,W,DEVONSHIRE,ST,91345,34.25741631,-118.4635785,"(34.2574163118, -118.463578534)",501,H,4,North Valley APC,7,Felipe Fuentes,101,MISSION HILLS NC,MISSION,19330,74,398,,1,4
1-88202961,12/31/2015 04:22:00 PM,01/07/2016 09:33:00 AM,SR Created,BOS,Bulky Items,Closed,Call,,N,EV,01/07/2016 12:00:00 AM,01/07/2016 09:33:00 AM,Y,N,"9335 N NATICK AVE, 91343",9335,N,NATICK,AVE,91343,34.24042938,-118.4574688,"(34.240429384, -118.457468849)",501,J,6,North Valley APC,7,Felipe Fuentes,112,NORTH HILLS EAST,MISSION,18914,114,415,,1,73
1-88203631,12/31/2015 04:20:00 PM,01/02/2016 11:45:00 AM,SR Created,BOS,Bulky Items,Closed,Call,,N,EV,01/02/2016 12:00:00 AM,01/02/2016 11:45:00 AM,Y,N,"9100 N TELFAIR AVE, 91352",9100,N,TELFAIR,AVE,91352,34.2346144,-118.3947708,"(34.2346144011, -118.394770803)",502,G,7,North Valley APC,6,Nury Martinez,8,SUN VALLEY AREA NC,FOOTHILL,19335,158,446,,3,21
1-88203561,12/31/2015 04:19:00 PM,01/05/2016 09:48:00 AM,SR Created,BOS,Bulky Items,Closed,Call,,Y,EV,01/05/2016 12:00:00 AM,01/05/2016 09:48:00 AM,Y,N,"6221 N BLUEBELL AVE, 91606",6221,N,BLUEBELL,AVE,91606,34.18366443,-118.4104292,"(34.1836644331, -118.410429173)",532,E,7,South Valley APC,2,Paul Krekorian,21,GREATER VALLEY GLEN COUNCIL,NORTH HOLLYWOOD,8889,187,503,,5,70
1-88201151,12/31/2015 04:19:00 PM,01/02/2016 12:08:00 PM,SR Created,BOS,Bulky Items,Closed,Call,,N,EV,01/02/2016 12:00:00 AM,01/02/2016 12:08:00 PM,Y,N,"9100 N TELFAIR AVE, 91352",9100,N,TELFAIR,AVE,91352,34.2346144,-118.3947708,"(34.2346144011, -118.394770803)",502,G,7,North Valley APC,6,Nury Martinez,8,SUN VALLEY AREA NC,FOOTHILL,19335,158,446,,3,21
1-88201611,12/31/2015 04:16:00 PM,01/07/2016 02:07:00 PM,SR Created,BOS,Bulky Items,Closed,Call,,N,NC,01/07/2016 12:00:00 AM,01/07/2016 02:07:00 PM,Y,N,"1141 N HOOVER ST, 90029",1141,N,HOOVER,ST,90029,34.0919858,-118.2847311,"(34.0919857989, -118.28473106)",594,B,5,Central APC,13,Mitch O'Farrell,34,EAST HOLLYWOOD NC,NORTHEAST,23447,433,1285,,8,58
1-88200751,12/31/2015 04:12:00 PM,01/07/2016 01:23:00 PM,SR Created,BOS,Illegal Dumping Pickup,Closed,Call,,N,SLA,01/07/2016 12:00:00 AM,01/07/2016 01:23:00 PM,Y,N,"FIGUEROA ST AT 58TH ST, 90037",,,,,90037,33.9897116,-118.2827074,"(33.9897115972, -118.282707425)",674,B,5,South Los Angeles APC,9,Curren D. Price Jr.,109,VOICES OF 90037,77TH STREET,23668,745,990,7,13,2
1-88200591,12/31/2015 04:09:00 PM,01/07/2016 01:23:00 PM,SR Created,BOS,Bulky Items,Closed,Call,,N,SLA,01/07/2016 12:00:00 AM,01/07/2016 01:23:00 PM,Y,N,"FIGUEROA ST AT 58TH ST, 90037",,,,,90037,33.9897116,-118.2827074,"(33.9897115972, -118.282707425)",674,B,5,South Los Angeles APC,9,Curren D. Price Jr.,109,VOICES OF 90037,77TH STREET,23668,745,990,7,13,2
1-88200521,12/31/2015 04:08:00 PM,01/04/2016 12:28:00 PM,SR Created,BOS,Electronic Waste,Closed,Call,,Y,EV,01/04/2016 12:00:00 AM,01/04/2016 12:28:00 PM,Y,N,"13831 N STRATTON AVE, 91342",13831,N,STRATTON,AVE,91342,34.32346721,-118.4272789,"(34.3234672054, -118.427278854)",482,C,2,North Valley APC,7,Felipe Fuentes,5,SYLMAR NC,MISSION,18912,38,376,,1,47
1-88198271,12/31/2015 04:08:00 PM,01/04/2016 10:42:00 AM,SR Created,BOS,Bulky Items,Closed,Call,,Y,SLA,01/04/2016 12:00:00 AM,01/04/2016 10:42:00 AM,Y,N,"2560 W VENICE BLVD, 90019",2560,W,VENICE,BLVD,90019,34.04335698,-118.3169776,"(34.0433569834, -118.316977555)",633,G,5,South Los Angeles APC,10,Herb J. Wesson Jr.,74,"UNITED NEIGHBORHOODS OF THE HISTORIC ARLINGTON HEIGHTS, WEST ADAMS, AND JEFFERSON PARK COMMUNITY",OLYMPIC,23080,674,898,,12,19
1-88198111,12/31/2015 04:07:00 PM,01/04/2016 11:55:00 AM,SR Created,BOS,Metal/Household Appliances,Closed,Call,,Y,EV,01/04/2016 12:00:00 AM,01/04/2016 11:55:00 AM,Y,N,"13831 N STRATTON AVE, 91342",13831,N,STRATTON,AVE,91342,34.32346721,-118.4272789,"(34.3234672054, -118.427278854)",482,C,2,North Valley APC,7,Felipe Fuentes,5,SYLMAR NC,MISSION,18912,38,376,,1,47
1-88198051,12/31/2015 04:06:00 PM,01/04/2016 09:13:00 AM,SR Created,BOS,Bulky Items,Cancelled,Call,,N,HB,01/07/2016 12:00:00 AM,01/04/2016 09:13:00 AM,Y,N,"1646 N FRIES AVE, 90744",1646,N,FRIES,AVE,90744,33.79666557,-118.2660828,"(33.7966655672, -118.266082789)",794,E,4,Harbor APC,15,Joe Buscaino,93,WILMINGTON NC,HARBOR,3350,954,1203,,15,15
1-88199101,12/31/2015 04:05:00 PM,01/04/2016 07:46:00 AM,SR Created,BOS,Bulky Items,Closed,Call,,Y,EV,01/04/2016 12:00:00 AM,01/04/2016 07:46:00 AM,Y,N,"13831 N STRATTON AVE, 91342",13831,N,STRATTON,AVE,91342,34.32346721,-118.4272789,"(34.3234672054, -118.427278854)",482,C,2,North Valley APC,7,Felipe Fuentes,5,SYLMAR NC,MISSION,18912,38,376,,1,47
1-88198971,12/31/2015 04:04:00 PM,01/04/2016 03:48:00 PM,SR Created,BOS,Metal/Household Appliances,Closed,Call,,N,SLA,01/04/2016 12:00:00 AM,01/04/2016 03:48:00 PM,Y,N,"2344 W 23RD ST, 90018",2344,W,23RD,ST,90018,34.03579276,-118.316177,"(34.0357927577, -118.316176967)",633,G,6,South Los Angeles APC,10,Herb J. Wesson Jr.,74,"UNITED NEIGHBORHOODS OF THE HISTORIC ARLINGTON HEIGHTS, WEST ADAMS, AND JEFFERSON PARK COMMUNITY",SOUTHWEST,23079,677,902,7,12,19
1-88197901,12/31/2015 04:04:00 PM,01/07/2016 11:37:00 AM,SR Created,BOS,Bulky Items,Closed,Call,,N,HB,01/07/2016 12:00:00 AM,01/07/2016 11:37:00 AM,Y,N,"614 N GULF AVE, 90744",614,N,GULF,AVE,90744,33.77697153,-118.2725359,"(33.7769715251, -118.272535857)",794,D,7,Harbor APC,15,Joe Buscaino,93,WILMINGTON NC,HARBOR,3350,964,1114,,15,15
1-88199801,12/31/2015 04:02:00 PM,01/04/2016 04:50:00 PM,SR Created,BOS,Bulky Items,Closed,Call,,N,WLA,01/04/2016 12:00:00 AM,01/04/2016 04:50:00 PM,Y,N,"1220 E VENICE BLVD, 90291",1220,E,VENICE,BLVD,90291,33.99498783,-118.4503702,"(33.9949878291, -118.450370197)",672,A,5,West Los Angeles APC,11,Mike Bonin,68,VENICE NC,PACIFIC,25073,912,1394,10,10,30
1-88195001,12/31/2015 03:58:00 PM,01/04/2016 09:03:00 AM,SR Created,BOS,Metal/Household Appliances,Closed,Call,,N,EV,01/04/2016 12:00:00 AM,01/04/2016 09:03:00 AM,Y,N,"10609 N MCVINE AVE, 91040",10609,N,MCVINE,AVE,91040,34.26187608,-118.311549,"(34.2618760843, -118.311549029)",503,G,3,North Valley APC,7,Felipe Fuentes,10,SUNLAND-TUJUNGA NC,FOOTHILL,3221,12,531,,1,7
1-88199521,12/31/2015 03:57:00 PM,01/04/2016 01:21:00 PM,SR Created,BOS,Bulky Items,Closed,Call,,N,EV,01/04/2016 12:00:00 AM,01/04/2016 01:21:00 PM,Y,N,"10609 N MCVINE AVE, 91040",10609,N,MCVINE,AVE,91040,34.26187608,-118.311549,"(34.2618760843, -118.311549029)",503,G,3,North Valley APC,7,Felipe Fuentes,10,SUNLAND-TUJUNGA NC,FOOTHILL,3221,12,531,,1,7
1-88198621,12/31/2015 03:57:00 PM,01/05/2016 08:45:00 AM,SR Created,BOS,Bulky Items,Closed,Call,,N,HB,01/05/2016 12:00:00 AM,01/05/2016 08:45:00 AM,Y,N,"456 N CABRILLO AVE, 90731",456,N,CABRILLO,AVE,90731,33.74702563,-118.294546,"(33.7470256318, -118.294546029)",824,B,4,Harbor APC,15,Joe Buscaino,95,CENTRAL SAN PEDRO NC,HARBOR,3342,974,1286,,15,36
1-88199591,12/31/2015 03:57:00 PM,01/02/2016 10:25:00 AM,SR Created,BOS,Bulky Items,Closed,Call,,N,SLA,01/02/2016 12:00:00 AM,01/02/2016 10:25:00 AM,Y,N,"361 E 84TH PL, 90003",361,E,84TH,PL,90003,33.96196095,-118.2683218,"(33.9619609512, -118.268321781)",704,D,2,South Los Angeles APC,9,Curren D. Price Jr.,87,EMPOWERMENT CONGRESS SOUTHEAST AREA NDC,77TH STREET,22352,797,1001,7,13,45
1-88198441,12/31/2015 03:56:00 PM,01/06/2016 08:10:00 AM,SR Created,BOS,Bulky Items,Closed,Call,,N,HB,01/06/2016 12:00:00 AM,01/06/2016 08:10:00 AM,Y,N,"1330 W 20TH ST, 90732",1330,W,20TH,ST,90732,33.7262249,-118.3065135,"(33.7262248955, -118.306513548)",823,J,7,Harbor APC,15,Joe Buscaino,96,COASTAL SAN PEDRO NC,HARBOR,3343,983,1453,,15,33
1-88198531,12/31/2015 03:56:00 PM,01/02/2016 07:19:00 AM,SR Created,BOS,Dead Animal Removal,Closed,Call,,N,NC,,01/02/2016 07:19:00 AM,Y,N,"426 S CAMULOS ST, 90033",426,S,CAMULOS,ST,90033,34.03736807,-118.2067847,"(34.0373680716, -118.206784676)",635,B,6,East Los Angeles APC,14,Jose Huizar,50,BOYLE HEIGHTS NC,HOLLENBECK,23450,520,239,,9,38
1-88194781,12/31/2015 03:56:00 PM,01/04/2016 11:29:00 AM,SR Created,BOS,Bulky Items,Closed,Call,,Y,NC,01/04/2016 12:00:00 AM,01/04/2016 11:29:00 AM,Y,N,"1441 N MURCHISON ST, 90033",1441,N,MURCHISON,ST,90033,34.05868341,-118.1964367,"(34.0586834076, -118.196436738)",635,C,3,East Los Angeles APC,14,Jose Huizar,,,HOLLENBECK,23450,508,335,,9,
1-88194681,12/31/2015 03:55:00 PM,01/04/2016 11:00:00 AM,SR Created,BOS,Bulky Items,Closed,Call,,N,EV,01/04/2016 12:00:00 AM,01/04/2016 11:00:00 AM,Y,N,"10609 N MCVINE AVE, 91040",10609,N,MCVINE,AVE,91040,34.26187608,-118.311549,"(34.2618760843, -118.311549029)",503,G,3,North Valley APC,7,Felipe Fuentes,10,SUNLAND-TUJUNGA NC,FOOTHILL,3221,12,531,,1,7
1-88198391,12/31/2015 03:55:00 PM,01/05/2016 01:11:00 PM,SR Created,BOS,Bulky Items,Closed,Call,,N,WV,01/05/2016 12:00:00 AM,01/05/2016 01:11:00 PM,Y,N,"7729 N MILWOOD AVE, 91304",7729,N,MILWOOD,AVE,91304,34.21082126,-118.5949238,"(34.2108212613, -118.594923784)",530,B,3,South Valley APC,3,Bob Blumenfield,13,CANOGA PARK NC,TOPANGA,4279,276,268,,4,37
1-88194581,12/31/2015 03:54:00 PM,01/06/2016 12:28:00 PM,SR Created,BOS,Bulky Items,Closed,Call,,N,EV,01/06/2016 12:00:00 AM,01/06/2016 12:28:00 PM,Y,N,"3434 N SCADLOCK LANE, 91403",3434,N,SCADLOCK,LANE,91403,34.13188016,-118.4697792,"(34.131880163, -118.469779153)",561,G,7,South Valley APC,4,David Ryu,26,SHERMAN OAKS NC,VAN NUYS,19732,340,672,11,7,83
1-88197301,12/31/2015 03:54:00 PM,01/06/2016 08:57:00 AM,SR Created,BOS,Illegal Dumping Pickup,Closed,Call,,Y,SLA,01/06/2016 12:00:00 AM,01/06/2016 08:57:00 AM,Y,N,"2322 S TRINITY ST, 90011",2322,S,TRINITY,ST,90011,34.02464348,-118.2620217,"(34.0246434822, -118.262021724)",634,E,7,South Los Angeles APC,9,Curren D. Price Jr.,78,SOUTH CENTRAL NC,NEWTON,22727,704,815,7,13,6
1-88184161,12/31/2015 03:51:00 PM,01/04/2016 11:15:00 AM,SR Created,BOS,Bulky Items,Closed,Mobile App,Android,N,SLA,01/04/2016 12:00:00 AM,01/04/2016 11:15:00 AM,Y,N,"1699 W 22ND ST, 90007",1699,W,22ND,ST,90007,34.03637242,-118.2973128,"(34.0363724158, -118.297312771)",633,J,6,South Los Angeles APC,8,Marqueece Harris-Dawson,77,EMPOWERMENT CONGRESS NORTH AREA NDC,SOUTHWEST,22724,680,907,7,14,32
1-88187191,12/31/2015 03:51:00 PM,01/02/2016 09:43:00 AM,SR Created,BOS,Bulky Items,Closed,Call,,N,WV,01/02/2016 12:00:00 AM,01/02/2016 09:43:00 AM,Y,N,"4951 N REFORMA ROAD, 91364",4951,N,REFORMA,ROAD,91364,34.15943358,-118.6188857,"(34.1594335763, -118.618885663)",559,H,4,South Valley APC,3,Bob Blumenfield,16,WOODLAND HILLS-WARNER CENTER NC,TOPANGA,19346,310,985,,4,49
1-88184071,12/31/2015 03:50:00 PM,01/06/2016 09:01:00 AM,SR Created,BOS,Bulky Items,Closed,Mobile App,Android,N,HB,01/06/2016 12:00:00 AM,01/06/2016 09:01:00 AM,Y,N,"1661 W 22ND ST, 90732",1661,W,22ND,ST,90732,33.72548486,-118.3136767,"(33.7254848616, -118.313676716)",823,H,7,Harbor APC,15,Joe Buscaino,96,COASTAL SAN PEDRO NC,HARBOR,3343,984,1454,,15,33
1-88194311,12/31/2015 03:49:00 PM,01/02/2016 09:40:00 AM,SR Created,BOS,Bulky Items,Closed,Call,,N,WV,01/02/2016 12:00:00 AM,01/02/2016 09:40:00 AM,Y,N,"6939 N ALABAMA AVE, 91303",6939,N,ALABAMA,AVE,91303,34.19663803,-118.5991773,"(34.1966380279, -118.59917727)",530,B,5,South Valley APC,3,Bob Blumenfield,13,CANOGA PARK NC,TOPANGA,4278,286,1472,,4,37
1-88183981,12/31/2015 03:48:00 PM,01/04/2016 11:41:00 AM,SR Created,BOS,Bulky Items,Closed,Call,,N,WV,01/04/2016 12:00:00 AM,01/04/2016 11:41:00 AM,Y,N,"11829 N LOUISE AVE, 91344",11829,N,LOUISE,AVE,91344,34.28511964,-118.5116679,"(34.2851196412, -118.511667903)",481,B,7,North Valley APC,12,Mitchell Englander,4,GRANADA HILLS NORTH NC,DEVONSHIRE,19329,54,1409,,2,78
1-88184981,12/31/2015 03:46:00 PM,01/02/2016 09:45:00 AM,SR Created,BOS,Bulky Items,Closed,Call,,N,WV,01/02/2016 12:00:00 AM,01/02/2016 09:45:00 AM,Y,N,"21900 W HART ST, 91303",21900,W,HART,ST,91303,34.19732721,-118.6047898,"(34.1973272054, -118.604789807)",530,A,5,South Valley APC,3,Bob Blumenfield,13,CANOGA PARK NC,TOPANGA,4278,286,1472,,4,37
1-88191671,12/31/2015 03:46:00 PM,01/02/2016 07:17:00 AM,SR Created,BOS,Dead Animal Removal,Closed,Call,,Y,NC,,01/02/2016 07:17:00 AM,Y,N,"216 S SOTO ST, 90033",216,S,SOTO,ST,90033,34.04154415,-118.2109697,"(34.0415441501, -118.210969716)",635,A,5,East Los Angeles APC,14,Jose Huizar,50,BOYLE HEIGHTS NC,HOLLENBECK,23450,520,239,,9,38
1-88191551,12/31/2015 03:45:00 PM,01/02/2016 02:01:00 PM,SR Created,BOS,Bulky Items,Closed,Email,,Y,NC,01/02/2016 12:00:00 AM,01/02/2016 02:01:00 PM,Y,N,"6345 W BRYN MAWR DR, 90068",6345,W,BRYN MAWR,DR,90068,34.11304637,-118.3276357,"(34.1130463701, -118.327635741)",593,F,2,Central APC,4,David Ryu,30,HOLLYWOOD UNITED NC,HOLLYWOOD,24033,406,343,,7,64
1-88184711,12/31/2015 03:45:00 PM,01/02/2016 09:41:00 AM,SR Created,BOS,Bulky Items,Closed,Call,,N,WV,01/02/2016 12:00:00 AM,01/02/2016 09:41:00 AM,Y,N,"21900 W HART ST, 91303",21900,W,HART,ST,91303,34.19732721,-118.6047898,"(34.1973272054, -118.604789807)",530,A,5,South Valley APC,3,Bob Blumenfield,13,CANOGA PARK NC,TOPANGA,4278,286,1472,,4,37
1-88184761,12/31/2015 03:45:00 PM,01/02/2016 09:18:00 AM,SR Created,BOS,Metal/Household Appliances,Closed,Email,,N,EV,01/02/2016 12:00:00 AM,01/02/2016 09:18:00 AM,Y,N,"8334 N AMBOY AVE, 91352",8334,N,AMBOY,AVE,91352,34.22266564,-118.3908884,"(34.2226656444, -118.390888447)",532,G,1,North Valley APC,6,Nury Martinez,8,SUN VALLEY AREA NC,FOOTHILL,19335,161,264,,3,21
1-88183681,12/31/2015 03:44:00 PM,01/06/2016 10:35:00 AM,SR Created,BOS,Electronic Waste,Closed,Call,,N,EV,01/06/2016 12:00:00 AM,01/06/2016 10:35:00 AM,Y,N,"14501 W MULHOLLAND DR, 90077",14501,W,MULHOLLAND,DR,90077,34.13165119,-118.4487378,"(34.1316511946, -118.448737755)",562,A,7,South Valley APC,4,David Ryu,26,SHERMAN OAKS NC,VAN NUYS,19732,340,342,46,7,83
1-88186641,12/31/2015 03:44:00 PM,01/04/2016 10:42:00 AM,SR Created,BOS,Bulky Items,Closed,Mobile App,Android,N,SLA,01/04/2016 12:00:00 AM,01/04/2016 10:42:00 AM,Y,N,"2315 W 20TH ST, 90018",2315,W,20TH,ST,90018,34.0390424,-118.3153162,"(34.0390424032, -118.31531616)",633,G,6,South Los Angeles APC,10,Herb J. Wesson Jr.,74,"UNITED NEIGHBORHOODS OF THE HISTORIC ARLINGTON HEIGHTS, WEST ADAMS, AND JEFFERSON PARK COMMUNITY",OLYMPIC,23079,678,898,,12,19
1-88191391,12/31/2015 03:43:00 PM,01/06/2016 12:25:00 PM,SR Created,BOS,Bulky Items,Closed,Call,,N,EV,01/06/2016 12:00:00 AM,01/06/2016 12:25:00 PM,Y,N,"14501 W MULHOLLAND DR, 90077",14501,W,MULHOLLAND,DR,90077,34.13165119,-118.4487378,"(34.1316511946, -118.448737755)",562,A,7,South Valley APC,4,David Ryu,26,SHERMAN OAKS NC,VAN NUYS,19732,340,342,46,7,83
1-88186401,12/31/2015 03:41:00 PM,01/02/2016 10:40:00 AM,SR Created,BOS,Bulky Items,Closed,Call,,N,WLA,01/02/2016 12:00:00 AM,01/02/2016 10:40:00 AM,Y,N,"3746 S MENTONE AVE, 90034",3746,S,MENTONE,AVE,90034,34.02099762,-118.4057822,"(34.0209976242, -118.405782211)",672,F,1,West Los Angeles APC,5,Paul Koretz,115,PALMS NC,PACIFIC,23451,880,786,9,6,74
1-88183411,12/31/2015 03:41:00 PM,01/07/2016 12:52:00 PM,SR Created,BOS,Bulky Items,Closed,Mobile App,Android,Y,NC,01/07/2016 12:00:00 AM,01/07/2016 12:52:00 PM,Y,N,"260 S MARIPOSA AVE, 90004",260,S,MARIPOSA,AVE,90004,34.06946953,-118.2989842,"(34.0694695287, -118.298984158)",633,J,1,Central APC,13,Mitch O'Farrell,55,WILSHIRE CENTER - KOREATOWN NC,OLYMPIC,22721,583,937,,8,89
1-88181131,12/31/2015 03:40:00 PM,01/07/2016 12:54:00 PM,SR Created,BOS,Bulky Items,Closed,Mobile App,Android,N,NC,01/07/2016 12:00:00 AM,01/07/2016 12:54:00 PM,Y,N,"260 S MARIPOSA AVE, 90004",260,S,MARIPOSA,AVE,90004,34.06946953,-118.2989842,"(34.0694695287, -118.298984158)",633,J,1,Central APC,13,Mitch O'Farrell,55,WILSHIRE CENTER - KOREATOWN NC,OLYMPIC,22721,583,937,,8,89
1-88184361,12/31/2015 03:40:00 PM,01/02/2016 12:28:00 PM,SR Created,BOS,Illegal Dumping Pickup,Closed,Call,,N,HB,01/02/2016 12:00:00 AM,01/02/2016 12:28:00 PM,Y,N,"200 W AMAR ST, 90731",200,W,AMAR,ST,90731,33.74783866,-118.2821751,"(33.7478386572, -118.282175141)",824,C,4,Harbor APC,15,Joe Buscaino,95,CENTRAL SAN PEDRO NC,HARBOR,3342,969,1310,,15,36
1-88182181,12/31/2015 03:39:00 PM,01/02/2016 09:32:00 AM,SR Created,BOS,Bulky Items,Closed,Mobile App,Android,Y,WLA,01/02/2016 12:00:00 AM,01/02/2016 09:32:00 AM,Y,N,"814 S WOOSTER ST, 90035",814,S,WOOSTER,ST,90035,34.06248119,-118.382275,"(34.0624811935, -118.382275024)",632,J,2,Central APC,5,Paul Koretz,61,SOUTH ROBERTSON NC,WEST LOS ANGELES,23666,640,810,,6,95
1-88182231,12/31/2015 03:39:00 PM,01/07/2016 12:29:00 PM,SR Created,BOS,Bulky Items,Closed,Call,,Y,WV,01/07/2016 12:00:00 AM,01/07/2016 12:29:00 PM,Y,N,"19216 W HAMLIN ST, 91335",19216,W,HAMLIN,ST,91335,34.18833822,-118.5523904,"(34.188338218, -118.552390387)",530,G,6,South Valley APC,3,Bob Blumenfield,15,RESEDA NC,WEST VALLEY,18909,266,309,,4,12
1-88180121,12/31/2015 03:38:00 PM,01/07/2016 08:55:00 AM,SR Created,BOS,Bulky Items,Closed,Mobile App,Android,N,WLA,01/07/2016 12:00:00 AM,01/07/2016 08:55:00 AM,Y,N,"1044 S STANLEY AVE, 90019",1044,S,STANLEY,AVE,90019,34.05617267,-118.3585399,"(34.0561726719, -118.358539899)",633,B,3,Central APC,4,David Ryu,58,MID CITY WEST CC,WILSHIRE,23080,638,1346,,7,26
1-88180071,12/31/2015 03:38:00 PM,01/05/2016 09:55:00 AM,SR Created,BOS,Bulky Items,Closed,Call,,N,EV,01/05/2016 12:00:00 AM,01/05/2016 09:55:00 AM,Y,N,"10821 W COLLINS ST, 91601",10821,W,COLLINS,ST,91601,34.17408463,-118.3665451,"(34.1740846322, -118.366545097)",563,A,1,South Valley APC,2,Paul Krekorian,24,MID-TOWN NORTH HOLLYWOOD NC,NORTH HOLLYWOOD,8488,199,526,,5,13
1-88180881,12/31/2015 03:38:00 PM,01/02/2016 12:27:00 PM,SR Created,BOS,Bulky Items,Closed,Call,,N,HB,01/02/2016 12:00:00 AM,01/02/2016 12:27:00 PM,Y,N,"200 W AMAR ST, 90731",200,W,AMAR,ST,90731,33.74783866,-118.2821751,"(33.7478386572, -118.282175141)",824,C,4,Harbor APC,15,Joe Buscaino,95,CENTRAL SAN PEDRO NC,HARBOR,3342,969,1310,,15,36
1-88180241,12/31/2015 03:38:00 PM,01/05/2016 12:50:00 PM,SR Created,BOS,Bulky Items,Closed,Call,,N,HB,01/05/2016 12:00:00 AM,01/05/2016 12:50:00 PM,Y,N,"1444 W 260TH ST, 90710",1444,W,260TH,ST,90710,33.78672477,-118.3026329,"(33.7867247676, -118.302632871)",793,J,5,Harbor APC,15,Joe Buscaino,92,HARBOR CITY NC,HARBOR,26327,951,644,,15,29
1-88179221,12/31/2015 03:38:00 PM,01/05/2016 09:54:00 AM,SR Created,BOS,Bulky Items,Closed,Call,,N,EV,01/05/2016 12:00:00 AM,01/05/2016 09:54:00 AM,Y,N,"10821 W COLLINS ST, 91601",10821,W,COLLINS,ST,91601,34.17408463,-118.3665451,"(34.1740846322, -118.366545097)",563,A,1,South Valley APC,2,Paul Krekorian,24,MID-TOWN NORTH HOLLYWOOD NC,NORTH HOLLYWOOD,8488,199,526,,5,13
1-88181931,12/31/2015 03:37:00 PM,01/07/2016 09:11:00 AM,SR Created,BOS,Bulky Items,Closed,Call,,Y,WV,01/07/2016 12:00:00 AM,01/07/2016 09:11:00 AM,Y,N,"19216 W HAMLIN ST, 91335",19216,W,HAMLIN,ST,91335,34.18833822,-118.5523904,"(34.188338218, -118.552390387)",530,G,6,South Valley APC,3,Bob Blumenfield,15,RESEDA NC,WEST VALLEY,18909,266,309,,4,12
1-88180751,12/31/2015 03:36:00 PM,01/04/2016 09:36:00 AM,SR Created,BOS,Bulky Items,Closed,Call,,N,WLA,01/04/2016 12:00:00 AM,01/04/2016 09:36:00 AM,Y,N,"220 HOWLAND CANAL WK, 90291",220,,HOWLAND CANAL,WK,90291,33.98339964,-118.4673255,"(33.9833996427, -118.467325452)",671,H,7,West Los Angeles APC,11,Mike Bonin,68,VENICE NC,PACIFIC,25073,913,1233,10,10,30
1-88180681,12/31/2015 03:36:00 PM,01/02/2016 08:07:00 AM,SR Created,BOS,Bulky Items,Closed,Call,,N,WLA,01/02/2016 12:00:00 AM,01/02/2016 08:07:00 AM,Y,N,"2225 S CLYDE AVE, 90016",2225,S,CLYDE,AVE,90016,34.03746475,-118.3655439,"(34.0374647457, -118.365543903)",633,B,6,South Los Angeles APC,10,Herb J. Wesson Jr.,73,MID CITY NC,WILSHIRE,23077,887,1104,,12,69
1-88178861,12/31/2015 03:36:00 PM,02/02/2016 02:16:00 PM,SR Created,BOS,Illegal Dumping Pickup,Closed,Mobile App,Android,Y,EV,01/03/2016 12:00:00 AM,02/02/2016 02:16:00 PM,Y,N,"13067 W DAVENTRY ST, 91331",13067,W,DAVENTRY,ST,91331,34.27886881,-118.417839,"(34.2788688082, -118.417839034)",502,D,1,North Valley APC,7,Felipe Fuentes,7,PACOIMA NC,FOOTHILL,18907,24,369,,1,11
1-88179731,12/31/2015 03:34:00 PM,01/05/2016 11:48:00 AM,SR Created,BOS,Bulky Items,Closed,Call,,N,SLA,01/05/2016 12:00:00 AM,01/05/2016 11:48:00 AM,Y,N,"2067 W 57TH ST, 90062",2067,W,57TH,ST,90062,33.99103024,-118.3156097,"(33.9910302401, -118.315609725)",673,G,5,South Los Angeles APC,8,Marqueece Harris-Dawson,81,EMPOWERMENT CONGRESS CENTRAL AREA NDC,77TH STREET,24027,743,622,7,14,35
1-88181671,12/31/2015 03:34:00 PM,01/04/2016 01:19:00 PM,SR Created,BOS,Bulky Items,Closed,Call,,N,EV,01/04/2016 12:00:00 AM,01/04/2016 01:19:00 PM,Y,N,"13925 N AULTS AVE, 91342",13925,N,AULTS,AVE,91342,34.32534206,-118.4245839,"(34.3253420615, -118.424583867)",482,C,1,North Valley APC,7,Felipe Fuentes,5,SYLMAR NC,MISSION,18912,38,376,,1,47
1-88180541,12/31/2015 03:34:00 PM,01/04/2016 02:24:00 PM,SR Created,BSL,Single Streetlight Issue,Closed,Call,,Y,NORTH,01/04/2016 12:00:00 AM,01/04/2016 02:24:00 PM,Y,Y,"15103 W SUTTON ST, 91403",15103,W,SUTTON,ST,91403,34.14932719,-118.4625813,"(34.14932719, -118.46258133)",561,H,5,South Valley APC,4,David Ryu,26,SHERMAN OAKS NC,VAN NUYS,19732,335,679,,7,83
1-88181601,12/31/2015 03:34:00 PM,01/06/2016 11:23:00 AM,SR Created,BOS,Bulky Items,Closed,Call,,Y,WLA,01/06/2016 12:00:00 AM,01/06/2016 11:23:00 AM,Y,N,"11706 W MAYFIELD AVE, 90049",11706,W,MAYFIELD,AVE,90049,34.05143291,-118.4636556,"(34.051432913, -118.463655613)",631,H,4,West Los Angeles APC,11,Mike Bonin,,,WEST LOS ANGELES,23680,843,762,9,10,
1-88179571,12/31/2015 03:33:00 PM,01/02/2016 10:52:00 AM,SR Created,BOS,Electronic Waste,Closed,Call,,N,EV,01/02/2016 12:00:00 AM,01/02/2016 10:52:00 AM,Y,N,"12576 N BROMONT AVE, 91340",12576,N,BROMONT,AVE,91340,34.2984086,-118.4231938,"(34.2984085997, -118.423193801)",482,C,5,North Valley APC,7,Felipe Fuentes,5,SYLMAR NC,MISSION,18910,42,285,,1,47
1-88178641,12/31/2015 03:33:00 PM,01/04/2016 02:24:00 PM,SR Created,BSL,Single Streetlight Issue,Closed,Call,,Y,NORTH,01/04/2016 12:00:00 AM,01/04/2016 02:24:00 PM,Y,Y,"15086 W VALLEY VISTA BLVD, 91403",15086,W,VALLEY VISTA,BLVD,91403,34.1484617,-118.4626303,"(34.1484617, -118.46263034)",561,H,5,South Valley APC,4,David Ryu,26,SHERMAN OAKS NC,VAN NUYS,19732,340,679,,7,83
1-88180341,12/31/2015 03:32:00 PM,01/07/2016 11:04:00 AM,SR Created,BOS,Bulky Items,Closed,Call,,N,WLA,01/07/2016 12:00:00 AM,01/07/2016 11:04:00 AM,Y,N,"1056 S GENESEE AVE, 90019",1056,S,GENESEE,AVE,90019,34.05579783,-118.3612358,"(34.0557978297, -118.361235767)",633,B,3,Central APC,10,Herb J. Wesson Jr.,60,P.I.C.O. NC,WILSHIRE,23080,643,1348,,12,23
1-88180421,12/31/2015 03:32:00 PM,01/04/2016 09:36:00 AM,SR Created,BOS,Bulky Items,Closed,Call,,N,WLA,01/04/2016 12:00:00 AM,01/04/2016 09:36:00 AM,Y,N,"220 HOWLAND CANAL WK, 90291",220,,HOWLAND CANAL,WK,90291,33.98339964,-118.4673255,"(33.9833996427, -118.467325452)",671,H,7,West Los Angeles APC,11,Mike Bonin,68,VENICE NC,PACIFIC,25073,913,1233,10,10,30
1-88178501,12/31/2015 03:32:00 PM,01/04/2016 02:24:00 PM,SR Created,BSL,Single Streetlight Issue,Closed,Call,,Y,NORTH,01/04/2016 12:00:00 AM,01/04/2016 02:24:00 PM,Y,Y,"15244 W VALLEY VISTA BLVD, 91403",15244,W,VALLEY VISTA,BLVD,91403,34.14844144,-118.4657438,"(34.14844144, -118.46574376)",561,H,5,South Valley APC,4,David Ryu,26,SHERMAN OAKS NC,VAN NUYS,19732,340,679,,7,83
1-88179361,12/31/2015 03:31:00 PM,01/14/2016 12:47:00 PM,SR Created,BOS,Bulky Items,Closed,Call,,N,WLA,01/14/2016 12:00:00 AM,01/14/2016 12:47:00 PM,Y,N,"1056 S GENESEE AVE, 90019",1056,S,GENESEE,AVE,90019,34.05579783,-118.3612358,"(34.0557978297, -118.361235767)",633,B,3,Central APC,10,Herb J. Wesson Jr.,60,P.I.C.O. NC,WILSHIRE,23080,643,1348,,12,23
1-88179331,12/31/2015 03:31:00 PM,01/04/2016 02:24:00 PM,SR Created,BSL,Single Streetlight Issue,Closed,Call,,Y,NORTH,01/04/2016 12:00:00 AM,01/04/2016 02:24:00 PM,Y,Y,"15250 W SUTTON ST, 91403",15250,W,SUTTON,ST,91403,34.149644,-118.4658855,"(34.149644, -118.46588548)",561,H,5,South Valley APC,4,David Ryu,26,SHERMAN OAKS NC,VAN NUYS,19732,335,679,,7,83
1-88178241,12/31/2015 03:31:00 PM,01/05/2016 11:31:00 AM,SR Created,BOS,Bulky Items,Closed,Call,,N,NC,01/05/2016 12:00:00 AM,01/05/2016 11:31:00 AM,Y,N,"1837 N PHILLIPS WAY, 90042",1837,N,PHILLIPS,WAY,90042,34.12585057,-118.2010069,"(34.1258505675, -118.201006944)",565,B,7,East Los Angeles APC,14,Jose Huizar,41,HISTORIC HIGHLAND PARK NC,NORTHEAST,23673,364,439,,9,93
1-88178181,12/31/2015 03:30:00 PM,01/06/2016 01:32:00 PM,SR Created,BOS,Bulky Items,Closed,Call,,N,WV,01/06/2016 12:00:00 AM,01/06/2016 01:32:00 PM,Y,N,"16008 1/2 W HART ST, 91406",16008,W,HART,ST,91406,34.19732233,-118.4817042,"(34.1973223282, -118.481704221)",531,F,5,South Valley APC,6,Nury Martinez,19,LAKE BALBOA NC,WEST VALLEY,19734,223,294,,3,61
1-88178131,12/31/2015 03:30:00 PM,01/04/2016 09:39:00 AM,SR Created,BOS,Bulky Items,Closed,Call,,N,WLA,01/04/2016 12:00:00 AM,01/04/2016 09:39:00 AM,Y,N,"4323 S KENSINGTON ROAD, 90066",4323,S,KENSINGTON,ROAD,90066,33.99743977,-118.4191104,"(33.9974397692, -118.419110419)",672,E,5,West Los Angeles APC,11,Mike Bonin,70,DEL REY NC,PACIFIC,24031,918,356,10,10,85
1-88177021,12/31/2015 03:28:00 PM,01/05/2016 12:42:00 PM,SR Created,BOS,Bulky Items,Closed,Call,,N,SLA,01/05/2016 12:00:00 AM,01/05/2016 12:42:00 PM,Y,N,"4194 S 3RD AVE, 90008",4194,S,3RD,AVE,90008,34.00745955,-118.3202642,"(34.0074595501, -118.32026424)",673,G,3,South Los Angeles APC,10,Herb J. Wesson Jr.,79,EMPOWERMENT CONGRESS WEST AREA NDC,SOUTHWEST,22725,747,1019,7,12,54
1-88176061,12/31/2015 03:28:00 PM,01/07/2016 10:46:00 AM,SR Created,BOS,Bulky Items,Closed,Email,,N,NC,01/07/2016 12:00:00 AM,01/07/2016 10:46:00 AM,Y,N,"5319 W ROMAINE ST, 90029",5319,W,ROMAINE,ST,90029,34.08852761,-118.3070492,"(34.0885276052, -118.307049239)",593,H,6,Central APC,13,Mitch O'Farrell,33,HOLLYWOOD STUDIO DISTRICT NC,HOLLYWOOD,23447,438,242,,8,57
1-88176941,12/31/2015 03:28:00 PM,01/02/2016 12:24:00 PM,SR Created,BOS,Bulky Items,Closed,Call,,N,NC,01/02/2016 12:00:00 AM,01/02/2016 12:24:00 PM,Y,N,"445 S WINDSOR BLVD, 90020",445,S,WINDSOR,BLVD,90020,34.06570064,-118.3216445,"(34.0657006359, -118.321644489)",633,G,2,Central APC,4,David Ryu,119,GREATER WILSHIRE NC,OLYMPIC,23081,588,874,,7,86
1-88176911,12/31/2015 03:28:00 PM,01/04/2016 02:24:00 PM,SR Created,BSL,Single Streetlight Issue,Closed,Call,,Y,NORTH,01/04/2016 12:00:00 AM,01/04/2016 02:24:00 PM,Y,Y,"15140 W GREENLEAF ST, 91403",15140,W,GREENLEAF,ST,91403,34.15071355,-118.4635847,"(34.15071355, -118.46358469)",561,H,4,South Valley APC,4,David Ryu,26,SHERMAN OAKS NC,VAN NUYS,19732,335,679,,7,83
1-88177781,12/31/2015 03:26:00 PM,01/04/2016 02:24:00 PM,SR Created,BSL,Single Streetlight Issue,Closed,Call,,Y,NORTH,01/04/2016 12:00:00 AM,01/04/2016 02:24:00 PM,Y,Y,"15102 W GREENLEAF ST, 91403",15102,W,GREENLEAF,ST,91403,34.15045116,-118.4623155,"(34.15045116, -118.462315499999)",561,H,5,South Valley APC,4,David Ryu,26,SHERMAN OAKS NC,VAN NUYS,19732,335,679,,7,83
1-88174921,12/31/2015 03:25:00 PM,01/05/2016 10:36:00 AM,SR Created,BOS,Bulky Items,Closed,Call,,N,SLA,01/05/2016 12:00:00 AM,01/05/2016 10:36:00 AM,Y,N,"608 W 40TH PL, 90037",608,W,40TH,PL,90037,34.01049677,-118.284628,"(34.0104967685, -118.284627998)",674,B,2,South Los Angeles APC,9,Curren D. Price Jr.,109,VOICES OF 90037,SOUTHWEST,23668,735,977,7,13,2
1-88176641,12/31/2015 03:24:00 PM,01/04/2016 10:33:00 AM,SR Created,BOS,Bulky Items,Closed,Call,,N,WV,01/04/2016 12:00:00 AM,01/04/2016 10:33:00 AM,Y,N,"7015 N AMIGO AVE, 91335",7015,N,AMIGO,AVE,91335,34.19821441,-118.5387619,"(34.1982144077, -118.538761853)",530,H,5,South Valley APC,3,Bob Blumenfield,15,RESEDA NC,WEST VALLEY,18909,250,308,,4,12
1-88177461,12/31/2015 03:24:00 PM,01/05/2016 10:33:00 AM,SR Created,BOS,Bulky Items,Closed,Call,,N,SLA,01/05/2016 12:00:00 AM,01/05/2016 10:33:00 AM,Y,N,"701 W 40TH PL, 90037",701,W,40TH,PL,90037,34.01063691,-118.2859723,"(34.0106369094, -118.285972337)",674,B,2,South Los Angeles APC,9,Curren D. Price Jr.,109,VOICES OF 90037,SOUTHWEST,23668,735,977,7,13,2
1-88175821,12/31/2015 03:24:00 PM,01/06/2016 04:13:00 PM,SR Created,BOS,Bulky Items,Closed,Call,,N,SLA,01/06/2016 12:00:00 AM,01/06/2016 04:13:00 PM,Y,N,"701 W 40TH PL, 90037",701,W,40TH,PL,90037,34.01063691,-118.2859723,"(34.0106369094, -118.285972337)",674,B,2,South Los Angeles APC,9,Curren D. Price Jr.,109,VOICES OF 90037,SOUTHWEST,23668,735,977,7,13,2
1-88174701,12/31/2015 03:24:00 PM,01/07/2016 09:14:00 AM,SR Created,BOS,Bulky Items,Closed,Mobile App,Android,Y,NC,01/07/2016 12:00:00 AM,01/07/2016 09:14:00 AM,Y,N,"206 N NORMANDIE AVE, 90004",206,N,NORMANDIE,AVE,90004,34.07562084,-118.3003206,"(34.0756208401, -118.300320604)",633,J,1,Central APC,13,Mitch O'Farrell,55,WILSHIRE CENTER - KOREATOWN NC,OLYMPIC,22721,581,936,,8,89
1-88177401,12/31/2015 03:23:00 PM,01/06/2016 10:44:00 AM,SR Created,BOS,Bulky Items,Closed,Call,,N,NC,01/06/2016 12:00:00 AM,01/06/2016 10:44:00 AM,Y,N,"3358 W GLENHURST AVE, 90039",3358,W,GLENHURST,AVE,90039,34.11359501,-118.2600671,"(34.113595008, -118.260067074)",594,E,2,East Los Angeles APC,13,Mitch O'Farrell,37,ATWATER VILLAGE NC,NORTHEAST,23670,391,450,,8,42
1-88172221,12/31/2015 03:22:00 PM,01/06/2016 10:45:00 AM,SR Created,BOS,Bulky Items,Closed,Call,,N,NC,01/06/2016 12:00:00 AM,01/06/2016 10:45:00 AM,Y,N,"3358 W GLENHURST AVE, 90039",3358,W,GLENHURST,AVE,90039,34.11359501,-118.2600671,"(34.113595008, -118.260067074)",594,E,2,East Los Angeles APC,13,Mitch O'Farrell,37,ATWATER VILLAGE NC,NORTHEAST,23670,391,450,,8,42
1-88176401,12/31/2015 03:22:00 PM,01/05/2016 11:32:00 AM,SR Created,BOS,Bulky Items,Closed,Call,,N,NC,01/05/2016 12:00:00 AM,01/05/2016 11:32:00 AM,Y,N,"116 N HAMLET ST, 90042",116,N,HAMLET,ST,90042,34.11667154,-118.1846596,"(34.1166715427, -118.184659551)",595,D,2,East Los Angeles APC,14,Jose Huizar,41,HISTORIC HIGHLAND PARK NC,NORTHEAST,23673,362,598,,9,93
1-88175421,12/31/2015 03:21:00 PM,01/01/2016 03:39:00 PM,SR Created,BOS,Dead Animal Removal,Closed,Call,,N,WLA,,01/01/2016 03:39:00 PM,Y,N,"11100 W NATIONAL BLVD, 90064",11100,W,NATIONAL,BLVD,90064,34.02797675,-118.4267142,"(34.0279767535, -118.426714218)",632,D,7,West Los Angeles APC,5,Paul Koretz,67,MAR VISTA CC,PACIFIC,24029,895,1247,9,6,27
1-88174481,12/31/2015 03:21:00 PM,01/05/2016 11:39:00 AM,SR Created,BOS,Bulky Items,Closed,Call,,N,NC,01/05/2016 12:00:00 AM,01/05/2016 11:39:00 AM,Y,N,"116 N HAMLET ST, 90042",116,N,HAMLET,ST,90042,34.11667154,-118.1846596,"(34.1166715427, -118.184659551)",595,D,2,East Los Angeles APC,14,Jose Huizar,41,HISTORIC HIGHLAND PARK NC,NORTHEAST,23673,362,598,,9,93
1-88171241,12/31/2015 03:21:00 PM,01/06/2016 10:09:00 AM,SR Created,BOS,Bulky Items,Closed,Call,,N,NC,01/06/2016 12:00:00 AM,01/06/2016 10:09:00 AM,Y,N,"250 S RENO ST, 90057",250,S,RENO,ST,90057,34.06849479,-118.2830109,"(34.0684947889, -118.283010869)",634,B,1,Central APC,13,Mitch O'Farrell,53,RAMPART VILLAGE NC,RAMPART,24352,555,941,,8,80
1-88172041,12/31/2015 03:21:00 PM,01/04/2016 02:01:00 PM,SR Created,BOS,Illegal Dumping Pickup,Closed,Mobile App,Android,N,SLA,01/04/2016 12:00:00 AM,01/04/2016 02:01:00 PM,Y,N,"2504 S 12TH AVE, 90018",2504,S,12TH,AVE,90018,34.03408283,-118.3306566,"(34.0340828318, -118.330656593)",633,F,6,South Los Angeles APC,10,Herb J. Wesson Jr.,74,"UNITED NEIGHBORHOODS OF THE HISTORIC ARLINGTON HEIGHTS, WEST ADAMS, AND JEFFERSON PARK COMMUNITY",SOUTHWEST,23079,657,903,7,12,19
1-88171911,12/31/2015 03:20:00 PM,01/04/2016 07:13:00 AM,SR Created,BOS,Bulky Items,Closed,Email,,N,NC,01/04/2016 12:00:00 AM,01/04/2016 07:13:00 AM,Y,N,"5067 E BORLAND ROAD, 90032",5067,E,BORLAND,ROAD,90032,34.0694368,-118.1741062,"(34.0694367977, -118.174106224)",635,F,1,East Los Angeles APC,14,Jose Huizar,48,LA-32 NC,HOLLENBECK,23449,507,616,,9,91
1-88175321,12/31/2015 03:20:00 PM,01/04/2016 08:38:00 AM,SR Created,BOS,Bulky Items,Closed,Call,,N,HB,01/04/2016 12:00:00 AM,01/04/2016 08:38:00 AM,Y,N,"660 W ALONDRA BLVD, 90247",660,W,ALONDRA,BLVD,90247,33.88517353,-118.2869288,"(33.8851735291, -118.286928798)",734,B,6,Harbor APC,15,Joe Buscaino,90,HARBOR GATEWAY NORTH NC,SOUTHEAST,24684,941,1197,7,15,53
1-88174401,12/31/2015 03:20:00 PM,01/06/2016 09:31:00 AM,SR Created,BOS,Bulky Items,Closed,Call,,N,WLA,01/06/2016 12:00:00 AM,01/06/2016 09:31:00 AM,Y,N,"1901 S WESTGATE AVE, 90025",1901,S,WESTGATE,AVE,90025,34.0365913,-118.454403,"(34.036591299, -118.454403025)",631,J,6,West Los Angeles APC,11,Mike Bonin,66,WEST LOS ANGELES NC,WEST LOS ANGELES,23443,867,1517,9,10,50
1-88174331,12/31/2015 03:20:00 PM,01/02/2016 11:40:00 AM,SR Created,BOS,Bulky Items,Closed,Mobile App,Android,N,WLA,01/02/2016 12:00:00 AM,01/02/2016 11:40:00 AM,Y,N,"11279 W VENICE BLVD, 90066",11279,W,VENICE,BLVD,90066,34.01182859,-118.4196433,"(34.0118285878, -118.419643316)",672,E,3,West Los Angeles APC,11,Mike Bonin,67,MAR VISTA CC,PACIFIC,24031,898,859,10,10,27
1-88169141,12/31/2015 03:18:00 PM,01/02/2016 10:46:00 AM,SR Created,BOS,Electronic Waste,Closed,Call,,N,WLA,01/02/2016 12:00:00 AM,01/02/2016 10:46:00 AM,Y,N,"1901 S WESTGATE AVE, 90025",1901,S,WESTGATE,AVE,90025,34.0365913,-118.454403,"(34.036591299, -118.454403025)",631,J,6,West Los Angeles APC,11,Mike Bonin,66,WEST LOS ANGELES NC,WEST LOS ANGELES,23443,867,1517,9,10,50
1-88169001,12/31/2015 03:16:00 PM,01/06/2016 10:55:00 AM,SR Created,BOS,Bulky Items,Closed,Call,,N,EV,01/06/2016 12:00:00 AM,01/06/2016 10:55:00 AM,Y,N,"14310 W WEDDINGTON ST, 91401",14310,W,WEDDINGTON,ST,91401,34.16653945,-118.4448756,"(34.166539454, -118.444875629)",562,A,2,South Valley APC,4,David Ryu,26,SHERMAN OAKS NC,VAN NUYS,19729,242,416,,7,83
1-88170871,12/31/2015 03:16:00 PM,01/01/2016 02:30:00 PM,SR Created,BOS,Dead Animal Removal,Closed,Call,,N,WV,,01/01/2016 02:30:00 PM,Y,N,"20234 W CANTARA ST, 91306",20234,W,CANTARA,ST,91306,34.21908865,-118.5745921,"(34.2190886466, -118.574592122)",530,D,2,South Valley APC,3,Bob Blumenfield,14,WINNETKA NC,TOPANGA,4282,274,431,,4,66
1-88170581,12/31/2015 03:11:00 PM,01/02/2016 12:36:00 PM,SR Created,BOS,Metal/Household Appliances,Closed,Call,,N,SLA,01/02/2016 12:00:00 AM,01/02/2016 12:36:00 PM,Y,N,"807 E CENTURY BLVD, 90002",807,E,CENTURY,BLVD,90002,33.94581887,-118.2604645,"(33.9458188718, -118.26046447)",704,E,4,South Los Angeles APC,8,Marqueece Harris-Dawson,87,EMPOWERMENT CONGRESS SOUTHEAST AREA NDC,SOUTHEAST,22351,806,1176,7,14,45
1-88169601,12/31/2015 03:11:00 PM,01/04/2016 01:40:00 PM,SR Created,BOS,Illegal Dumping Pickup,Closed,Call,,N,WV,01/04/2016 12:00:00 AM,01/04/2016 01:40:00 PM,Y,N,"7820 N BAIRD AVE, 91335",7820,N,BAIRD,AVE,91335,34.21267928,-118.5373262,"(34.2126792787, -118.537326153)",530,J,3,South Valley APC,3,Bob Blumenfield,15,RESEDA NC,WEST VALLEY,18909,249,551,,4,12
1-88170491,12/31/2015 03:10:00 PM,01/02/2016 11:27:00 AM,SR Created,BOS,Bulky Items,Closed,Call,,N,SLA,01/02/2016 12:00:00 AM,01/02/2016 11:27:00 AM,Y,N,"807 E CENTURY BLVD, 90002",807,E,CENTURY,BLVD,90002,33.94581887,-118.2604645,"(33.9458188718, -118.26046447)",704,E,4,South Los Angeles APC,8,Marqueece Harris-Dawson,87,EMPOWERMENT CONGRESS SOUTHEAST AREA NDC,SOUTHEAST,22351,806,1176,7,14,45
1-88169321,12/31/2015 03:08:00 PM,01/01/2016 02:30:00 PM,SR Created,BOS,Dead Animal Removal,Closed,Call,,Y,WV,,01/01/2016 02:30:00 PM,Y,N,"BALBOA BLVD AT SESNON BLVD, 91344",,,,,91344,34.31038152,-118.5018151,"(34.3103815197, -118.50181511)",481,C,4,North Valley APC,12,Mitchell Englander,4,GRANADA HILLS NORTH NC,DEVONSHIRE,19329,50,1406,,2,78
1-88168361,12/31/2015 03:07:00 PM,01/02/2016 10:01:00 AM,SR Created,BOS,Illegal Dumping Pickup,Closed,Call,,Y,HB,01/02/2016 12:00:00 AM,01/02/2016 10:01:00 AM,Y,N,"552 W 20TH ST, 90731",552,W,20TH,ST,90731,33.72616495,-118.2892066,"(33.7261649491, -118.289206555)",824,B,7,Harbor APC,15,Joe Buscaino,96,COASTAL SAN PEDRO NC,HARBOR,3342,981,1248,,15,33
1-88168311,12/31/2015 03:06:00 PM,01/06/2016 10:00:00 AM,SR Created,BOS,Metal/Household Appliances,Closed,Call,,N,WLA,01/06/2016 12:00:00 AM,01/06/2016 10:00:00 AM,Y,N,"1906 S CLYDE AVE, 90019",1906,S,CLYDE,AVE,90019,34.04115795,-118.3638934,"(34.0411579527, -118.363893427)",633,B,5,South Los Angeles APC,10,Herb J. Wesson Jr.,73,MID CITY NC,WILSHIRE,23080,652,1104,,12,69
1-88167201,12/31/2015 03:05:00 PM,01/02/2016 10:40:00 AM,SR Created,BOS,Bulky Items,Closed,Call,,N,WLA,01/02/2016 12:00:00 AM,01/02/2016 10:40:00 AM,Y,N,"1906 S CLYDE AVE, 90019",1906,S,CLYDE,AVE,90019,34.04115795,-118.3638934,"(34.0411579527, -118.363893427)",633,B,5,South Los Angeles APC,10,Herb J. Wesson Jr.,73,MID CITY NC,WILSHIRE,23080,652,1104,,12,69
1-88167771,12/31/2015 03:05:00 PM,01/05/2016 09:25:00 AM,SR Created,BOS,Bulky Items,Closed,Call,,N,EV,01/05/2016 12:00:00 AM,01/05/2016 09:25:00 AM,Y,N,"7449 N VANTAGE AVE, 91605",7449,N,VANTAGE,AVE,91605,34.20613803,-118.3982028,"(34.2061380297, -118.398202817)",532,G,4,South Valley APC,2,Paul Krekorian,23,NORTH HOLLYWOOD NORTHEAST NC,NORTH HOLLYWOOD,8888,178,1273,,5,14
1-88167651,12/31/2015 03:03:00 PM,01/02/2016 04:44:00 PM,SR Created,BOS,Dead Animal Removal,Closed,Call,,N,SLA,,01/02/2016 04:44:00 PM,Y,N,"1335 S NORTON AVE, 90019",1335,S,NORTON,AVE,90019,34.04655894,-118.3242474,"(34.0465589401, -118.324247388)",633,F,5,South Los Angeles APC,10,Herb J. Wesson Jr.,74,"UNITED NEIGHBORHOODS OF THE HISTORIC ARLINGTON HEIGHTS, WEST ADAMS, AND JEFFERSON PARK COMMUNITY",WILSHIRE,23080,648,899,,12,19
1-88165031,12/31/2015 03:03:00 PM,01/02/2016 10:11:00 AM,SR Created,BOS,Bulky Items,Closed,Call,,N,WLA,01/02/2016 12:00:00 AM,01/02/2016 10:11:00 AM,Y,N,"1906 S CLYDE AVE, 90019",1906,S,CLYDE,AVE,90019,34.04115795,-118.3638934,"(34.0411579527, -118.363893427)",633,B,5,South Los Angeles APC,10,Herb J. Wesson Jr.,73,MID CITY NC,WILSHIRE,23080,652,1104,,12,69
1-88165841,12/31/2015 03:02:00 PM,01/04/2016 12:09:00 PM,SR Created,BOS,Bulky Items,Closed,Call,,N,EV,01/04/2016 12:00:00 AM,01/04/2016 12:09:00 PM,Y,N,"14200 W POLK ST, 91342",14200,W,POLK,ST,91342,34.31372513,-118.4424255,"(34.3137251261, -118.442425498)",482,A,3,North Valley APC,7,Felipe Fuentes,5,SYLMAR NC,MISSION,18912,47,1399,,1,47
1-88166911,12/31/2015 03:02:00 PM,01/01/2016 10:45:00 AM,SR Created,BOS,Dead Animal Removal,Closed,Call,,N,NC,,01/01/2016 10:45:00 AM,Y,N,"5333 E HYDE ST, 90032",5333,E,HYDE,ST,90032,34.0822053,-118.1660231,"(34.0822052975, -118.166023109)",595,F,6,East Los Angeles APC,14,Jose Huizar,48,LA-32 NC,HOLLENBECK,23449,502,613,,9,91
1-88167571,12/31/2015 03:02:00 PM,01/06/2016 11:50:00 AM,SR Created,BOS,Bulky Items,Closed,Call,,N,NC,01/06/2016 12:00:00 AM,01/06/2016 11:50:00 AM,Y,N,"216 N DILLON ST, 90026",216,N,DILLON,ST,90026,34.07417197,-118.2817578,"(34.0741719691, -118.281757809)",634,B,1,Central APC,13,Mitch O'Farrell,53,RAMPART VILLAGE NC,RAMPART,23444,555,941,,8,80
1-88164931,12/31/2015 03:01:00 PM,01/02/2016 11:09:00 AM,SR Created,BOS,Illegal Dumping Pickup,Closed,Mobile App,Android,Y,WV,01/02/2016 12:00:00 AM,01/02/2016 11:09:00 AM,Y,N,"7693 N FALLBROOK AVE, 91304",7693,N,FALLBROOK,AVE,91304,34.21045716,-118.6235211,"(34.2104571616, -118.623521092)",529,H,4,South Valley APC,12,Mitchell Englander,11,WEST HILLS NC,TOPANGA,4279,277,265,,2,44
1-88166761,12/31/2015 03:01:00 PM,01/05/2016 12:46:00 PM,SR Created,BOS,Bulky Items,Closed,Mobile App,Android,N,EV,01/05/2016 12:00:00 AM,01/05/2016 12:46:00 PM,Y,N,"10229 N HILLHAVEN AVE, 91042",10229,N,HILLHAVEN,AVE,91042,34.25499207,-118.2899599,"(34.2549920711, -118.289959899)",504,A,4,North Valley APC,7,Felipe Fuentes,10,SUNLAND-TUJUNGA NC,FOOTHILL,3222,3,221,18,1,7
1-88165671,12/31/2015 03:00:00 PM,01/06/2016 11:52:00 AM,SR Created,BOS,Bulky Items,Closed,Call,,N,NC,01/06/2016 12:00:00 AM,01/06/2016 11:52:00 AM,Y,N,"216 N DILLON ST, 90026",216,N,DILLON,ST,90026,34.07421899,-118.2818214,"(34.0742189892, -118.281821364)",634,B,1,Central APC,13,Mitch O'Farrell,53,RAMPART VILLAGE NC,RAMPART,23444,555,941,,8,80
1-88164201,12/31/2015 03:00:00 PM,01/07/2016 10:11:00 AM,SR Created,BOS,Bulky Items,Closed,Call,,N,WV,01/07/2016 12:00:00 AM,01/07/2016 10:11:00 AM,Y,N,"5301 N NEWCASTLE AVE, 91316",5301,N,NEWCASTLE,AVE,91316,34.16709485,-118.5245261,"(34.1670948547, -118.524526081)",561,A,2,South Valley APC,5,Paul Koretz,18,ENCINO NC,WEST VALLEY,4286,323,955,,6,62
1-88164281,12/31/2015 03:00:00 PM,01/01/2016 02:30:00 PM,SR Created,BOS,Dead Animal Removal,Closed,Call,,N,WV,,01/01/2016 02:30:00 PM,Y,N,"20200 W CANTARA ST, 91306",20200,W,CANTARA,ST,91306,34.21895004,-118.5732403,"(34.2189500375, -118.573240253)",530,D,2,South Valley APC,3,Bob Blumenfield,14,WINNETKA NC,TOPANGA,4282,274,431,,4,66
1-88164831,12/31/2015 03:00:00 PM,01/04/2016 12:31:00 PM,SR Created,BOS,Metal/Household Appliances,Closed,Call,,N,NC,01/04/2016 12:00:00 AM,01/04/2016 12:31:00 PM,Y,N,"2446 N WORKMAN ST, 90031",2446,N,WORKMAN,ST,90031,34.07503329,-118.2143052,"(34.0750332932, -118.214305164)",595,A,7,East Los Angeles APC,1,Gilbert Cedillo,47,LINCOLN HEIGHTS NC,HOLLENBECK,23448,488,516,,11,1
1-88164611,12/31/2015 02:59:00 PM,01/04/2016 03:50:00 PM,SR Created,BOS,Metal/Household Appliances,Closed,Call,,N,SLA,01/04/2016 12:00:00 AM,01/04/2016 03:50:00 PM,Y,N,"2104 S VINEYARD AVE, 90016",2104,S,VINEYARD,AVE,90016,34.03768182,-118.3405569,"(34.0376818225, -118.340556946)",633,E,6,South Los Angeles APC,10,Herb J. Wesson Jr.,73,MID CITY NC,WILSHIRE,23077,655,1111,,12,69
1-88166541,12/31/2015 02:59:00 PM,01/04/2016 12:23:00 PM,SR Created,BOS,Electronic Waste,Closed,Call,,N,NC,01/04/2016 12:00:00 AM,01/04/2016 12:23:00 PM,Y,N,"2446 N WORKMAN ST, 90031",2446,N,WORKMAN,ST,90031,34.07503329,-118.2143052,"(34.0750332932, -118.214305164)",595,A,7,East Los Angeles APC,1,Gilbert Cedillo,47,LINCOLN HEIGHTS NC,HOLLENBECK,23448,488,516,,11,1
1-88164451,12/31/2015 02:58:00 PM,01/01/2016 02:42:00 PM,SR Created,BOS,Dead Animal Removal,Closed,Call,,N,EV,,01/01/2016 02:42:00 PM,Y,N,"9227 N TUJUNGA AVE, 91352",9227,N,TUJUNGA,AVE,91352,34.23664198,-118.3807434,"(34.2366419819, -118.380743419)",502,H,6,North Valley APC,6,Nury Martinez,8,SUN VALLEY AREA NC,FOOTHILL,19335,155,1371,,3,21
1-88165421,12/31/2015 02:58:00 PM,01/05/2016 01:16:00 PM,SR Created,BOS,Metal/Household Appliances,Closed,Call,,N,NC,01/05/2016 12:00:00 AM,01/05/2016 01:16:00 PM,Y,N,"5043 E BUCHANAN ST, 90042",5043,E,BUCHANAN,ST,90042,34.11953583,-118.2059768,"(34.1195358263, -118.205976796)",595,B,1,East Los Angeles APC,1,Gilbert Cedillo,41,HISTORIC HIGHLAND PARK NC,NORTHEAST,23673,366,586,,11,93
1-88163901,12/31/2015 02:56:00 PM,01/04/2016 03:34:00 PM,SR Created,BOS,Bulky Items,Closed,Call,,N,SLA,01/04/2016 12:00:00 AM,01/04/2016 03:34:00 PM,Y,N,"2104 S VINEYARD AVE, 90016",2104,S,VINEYARD,AVE,90016,34.03768182,-118.3405569,"(34.0376818225, -118.340556946)",633,E,6,South Los Angeles APC,10,Herb J. Wesson Jr.,73,MID CITY NC,WILSHIRE,23077,655,1111,,12,69
1-88163271,12/31/2015 02:56:00 PM,01/05/2016 01:06:00 PM,SR Created,BOS,Bulky Items,Closed,Call,,N,NC,01/05/2016 12:00:00 AM,01/05/2016 01:06:00 PM,Y,N,"5043 E BUCHANAN ST, 90042",5043,E,BUCHANAN,ST,90042,34.11953583,-118.2059768,"(34.1195358263, -118.205976796)",595,B,1,East Los Angeles APC,1,Gilbert Cedillo,41,HISTORIC HIGHLAND PARK NC,NORTHEAST,23673,366,586,,11,93
1-88163141,12/31/2015 02:55:00 PM,01/04/2016 10:38:00 AM,SR Created,BOS,Bulky Items,Closed,Call,,N,SLA,01/04/2016 12:00:00 AM,01/04/2016 10:38:00 AM,Y,N,"2104 S VINEYARD AVE, 90016",2104,S,VINEYARD,AVE,90016,34.03768182,-118.3405569,"(34.0376818225, -118.340556946)",633,E,6,South Los Angeles APC,10,Herb J. Wesson Jr.,73,MID CITY NC,WILSHIRE,23077,655,1111,,12,69
1-88163741,12/31/2015 02:55:00 PM,01/02/2016 01:49:00 PM,SR Created,BOS,Metal/Household Appliances,Closed,Call,,N,WV,01/02/2016 12:00:00 AM,01/02/2016 01:49:00 PM,Y,N,"6171 N TONY AVE, 91367",6171,N,TONY,AVE,91367,34.18313597,-118.6453309,"(34.1831359736, -118.645330894)",529,E,7,South Valley APC,3,Bob Blumenfield,16,WOODLAND HILLS-WARNER CENTER NC,TOPANGA,19347,302,1478,,4,49
1-88162971,12/31/2015 02:54:00 PM,01/02/2016 12:47:00 PM,SR Created,BOS,Bulky Items,Closed,Call,,N,WV,01/02/2016 12:00:00 AM,01/02/2016 12:47:00 PM,Y,N,"22400 W PHILIPRIMM ST, 91367",22400,W,PHILIPRIMM,ST,91367,34.17255965,-118.6150602,"(34.1725596536, -118.61506023)",559,J,2,South Valley APC,3,Bob Blumenfield,16,WOODLAND HILLS-WARNER CENTER NC,TOPANGA,19347,306,1485,,4,49
1-88161151,12/31/2015 02:54:00 PM,01/02/2016 10:50:00 AM,SR Created,BOS,Metal/Household Appliances,Closed,Call,,Y,WLA,01/02/2016 12:00:00 AM,01/02/2016 10:50:00 AM,Y,N,"10758 W CLARKSON ROAD, 90064",10758,W,CLARKSON,ROAD,90064,34.03236653,-118.4199186,"(34.0323665257, -118.419918575)",632,D,7,West Los Angeles APC,5,Paul Koretz,62,WESTSIDE NC,WEST LOS ANGELES,24029,888,1251,9,6,75
1-88163641,12/31/2015 02:53:00 PM,01/02/2016 10:05:00 AM,SR Created,BOS,Bulky Items,Closed,Call,,N,WV,01/02/2016 12:00:00 AM,01/02/2016 10:05:00 AM,Y,N,"6171 N TONY AVE, 91367",6171,N,TONY,AVE,91367,34.18313597,-118.6453309,"(34.1831359736, -118.645330894)",529,E,7,South Valley APC,3,Bob Blumenfield,16,WOODLAND HILLS-WARNER CENTER NC,TOPANGA,19347,302,1478,,4,49
1-88161061,12/31/2015 02:52:00 PM,01/07/2016 12:13:00 PM,SR Created,BOS,Electronic Waste,Closed,Mobile App,Android,N,NC,01/07/2016 12:00:00 AM,01/07/2016 12:13:00 PM,Y,N,"259 N NORMANDIE AVE, 90004",259,N,NORMANDIE,AVE,90004,34.07582103,-118.3004985,"(34.0758210302, -118.300498529)",593,J,7,Central APC,10,Herb J. Wesson Jr.,55,WILSHIRE CENTER - KOREATOWN NC,OLYMPIC,22721,586,878,,12,89
1-88161841,12/31/2015 02:52:00 PM,01/02/2016 11:10:00 AM,SR Created,BOS,Bulky Items,Closed,Call,,N,WV,01/02/2016 12:00:00 AM,01/02/2016 11:10:00 AM,Y,N,"8018 N BOBBYBOYAR AVE, 91304",8018,N,BOBBYBOYAR,AVE,91304,34.21532116,-118.6334097,"(34.2153211605, -118.633409685)",529,G,3,South Valley APC,12,Mitchell Englander,11,WEST HILLS NC,TOPANGA,4279,284,1304,,2,44
1-88161771,12/31/2015 02:52:00 PM,01/02/2016 07:38:00 AM,SR Created,BOS,Bulky Items,Closed,Mobile App,Android,Y,WLA,01/02/2016 12:00:00 AM,01/02/2016 07:38:00 AM,Y,N,"1848 S CLOVERDALE AVE, 90019",1848,S,CLOVERDALE,AVE,90019,34.04264553,-118.3533151,"(34.042645531, -118.353315071)",633,C,5,South Los Angeles APC,10,Herb J. Wesson Jr.,73,MID CITY NC,WILSHIRE,23080,652,1110,,12,69
1-88160851,12/31/2015 02:51:00 PM,01/02/2016 01:45:00 PM,SR Created,BOS,Metal/Household Appliances,Closed,Call,,N,WV,01/02/2016 12:00:00 AM,01/02/2016 01:45:00 PM,Y,N,"8018 N BOBBYBOYAR AVE, 91304",8018,N,BOBBYBOYAR,AVE,91304,34.21532116,-118.6334097,"(34.2153211605, -118.633409685)",529,G,3,South Valley APC,12,Mitchell Englander,11,WEST HILLS NC,TOPANGA,4279,284,1304,,2,44
1-88162621,12/31/2015 02:51:00 PM,01/02/2016 07:39:00 AM,SR Created,BOS,Dead Animal Removal,Closed,Call,,N,SLA,,01/02/2016 07:39:00 AM,Y,N,"1742 W EXPOSITION BLVD, 90018",1742,W,EXPOSITION,BLVD,90018,34.01809226,-118.312399,"(34.0180922589, -118.312399026)",673,H,1,South Los Angeles APC,8,Marqueece Harris-Dawson,77,EMPOWERMENT CONGRESS NORTH AREA NDC,SOUTHWEST,24027,731,1016,7,14,32
1-88162501,12/31/2015 02:51:00 PM,01/02/2016 08:59:00 AM,SR Created,BOS,Bulky Items,Closed,Call,,N,WLA,01/02/2016 12:00:00 AM,01/02/2016 08:59:00 AM,Y,N,"2855 S CORNING ST, 90034",2855,S,CORNING,ST,90034,34.03373758,-118.3827863,"(34.0337375828, -118.382786261)",632,J,6,South Los Angeles APC,10,Herb J. Wesson Jr.,61,SOUTH ROBERTSON NC,WEST LOS ANGELES,23451,886,1283,,12,95
1-88163471,12/31/2015 02:51:00 PM,01/02/2016 10:59:00 AM,SR Created,BOS,Bulky Items,Closed,Call,,N,WV,01/02/2016 12:00:00 AM,01/02/2016 10:59:00 AM,Y,N,"6171 N TONY AVE, 91367",6171,N,TONY,AVE,91367,34.18313597,-118.6453309,"(34.1831359736, -118.645330894)",529,E,7,South Valley APC,3,Bob Blumenfield,16,WOODLAND HILLS-WARNER CENTER NC,TOPANGA,19347,302,1478,,4,49
1-88160791,12/31/2015 02:50:00 PM,01/06/2016 02:54:00 PM,SR Created,BOS,Electronic Waste,Closed,Mobile App,Android,Y,WV,01/06/2016 12:00:00 AM,01/06/2016 02:54:00 PM,Y,N,"18227 W SEPTO ST, 91325",18227,W,SEPTO,ST,91325,34.25105993,-118.5307966,"(34.2510599314, -118.5307966)",500,J,5,North Valley APC,12,Mitchell Englander,120,NORTHRIDGE EAST,DEVONSHIRE,18514,81,1301,,2,87
1-88161601,12/31/2015 02:50:00 PM,01/04/2016 09:29:00 AM,SR Created,BOS,Bulky Items,Closed,Call,,N,SLA,01/04/2016 12:00:00 AM,01/04/2016 09:29:00 AM,Y,N,"4570 W DON RICARDO DR, 90008",4570,W,DON RICARDO,DR,90008,34.01135259,-118.3532949,"(34.0113525939, -118.353294915)",673,C,2,South Los Angeles APC,8,Marqueece Harris-Dawson,79,EMPOWERMENT CONGRESS WEST AREA NDC,SOUTHWEST,22725,765,1027,7,14,54
1-88160731,12/31/2015 02:49:00 PM,01/06/2016 02:50:00 PM,SR Created,BOS,Metal/Household Appliances,Closed,Mobile App,Android,Y,WV,01/06/2016 12:00:00 AM,01/06/2016 02:50:00 PM,Y,N,"18227 W SEPTO ST, 91325",18227,W,SEPTO,ST,91325,34.25105993,-118.5307966,"(34.2510599314, -118.5307966)",500,J,5,North Valley APC,12,Mitchell Englander,120,NORTHRIDGE EAST,DEVONSHIRE,18514,81,1301,,2,87
1-88160681,12/31/2015 02:49:00 PM,01/02/2016 10:16:00 AM,SR Created,BOS,Bulky Items,Closed,Call,,N,SLA,01/02/2016 12:00:00 AM,01/02/2016 10:16:00 AM,Y,N,"1772 E 112TH ST, 90059",1772,E,112TH,ST,90059,33.9329196,-118.2416182,"(33.9329195999, -118.241618186)",704,G,6,South Los Angeles APC,15,Joe Buscaino,88,WATTS NC,SOUTHEAST,24354,822,658,7,15,40
1-88160631,12/31/2015 02:49:00 PM,01/04/2016 12:50:00 PM,SR Created,BOS,Bulky Items,Closed,Call,,N,EV,01/04/2016 12:00:00 AM,01/04/2016 12:50:00 PM,Y,N,"13719 N GAVINA AVE, 91342",13719,N,GAVINA,AVE,91342,34.32178483,-118.4059552,"(34.3217848251, -118.405955179)",482,E,2,North Valley APC,7,Felipe Fuentes,5,SYLMAR NC,MISSION,18912,39,368,,1,47
1-88157161,12/31/2015 02:48:00 PM,01/06/2016 10:59:00 AM,SR Created,BOS,Bulky Items,Closed,Call,,N,EV,01/06/2016 12:00:00 AM,01/06/2016 10:59:00 AM,Y,N,"5337 N CEDROS AVE, 91411",5337,N,CEDROS,AVE,91411,34.16763475,-118.4532481,"(34.1676347497, -118.453248078)",561,J,2,South Valley APC,4,David Ryu,26,SHERMAN OAKS NC,VAN NUYS,19735,247,346,,7,83
1-88158161,12/31/2015 02:48:00 PM,01/06/2016 01:23:00 PM,SR Created,BOS,Bulky Items,Closed,Mobile App,Android,Y,WV,01/06/2016 12:00:00 AM,01/06/2016 01:23:00 PM,Y,N,"18227 W SEPTO ST, 91325",18227,W,SEPTO,ST,91325,34.25105993,-118.5307966,"(34.2510599314, -118.5307966)",500,J,5,North Valley APC,12,Mitchell Englander,120,NORTHRIDGE EAST,DEVONSHIRE,18514,81,1301,,2,87
1-88156991,12/31/2015 02:46:00 PM,01/04/2016 08:55:00 AM,SR Created,BOS,Bulky Items,Closed,Call,,N,HB,01/04/2016 12:00:00 AM,01/04/2016 08:55:00 AM,Y,N,"16211 S DENVER AVE, 90248",16211,S,DENVER,AVE,90248,33.88414124,-118.284113,"(33.8841412382, -118.284112974)",734,B,6,Harbor APC,15,Joe Buscaino,90,HARBOR GATEWAY NORTH NC,SOUTHEAST,24685,941,1197,7,15,53
1-88160351,12/31/2015 02:46:00 PM,01/04/2016 03:45:00 PM,SR Created,BOS,Metal/Household Appliances,Closed,Call,,N,SLA,01/04/2016 12:00:00 AM,01/04/2016 03:45:00 PM,Y,N,"3501 S SOMERSET DR, 90016",3501,S,SOMERSET,DR,90016,34.02462015,-118.3375401,"(34.0246201549, -118.337540081)",673,E,1,South Los Angeles APC,10,Herb J. Wesson Jr.,75,WEST ADAMS NC,SOUTHWEST,23077,668,926,7,12,17
1-88156201,12/31/2015 02:45:00 PM,01/04/2016 10:54:00 AM,SR Created,BOS,Bulky Items,Closed,Call,,N,SLA,01/04/2016 12:00:00 AM,01/04/2016 10:54:00 AM,Y,N,"3501 S SOMERSET DR, 90016",3501,S,SOMERSET,DR,90016,34.02478599,-118.337457,"(34.0247859898, -118.337456967)",673,E,1,South Los Angeles APC,10,Herb J. Wesson Jr.,75,WEST ADAMS NC,SOUTHWEST,23077,668,926,7,12,17
1-88156101,12/31/2015 02:44:00 PM,01/07/2016 08:52:00 AM,SR Created,BOS,Bulky Items,Closed,Mobile App,Android,Y,NC,01/07/2016 12:00:00 AM,01/07/2016 08:52:00 AM,Y,N,"5531 W LEXINGTON AVE, 90038",5531,W,LEXINGTON,AVE,90038,34.09288058,-118.3103772,"(34.092880584, -118.310377186)",593,H,5,Central APC,13,Mitch O'Farrell,33,HOLLYWOOD STUDIO DISTRICT NC,HOLLYWOOD,23669,425,412,,8,57
1-88154961,12/31/2015 02:43:00 PM,01/05/2016 12:31:00 PM,SR Created,BOS,Bulky Items,Closed,Call,,N,HB,01/05/2016 12:00:00 AM,01/05/2016 12:31:00 PM,Y,N,"1711 N AMELIA AVE, 90731",1711,N,AMELIA,AVE,90731,33.75993361,-118.3013857,"(33.7599336121, -118.301385745)",824,A,2,Harbor APC,15,Joe Buscaino,94,NORTHWEST SAN PEDRO NC,HARBOR,3342,968,1443,,15,25
1-88157461,12/31/2015 02:42:00 PM,01/01/2016 02:30:00 PM,SR Created,BOS,Dead Animal Removal,Closed,Call,,N,WV,,01/01/2016 02:30:00 PM,Y,N,"7433 N DE SOTO AVE, 91303",7433,N,DE SOTO,AVE,91303,34.20559053,-118.5887122,"(34.2055905272, -118.588712208)",530,C,4,South Valley APC,3,Bob Blumenfield,13,CANOGA PARK NC,TOPANGA,4278,271,273,,4,37
1-88157401,12/31/2015 02:41:00 PM,01/05/2016 09:31:00 AM,SR Created,BOS,Bulky Items,Closed,Mobile App,Android,Y,SLA,01/05/2016 12:00:00 AM,01/05/2016 09:31:00 AM,Y,N,"1038 W VERNON AVE, 90037",1038,W,VERNON,AVE,90037,34.00352723,-118.2930638,"(34.0035272324, -118.293063764)",674,A,3,South Los Angeles APC,9,Curren D. Price Jr.,109,VOICES OF 90037,77TH STREET,23668,740,1154,7,13,2
1-88157361,12/31/2015 02:41:00 PM,01/02/2016 11:04:00 AM,SR Created,BOS,Bulky Items,Closed,Call,,N,NC,01/02/2016 12:00:00 AM,01/02/2016 11:04:00 AM,Y,N,"311 S ORANGE DR, 90036",311,S,ORANGE,DR,90036,34.06846108,-118.3420302,"(34.0684610814, -118.34203022)",633,D,2,Central APC,4,David Ryu,119,GREATER WILSHIRE NC,WILSHIRE,23667,577,1347,,7,86
1-88156531,12/31/2015 02:41:00 PM,01/06/2016 03:06:00 PM,SR Created,BOS,Metal/Household Appliances,Closed,Call,,Y,SLA,01/06/2016 12:00:00 AM,01/06/2016 03:06:00 PM,Y,N,"4151 S MAIN ST, 90037",4151,S,MAIN,ST,90037,34.00808672,-118.2742304,"(34.0080867227, -118.27423039)",674,C,3,South Los Angeles APC,9,Curren D. Price Jr.,125,ZAPATA KING NC,NEWTON,23668,736,978,7,13,
1-88154821,12/31/2015 02:41:00 PM,01/07/2016 11:24:00 AM,SR Created,BOS,Bulky Items,Closed,Call,,Y,EV,01/07/2016 12:00:00 AM,01/07/2016 11:24:00 AM,Y,N,"7001 N KESTER AVE, 91405",7001,N,KESTER,AVE,91405,34.1975537,-118.4576697,"(34.197553703, -118.457669655)",531,J,5,South Valley APC,6,Nury Martinez,20,VAN NUYS NC,VAN NUYS,19733,230,287,,3,18
1-88156631,12/31/2015 02:41:00 PM,01/02/2016 12:08:00 PM,SR Created,BOS,Bulky Items,Closed,Call,,N,HB,01/02/2016 12:00:00 AM,01/02/2016 12:08:00 PM,Y,N,"430 W 8TH ST, 90731",430,W,8TH,ST,90731,33.73704377,-118.2865195,"(33.7370437715, -118.286519466)",824,B,5,Harbor APC,15,Joe Buscaino,95,CENTRAL SAN PEDRO NC,HARBOR,3342,979,1271,,15,36
1-88156451,12/31/2015 02:40:00 PM,01/02/2016 12:09:00 PM,SR Created,BOS,Bulky Items,Closed,Call,,N,HB,01/02/2016 12:00:00 AM,01/02/2016 12:09:00 PM,Y,N,"430 W 8TH ST, 90731",430,W,8TH,ST,90731,33.73704377,-118.2865195,"(33.7370437715, -118.286519466)",824,B,5,Harbor APC,15,Joe Buscaino,95,CENTRAL SAN PEDRO NC,HARBOR,3342,979,1271,,15,36
1-88155531,12/31/2015 02:39:00 PM,01/06/2016 12:59:00 PM,SR Created,BOS,Bulky Items,Closed,Call,,Y,SLA,01/06/2016 12:00:00 AM,01/06/2016 12:59:00 PM,Y,N,"4151 S MAIN ST, 90037",4151,S,MAIN,ST,90037,34.00808672,-118.2742304,"(34.0080867227, -118.27423039)",674,C,3,South Los Angeles APC,9,Curren D. Price Jr.,125,ZAPATA KING NC,NEWTON,23668,736,978,7,13,
1-88153271,12/31/2015 02:39:00 PM,01/05/2016 11:40:00 AM,SR Created,BOS,Bulky Items,Closed,Mobile App,Android,Y,NC,01/05/2016 12:00:00 AM,01/05/2016 11:40:00 AM,Y,N,"112 S AVENUE 66, 90042",112,S,AVENUE 66,,90042,34.11329169,-118.1792566,"(34.1132916864, -118.179256568)",595,E,2,East Los Angeles APC,14,Jose Huizar,41,HISTORIC HIGHLAND PARK NC,NORTHEAST,23673,360,577,,9,93
1-88154001,12/31/2015 02:38:00 PM,01/02/2016 12:41:00 PM,SR Created,BOS,Bulky Items,Closed,Mobile App,Android,Y,NC,01/02/2016 12:00:00 AM,01/02/2016 12:41:00 PM,Y,N,"929 S SERRANO AVE, 90006",929,S,SERRANO,AVE,90006,34.05504247,-118.3067703,"(34.0550424736, -118.306770252)",633,H,3,Central APC,10,Herb J. Wesson Jr.,55,WILSHIRE CENTER - KOREATOWN NC,OLYMPIC,22723,609,647,,12,89
1-88153171,12/31/2015 02:38:00 PM,01/06/2016 09:51:00 AM,SR Created,BOS,Bulky Items,Closed,Call,,Y,SLA,01/06/2016 12:00:00 AM,01/06/2016 09:51:00 AM,Y,N,"4151 S MAIN ST, 90037",4151,S,MAIN,ST,90037,34.00808672,-118.2742304,"(34.0080867227, -118.27423039)",674,C,3,South Los Angeles APC,9,Curren D. Price Jr.,125,ZAPATA KING NC,NEWTON,23668,736,978,7,13,
1-88152241,12/31/2015 02:37:00 PM,01/02/2016 10:32:00 AM,SR Created,BOS,Bulky Items,Closed,Call,,N,SLA,01/02/2016 12:00:00 AM,01/02/2016 10:32:00 AM,Y,N,"126 E 85TH ST, 90003",126,E,85TH,ST,90003,33.96088012,-118.2729502,"(33.9608801194, -118.272950227)",704,C,2,South Los Angeles APC,9,Curren D. Price Jr.,87,EMPOWERMENT CONGRESS SOUTHEAST AREA NDC,77TH STREET,22352,795,1001,7,13,45
1-88154411,12/31/2015 02:37:00 PM,01/02/2016 10:29:00 AM,SR Created,BOS,Bulky Items,Closed,Call,,N,SLA,01/02/2016 12:00:00 AM,01/02/2016 10:29:00 AM,Y,N,"126 E 85TH ST, 90003",126,E,85TH,ST,90003,33.96088012,-118.2729502,"(33.9608801194, -118.272950227)",704,C,2,South Los Angeles APC,9,Curren D. Price Jr.,87,EMPOWERMENT CONGRESS SOUTHEAST AREA NDC,77TH STREET,22352,795,1001,7,13,45
1-88152171,12/31/2015 02:36:00 PM,01/02/2016 11:38:00 AM,SR Created,BOS,Bulky Items,Closed,Mobile App,Android,Y,NC,01/02/2016 12:00:00 AM,01/02/2016 11:38:00 AM,Y,N,"929 S SERRANO AVE, 90006",929,S,SERRANO,AVE,90006,34.05504247,-118.3067703,"(34.0550424736, -118.306770252)",633,H,3,Central APC,10,Herb J. Wesson Jr.,55,WILSHIRE CENTER - KOREATOWN NC,OLYMPIC,22723,609,647,,12,89
1-88153741,12/31/2015 02:34:00 PM,01/07/2016 12:54:00 PM,SR Created,BOS,Bulky Items,Closed,Mobile App,Android,Y,NC,01/07/2016 12:00:00 AM,01/07/2016 12:54:00 PM,Y,N,"134 N NORMANDIE AVE, 90004",134,N,NORMANDIE,AVE,90004,34.07417143,-118.3003877,"(34.074171433, -118.300387715)",633,J,1,Central APC,13,Mitch O'Farrell,55,WILSHIRE CENTER - KOREATOWN NC,OLYMPIC,22721,581,878,,8,89
1-88151071,12/31/2015 02:34:00 PM,01/02/2016 07:39:00 AM,SR Created,BOS,Dead Animal Removal,Closed,Call,,N,SLA,,01/02/2016 07:39:00 AM,Y,N,"467 W 46TH ST, 90037",467,W,46TH,ST,90037,34.00204851,-118.2819796,"(34.0020485114, -118.281979592)",674,B,4,South Los Angeles APC,9,Curren D. Price Jr.,109,VOICES OF 90037,77TH STREET,23668,739,896,7,13,2
1-88153671,12/31/2015 02:34:00 PM,01/07/2016 10:23:00 AM,SR Created,BOS,Bulky Items,Closed,Call,,N,WV,01/07/2016 12:00:00 AM,01/07/2016 10:23:00 AM,Y,N,"5312 N CORBIN AVE, 91356",5312,N,CORBIN,AVE,91356,34.16764618,-118.5626852,"(34.1676461818, -118.562685183)",560,F,2,South Valley APC,3,Bob Blumenfield,17,TARZANA NC,WEST VALLEY,19339,321,1494,,4,10
1-88152661,12/31/2015 02:33:00 PM,01/02/2016 01:09:00 PM,SR Created,BOS,Bulky Items,Closed,Call,,N,WV,01/02/2016 12:00:00 AM,01/02/2016 01:09:00 PM,Y,N,"7114 N ATHELING WAY, 91307",7114,N,ATHELING,WAY,91307,34.19812617,-118.63454,"(34.1981261678, -118.634539978)",529,F,5,South Valley APC,12,Mitchell Englander,11,WEST HILLS NC,TOPANGA,4283,283,1549,,2,44
1-88152701,12/31/2015 02:33:00 PM,01/18/2016 08:05:00 AM,SR Created,BOS,Bulky Items,Closed,Mobile App,Android,Y,NC,01/10/2016 12:00:00 AM,01/18/2016 08:05:00 AM,Y,N,"1407 N ALEXANDRIA AVE, 90027",1407,N,ALEXANDRIA,AVE,90027,34.09676069,-118.298692,"(34.0967606869, -118.298692002)",593,J,5,Central APC,13,Mitch O'Farrell,34,EAST HOLLYWOOD NC,NORTHEAST,23445,430,456,,8,58
1-88152481,12/31/2015 02:32:00 PM,01/18/2016 08:05:00 AM,SR Created,BOS,Illegal Dumping Pickup,Closed,Mobile App,Android,Y,NC,01/10/2016 12:00:00 AM,01/18/2016 08:05:00 AM,Y,N,"1407 N ALEXANDRIA AVE, 90027",1407,N,ALEXANDRIA,AVE,90027,34.09676069,-118.298692,"(34.0967606869, -118.298692002)",593,J,5,Central APC,13,Mitch O'Farrell,34,EAST HOLLYWOOD NC,NORTHEAST,23445,430,456,,8,58
1-88151631,12/31/2015 02:32:00 PM,01/02/2016 11:00:00 AM,SR Created,BOS,Bulky Items,Closed,Call,,N,WV,01/02/2016 12:00:00 AM,01/02/2016 11:00:00 AM,Y,N,"7114 N ATHELING WAY, 91307",7114,N,ATHELING,WAY,91307,34.19812617,-118.63454,"(34.1981261678, -118.634539978)",529,F,5,South Valley APC,12,Mitchell Englander,11,WEST HILLS NC,TOPANGA,4283,283,1549,,2,44
1-88150791,12/31/2015 02:31:00 PM,01/05/2016 11:34:00 AM,SR Created,BOS,Bulky Items,Closed,Call,,N,NC,01/05/2016 12:00:00 AM,01/05/2016 11:34:00 AM,Y,N,"4610 E FERN PL, 90032",4610,E,FERN,PL,90032,34.08197325,-118.1910496,"(34.0819732468, -118.191049609)",595,D,6,East Los Angeles APC,14,Jose Huizar,48,LA-32 NC,HOLLENBECK,23449,498,384,,9,91
1-88148221,12/31/2015 02:29:00 PM,01/06/2016 11:49:00 AM,SR Created,BOS,Bulky Items,Closed,Mobile App,Android,Y,NC,01/06/2016 12:00:00 AM,01/06/2016 11:49:00 AM,Y,N,"2335 N ELMGROVE ST, 90031",2335,N,ELMGROVE,ST,90031,34.08777048,-118.2304258,"(34.0877704824, -118.230425792)",594,H,6,East Los Angeles APC,13,Mitch O'Farrell,43,ELYSIAN VALLEY RIVERSIDE NC,NORTHEAST,23448,478,617,,8,22
1-88150261,12/31/2015 02:29:00 PM,01/04/2016 03:43:00 PM,SR Created,BOS,Metal/Household Appliances,Closed,Call,,N,SLA,01/04/2016 12:00:00 AM,01/04/2016 03:43:00 PM,Y,N,"4225 W ADAMS BLVD, 90018",4225,W,ADAMS,BLVD,90018,34.0327453,-118.3316576,"(34.0327453009, -118.331657592)",633,F,6,South Los Angeles APC,10,Herb J. Wesson Jr.,74,"UNITED NEIGHBORHOODS OF THE HISTORIC ARLINGTON HEIGHTS, WEST ADAMS, AND JEFFERSON PARK COMMUNITY",SOUTHWEST,23079,657,903,7,12,19
1-88148291,12/31/2015 02:29:00 PM,01/04/2016 02:01:00 PM,SR Created,BOS,Bulky Items,Closed,Call,,N,SLA,01/04/2016 12:00:00 AM,01/04/2016 02:01:00 PM,Y,N,"4225 W ADAMS BLVD, 90018",4225,W,ADAMS,BLVD,90018,34.0327453,-118.3316576,"(34.0327453009, -118.331657592)",633,F,6,South Los Angeles APC,10,Herb J. Wesson Jr.,74,"UNITED NEIGHBORHOODS OF THE HISTORIC ARLINGTON HEIGHTS, WEST ADAMS, AND JEFFERSON PARK COMMUNITY",SOUTHWEST,23079,657,903,7,12,19
1-88148071,12/31/2015 02:28:00 PM,01/04/2016 12:37:00 PM,SR Created,BOS,Bulky Items,Closed,Call,,N,SLA,01/04/2016 12:00:00 AM,01/04/2016 12:37:00 PM,Y,N,"4225 W ADAMS BLVD, 90018",4225,W,ADAMS,BLVD,90018,34.0327453,-118.3316576,"(34.0327453009, -118.331657592)",633,F,6,South Los Angeles APC,10,Herb J. Wesson Jr.,74,"UNITED NEIGHBORHOODS OF THE HISTORIC ARLINGTON HEIGHTS, WEST ADAMS, AND JEFFERSON PARK COMMUNITY",SOUTHWEST,23079,657,903,7,12,19
1-88149961,12/31/2015 02:28:00 PM,01/02/2016 10:21:00 AM,SR Created,BOS,Illegal Dumping Pickup,Closed,Mobile App,Android,Y,NC,01/02/2016 12:00:00 AM,01/02/2016 10:21:00 AM,Y,N,"5298 W 8TH ST, 90036",5298,W,8TH,ST,90036,34.06046528,-118.3444219,"(34.0604652818, -118.344421915)",633,D,3,Central APC,4,David Ryu,119,GREATER WILSHIRE NC,WILSHIRE,23667,637,220,,7,86
1-88149141,12/31/2015 02:28:00 PM,01/06/2016 03:36:00 AM,SR Created,BOS,Metal/Household Appliances,Closed,Call,,N,EV,01/05/2016 12:00:00 AM,01/06/2016 03:36:00 AM,Y,N,"6633 N VINELAND AVE, 91606",6633,N,VINELAND,AVE,91606,34.19124803,-118.3705574,"(34.1912480334, -118.370557386)",533,A,6,South Valley APC,2,Paul Krekorian,24,MID-TOWN NORTH HOLLYWOOD NC,NORTH HOLLYWOOD,8889,177,1076,,5,13
1-88148951,12/31/2015 02:27:00 PM,01/02/2016 12:16:00 PM,SR Created,BOS,Bulky Items,Closed,Call,,N,SLA,01/02/2016 12:00:00 AM,01/02/2016 12:16:00 PM,Y,N,"635 E 109TH ST, 90059",635,E,109TH,ST,90059,33.93735319,-118.2638974,"(33.93735319, -118.263897437)",704,E,5,South Los Angeles APC,8,Marqueece Harris-Dawson,87,EMPOWERMENT CONGRESS SOUTHEAST AREA NDC,SOUTHEAST,24354,808,1190,7,14,45
1-88149781,12/31/2015 02:26:00 PM,01/02/2016 11:43:00 AM,SR Created,BOS,Bulky Items,Closed,Call,,N,EV,01/02/2016 12:00:00 AM,01/02/2016 11:43:00 AM,Y,N,"11054 N HERRICK AVE, 91331",11054,N,HERRICK,AVE,91331,34.27092068,-118.4144469,"(34.2709206796, -118.414446916)",502,D,2,North Valley APC,7,Felipe Fuentes,7,PACOIMA NC,FOOTHILL,18907,31,1369,,1,11
1-88147931,12/31/2015 02:26:00 PM,01/04/2016 04:49:00 PM,SR Created,BOS,Bulky Items,Closed,Mobile App,Android,Y,WLA,01/04/2016 12:00:00 AM,01/04/2016 04:49:00 PM,Y,N,"1068 E HARDING AVE, 90291",1068,E,HARDING,AVE,90291,33.99349011,-118.4526129,"(33.9934901115, -118.452612914)",672,A,5,West Los Angeles APC,11,Mike Bonin,68,VENICE NC,PACIFIC,25073,912,1395,10,10,30
1-88149691,12/31/2015 02:26:00 PM,01/02/2016 01:10:00 PM,SR Created,BOS,Bulky Items,Closed,Call,,N,WV,01/02/2016 12:00:00 AM,01/02/2016 01:10:00 PM,Y,N,"7241 N POMELO DR, 91307",7241,N,POMELO,DR,91307,34.20230052,-118.6469632,"(34.2023005161, -118.646963202)",529,E,5,South Valley APC,12,Mitchell Englander,11,WEST HILLS NC,TOPANGA,4283,282,1548,,2,44
1-88149521,12/31/2015 02:25:00 PM,01/04/2016 04:49:00 PM,SR Created,BOS,Illegal Dumping Pickup,Closed,Mobile App,Android,Y,WLA,01/04/2016 12:00:00 AM,01/04/2016 04:49:00 PM,Y,N,"1068 E HARDING AVE, 90291",1068,E,HARDING,AVE,90291,33.99349011,-118.4526129,"(33.9934901115, -118.452612914)",672,A,5,West Los Angeles APC,11,Mike Bonin,68,VENICE NC,PACIFIC,25073,912,1395,10,10,30
1-88146221,12/31/2015 02:24:00 PM,01/06/2016 10:43:00 AM,SR Created,BOS,Bulky Items,Closed,Call,,N,NC,01/06/2016 12:00:00 AM,01/06/2016 10:43:00 AM,Y,N,"3436 W MADERA AVE, 90039",3436,W,MADERA,AVE,90039,34.11528658,-118.2604819,"(34.1152865756, -118.260481867)",594,E,2,East Los Angeles APC,13,Mitch O'Farrell,37,ATWATER VILLAGE NC,NORTHEAST,23670,391,450,,8,42
1-88146081,12/31/2015 02:22:00 PM,01/18/2016 03:55:00 PM,SR Created,BOS,Metal/Household Appliances,Closed,Call,,Y,WV,01/18/2016 12:00:00 AM,01/18/2016 03:55:00 PM,Y,N,"11315 N ANDASOL AVE, 91344",11315,N,ANDASOL,AVE,91344,34.27629255,-118.5139143,"(34.2762925506, -118.513914262)",501,B,1,North Valley APC,12,Mitchell Englander,118,GRANADA HILLS SOUTH NC,DEVONSHIRE,19329,78,1414,,2,79
1-88146041,12/31/2015 02:22:00 PM,01/02/2016 01:49:00 PM,SR Created,BOS,Electronic Waste,Closed,Call,,N,WV,01/02/2016 12:00:00 AM,01/02/2016 01:49:00 PM,Y,N,"24045 W CALIFA ST, 91367",24045,W,CALIFA,ST,91367,34.17795955,-118.6516659,"(34.1779595485, -118.651665872)",559,E,1,South Valley APC,3,Bob Blumenfield,16,WOODLAND HILLS-WARNER CENTER NC,TOPANGA,19347,308,1481,,4,49
1-88147091,12/31/2015 02:22:00 PM,01/02/2016 10:34:00 AM,SR Created,BOS,Bulky Items,Closed,Mobile App,Android,Y,NC,01/02/2016 12:00:00 AM,01/02/2016 10:34:00 AM,Y,N,"835 S ORANGE DR, 90036",835,S,ORANGE,DR,90036,34.05952772,-118.3430162,"(34.0595277166, -118.343016186)",633,D,3,Central APC,4,David Ryu,119,GREATER WILSHIRE NC,WILSHIRE,23667,637,220,,7,86
1-88145931,12/31/2015 02:21:00 PM,01/02/2016 12:48:00 PM,SR Created,BOS,Bulky Items,Closed,Call,,N,WV,01/02/2016 12:00:00 AM,01/02/2016 12:48:00 PM,Y,N,"24045 W CALIFA ST, 91367",24045,W,CALIFA,ST,91367,34.17795955,-118.6516659,"(34.1779595485, -118.651665872)",559,E,1,South Valley APC,3,Bob Blumenfield,16,WOODLAND HILLS-WARNER CENTER NC,TOPANGA,19347,308,1481,,4,49
1-88145091,12/31/2015 02:21:00 PM,01/07/2016 12:17:00 PM,SR Created,BOS,Bulky Items,Closed,Call,,N,SLA,01/07/2016 12:00:00 AM,01/07/2016 12:17:00 PM,Y,N,"1708 W 62ND ST, 90047",1708,W,62ND,ST,90047,33.98312971,-118.3071918,"(33.9831297076, -118.307191841)",673,H,6,South Los Angeles APC,8,Marqueece Harris-Dawson,81,EMPOWERMENT CONGRESS CENTRAL AREA NDC,77TH STREET,23678,769,1158,7,14,35
1-88146831,12/31/2015 02:20:00 PM,01/02/2016 10:45:00 AM,SR Created,BOS,Metal/Household Appliances,Closed,Call,,N,WLA,01/02/2016 12:00:00 AM,01/02/2016 10:45:00 AM,Y,N,"461 N TUALLITAN ROAD, 90049",461,N,TUALLITAN,ROAD,90049,34.06733603,-118.4841956,"(34.0673360303, -118.484195627)",631,F,2,West Los Angeles APC,11,Mike Bonin,,,WEST LOS ANGELES,23680,832,778,,10,
1-88144901,12/31/2015 02:20:00 PM,01/04/2016 02:01:00 PM,SR Created,BOS,Bulky Items,Closed,Call,,N,SLA,01/11/2016 12:00:00 AM,01/04/2016 02:01:00 PM,Y,N,"2939 S BRONSON AVE, 90018",2939,S,BRONSON,AVE,90018,34.02830826,-118.3340968,"(34.0283082642, -118.334096772)",633,E,7,South Los Angeles APC,10,Herb J. Wesson Jr.,74,"UNITED NEIGHBORHOODS OF THE HISTORIC ARLINGTON HEIGHTS, WEST ADAMS, AND JEFFERSON PARK COMMUNITY",SOUTHWEST,23079,662,920,7,12,19
1-88145811,12/31/2015 02:20:00 PM,01/02/2016 12:50:00 PM,SR Created,BOS,Bulky Items,Closed,Call,,N,WV,01/02/2016 12:00:00 AM,01/02/2016 12:50:00 PM,Y,N,"24045 W CALIFA ST, 91367",24045,W,CALIFA,ST,91367,34.17795955,-118.6516659,"(34.1779595485, -118.651665872)",559,E,1,South Valley APC,3,Bob Blumenfield,16,WOODLAND HILLS-WARNER CENTER NC,TOPANGA,19347,308,1481,,4,49
1-88146551,12/31/2015 02:19:00 PM,01/07/2016 09:13:00 AM,SR Created,BOS,Bulky Items,Closed,Call,,Y,NC,01/07/2016 12:00:00 AM,01/07/2016 09:13:00 AM,Y,N,"100 S NORMANDIE AVE, 90004",100,S,NORMANDIE,AVE,90004,34.07258607,-118.3002966,"(34.0725860736, -118.300296578)",633,J,1,Central APC,13,Mitch O'Farrell,55,WILSHIRE CENTER - KOREATOWN NC,OLYMPIC,22721,583,937,,8,89
1-88145691,12/31/2015 02:19:00 PM,01/07/2016 10:04:00 AM,SR Created,BOS,Bulky Items,Closed,Call,,N,WLA,01/07/2016 12:00:00 AM,01/07/2016 10:04:00 AM,Y,N,"7133 W HAWTHORN AVE, 90046",7133,W,HAWTHORN,AVE,90046,34.09987449,-118.3460011,"(34.0998744892, -118.346001136)",593,D,4,Central APC,4,David Ryu,29,HOLLYWOOD HILLS WEST NC,HOLLYWOOD,23677,412,799,,7,82
1-88146601,12/31/2015 02:19:00 PM,01/02/2016 10:21:00 AM,SR Created,BOS,Illegal Dumping Pickup,Closed,Call,,N,NC,01/02/2016 12:00:00 AM,01/02/2016 10:21:00 AM,Y,N,"1278 S QUEEN ANNE PL, 90019",1278,S,QUEEN ANNE,PL,90019,34.04918043,-118.3322244,"(34.0491804341, -118.332224388)",633,E,4,Central APC,10,Herb J. Wesson Jr.,104,OLYMPIC PARK NC,WILSHIRE,23080,614,1345,,12,52
1-88146681,12/31/2015 02:19:00 PM,01/07/2016 03:15:00 PM,SR Created,BOS,Metal/Household Appliances,Closed,Call,,N,SLA,01/07/2016 12:00:00 AM,01/07/2016 03:15:00 PM,Y,N,"1708 W 62ND ST, 90047",1708,W,62ND,ST,90047,33.98312971,-118.3071918,"(33.9831297076, -118.307191841)",673,H,6,South Los Angeles APC,8,Marqueece Harris-Dawson,81,EMPOWERMENT CONGRESS CENTRAL AREA NDC,77TH STREET,23678,769,1158,7,14,35
1-88144611,12/31/2015 02:17:00 PM,01/07/2016 12:27:00 PM,SR Created,BOS,Bulky Items,Closed,Call,,N,SLA,01/07/2016 12:00:00 AM,01/07/2016 12:27:00 PM,Y,N,"1708 W 62ND ST, 90047",1708,W,62ND,ST,90047,33.98312971,-118.3071918,"(33.9831297076, -118.307191841)",673,H,6,South Los Angeles APC,8,Marqueece Harris-Dawson,81,EMPOWERMENT CONGRESS CENTRAL AREA NDC,77TH STREET,23678,769,1158,7,14,35
1-88145361,12/31/2015 02:17:00 PM,01/02/2016 10:34:00 AM,SR Created,BOS,Bulky Items,Closed,Call,,N,NC,01/02/2016 12:00:00 AM,01/02/2016 10:34:00 AM,Y,N,"1278 S QUEEN ANNE PL, 90019",1278,S,QUEEN ANNE,PL,90019,34.04918043,-118.3322244,"(34.0491804341, -118.332224388)",633,E,4,Central APC,10,Herb J. Wesson Jr.,104,OLYMPIC PARK NC,WILSHIRE,23080,614,1345,,12,52
1-88138221,12/31/2015 02:16:00 PM,01/01/2016 03:39:00 PM,SR Created,BOS,Dead Animal Removal,Closed,Call,,N,WLA,,01/01/2016 03:39:00 PM,Y,N,"2846 S MANSFIELD AVE, 90016",2846,S,MANSFIELD,AVE,90016,34.02770151,-118.3539641,"(34.0277015073, -118.353964102)",633,C,7,South Los Angeles APC,10,Herb J. Wesson Jr.,75,WEST ADAMS NC,SOUTHWEST,23077,665,986,,12,17
1-88144411,12/31/2015 02:16:00 PM,01/02/2016 01:53:00 PM,SR Created,BOS,Electronic Waste,Closed,Call,,N,WV,01/02/2016 12:00:00 AM,01/02/2016 01:53:00 PM,Y,N,"22850 W LULL ST, 91304",22850,W,LULL,ST,91304,34.20897251,-118.625266,"(34.2089725055, -118.62526601)",529,H,4,South Valley APC,12,Mitchell Englander,11,WEST HILLS NC,TOPANGA,4279,284,1469,,2,44
1-88144451,12/31/2015 02:16:00 PM,01/05/2016 08:12:00 AM,SR Created,BOS,Illegal Dumping Pickup,Closed,Call,,N,EV,01/05/2016 12:00:00 AM,01/05/2016 08:12:00 AM,Y,N,"6728 N BELLINGHAM AVE, 91606",6728,N,BELLINGHAM,AVE,91606,34.19299472,-118.398554,"(34.1929947171, -118.39855404)",532,F,6,South Valley APC,2,Paul Krekorian,24,MID-TOWN NORTH HOLLYWOOD NC,NORTH HOLLYWOOD,8889,178,495,,5,13
1-88139871,12/31/2015 02:16:00 PM,01/07/2016 11:34:00 AM,SR Created,BOS,Illegal Dumping Pickup,Closed,Call,,Y,NC,01/07/2016 12:00:00 AM,01/07/2016 11:34:00 AM,Y,N,"4025 W OAKWOOD AVE, 90004",4025,W,OAKWOOD,AVE,90004,34.07782178,-118.2942354,"(34.07782178, -118.294235355)",594,A,7,Central APC,13,Mitch O'Farrell,55,WILSHIRE CENTER - KOREATOWN NC,RAMPART,22721,454,455,16,8,89
1-88137211,12/31/2015 02:16:00 PM,01/06/2016 01:28:00 PM,SR Created,BOS,Bulky Items,Closed,Call,,Y,WV,01/06/2016 12:00:00 AM,01/06/2016 01:28:00 PM,Y,N,"10854 N HAYVENHURST AVE, 91344",10854,N,HAYVENHURST,AVE,91344,34.26810748,-118.4933567,"(34.2681074824, -118.493356738)",501,D,2,North Valley APC,12,Mitchell Englander,118,GRANADA HILLS SOUTH NC,DEVONSHIRE,19329,77,387,,2,79
1-88144491,12/31/2015 02:16:00 PM,01/04/2016 08:33:00 AM,SR Created,BOS,Bulky Items,Closed,Call,,N,EV,01/04/2016 12:00:00 AM,01/04/2016 08:33:00 AM,Y,N,"13843 N CRANSTON AVE, 91342",13843,N,CRANSTON,AVE,91342,34.32364933,-118.4344928,"(34.3236493338, -118.434492759)",482,B,2,North Valley APC,7,Felipe Fuentes,5,SYLMAR NC,MISSION,18912,37,1398,,1,47
1-88138131,12/31/2015 02:15:00 PM,01/02/2016 10:54:00 AM,SR Created,BOS,Metal/Household Appliances,Closed,Call,,N,WLA,01/02/2016 12:00:00 AM,01/02/2016 10:54:00 AM,Y,N,"2616 S BUNDY DR, 90064",2616,S,BUNDY,DR,90064,34.02407594,-118.4457682,"(34.0240759431, -118.445768202)",672,A,1,West Los Angeles APC,11,Mike Bonin,67,MAR VISTA CC,PACIFIC,24029,890,347,9,10,27
1-88136281,12/31/2015 02:15:00 PM,01/06/2016 12:41:00 PM,SR Created,BOS,Electronic Waste,Closed,Call,,N,EV,01/06/2016 12:00:00 AM,01/06/2016 12:41:00 PM,Y,N,"5457 N NOBLE AVE, 91411",5457,N,NOBLE,AVE,91411,34.17017047,-118.4621465,"(34.1701704661, -118.462146497)",561,H,2,South Valley APC,4,David Ryu,26,SHERMAN OAKS NC,VAN NUYS,19735,246,666,,7,83
1-88136071,12/31/2015 02:14:00 PM,01/06/2016 09:03:00 AM,SR Created,BOS,Bulky Items,Closed,Call,,N,WLA,01/06/2016 12:00:00 AM,01/06/2016 09:03:00 AM,Y,N,"2616 S BUNDY DR, 90064",2616,S,BUNDY,DR,90064,34.02407594,-118.4457682,"(34.0240759431, -118.445768202)",672,A,1,West Los Angeles APC,11,Mike Bonin,67,MAR VISTA CC,PACIFIC,24029,890,347,9,10,27
1-88136111,12/31/2015 02:14:00 PM,01/07/2016 03:11:00 PM,SR Created,BOS,Metal/Household Appliances,Closed,Call,,N,SLA,01/07/2016 12:00:00 AM,01/07/2016 03:11:00 PM,Y,N,"7713 S BUDLONG AVE, 90044",7713,S,BUDLONG,AVE,90044,33.96977809,-118.296369,"(33.9697780907, -118.296369021)",704,A,1,South Los Angeles APC,8,Marqueece Harris-Dawson,84,EMPOWERMENT CONGRESS SOUTHWEST AREA NDC,77TH STREET,23675,777,1161,7,14,20
1-88137051,12/31/2015 02:14:00 PM,01/06/2016 11:23:00 AM,SR Created,BOS,Illegal Dumping Pickup,Closed,Call,,Y,WLA,01/06/2016 12:00:00 AM,01/06/2016 11:23:00 AM,Y,N,"11813 W DOROTHY ST, 90049",11813,W,DOROTHY,ST,90049,34.05160714,-118.4672769,"(34.0516071399, -118.467276909)",631,H,4,West Los Angeles APC,11,Mike Bonin,,,WEST LOS ANGELES,23680,843,757,9,10,
1-88137981,12/31/2015 02:13:00 PM,01/04/2016 01:20:00 PM,SR Created,BOS,Bulky Items,Closed,Call,,Y,EV,01/04/2016 12:00:00 AM,01/04/2016 01:20:00 PM,Y,N,"6245 W DELFINO ST, 91042",6245,W,DELFINO,ST,91042,34.24943136,-118.2671271,"(34.249431361, -118.267127099)",504,C,4,North Valley APC,7,Felipe Fuentes,10,SUNLAND-TUJUNGA NC,FOOTHILL,3222,5,534,,1,7
1-88135901,12/31/2015 02:12:00 PM,01/06/2016 09:03:00 AM,SR Created,BOS,Bulky Items,Closed,Call,,N,WLA,01/06/2016 12:00:00 AM,01/06/2016 09:03:00 AM,Y,N,"2616 S BUNDY DR, 90064",2616,S,BUNDY,DR,90064,34.02407594,-118.4457682,"(34.0240759431, -118.445768202)",672,A,1,West Los Angeles APC,11,Mike Bonin,67,MAR VISTA CC,PACIFIC,24029,890,347,9,10,27
1-88136891,12/31/2015 02:12:00 PM,01/07/2016 12:42:00 PM,SR Created,BOS,Bulky Items,Closed,Call,,N,SLA,01/07/2016 12:00:00 AM,01/07/2016 12:42:00 PM,Y,N,"7713 S BUDLONG AVE, 90044",7713,S,BUDLONG,AVE,90044,33.96977809,-118.296369,"(33.9697780907, -118.296369021)",704,A,1,South Los Angeles APC,8,Marqueece Harris-Dawson,84,EMPOWERMENT CONGRESS SOUTHWEST AREA NDC,77TH STREET,23675,777,1161,7,14,20
1-88131261,12/31/2015 02:10:00 PM,01/02/2016 11:00:00 AM,SR Created,BOS,Bulky Items,Closed,Call,,N,WV,01/02/2016 12:00:00 AM,01/02/2016 11:00:00 AM,Y,N,"22605 W VALERIO ST, 91307",22605,W,VALERIO,ST,91307,34.20477773,-118.6192941,"(34.2047777338, -118.619294124)",529,H,4,South Valley APC,12,Mitchell Englander,11,WEST HILLS NC,TOPANGA,4283,278,266,,2,44
1-88131011,12/31/2015 02:08:00 PM,01/07/2016 10:34:00 AM,SR Created,BOS,Bulky Items,Closed,Call,,Y,HB,01/07/2016 12:00:00 AM,01/07/2016 10:34:00 AM,Y,N,"1206 E MAURETANIA ST, 90744",1206,E,MAURETANIA,ST,90744,33.78999323,-118.248487,"(33.7899932337, -118.248486956)",794,G,5,Harbor APC,15,Joe Buscaino,93,WILMINGTON NC,HARBOR,3350,962,1204,,15,15
1-88128291,12/31/2015 02:06:00 PM,01/04/2016 04:52:00 PM,SR Created,BOS,Bulky Items,Closed,Call,,N,WLA,01/04/2016 12:00:00 AM,01/04/2016 04:52:00 PM,Y,N,"13212 W ZANJA ST, 90066",13212,W,ZANJA,ST,90066,33.99537693,-118.4430862,"(33.9953769261, -118.443086222)",672,B,5,West Los Angeles APC,11,Mike Bonin,67,MAR VISTA CC,PACIFIC,24031,902,1394,10,10,27
1-88130671,12/31/2015 02:05:00 PM,01/05/2016 06:39:00 AM,SR Created,BSL,Multiple Streetlight Issue,Closed,Call,,N,SOUTH,12/31/2015 12:00:00 AM,01/05/2016 06:39:00 AM,Y,N,"737 E PACIFIC COAST HWY, 90744",737,E,PACIFIC COAST,HWY,90744,33.7913301,-118.2533493,"(33.7913301022, -118.253349324)",794,F,5,Harbor APC,15,Joe Buscaino,93,WILMINGTON NC,HARBOR,3350,953,626,,15,15
1-88128161,12/31/2015 02:05:00 PM,01/02/2016 10:30:00 AM,SR Created,BOS,Illegal Dumping Pickup,Closed,Call,,N,SLA,01/02/2016 12:00:00 AM,01/02/2016 10:30:00 AM,Y,N,"716 W 107TH ST, 90044",716,W,107TH,ST,90044,33.9389515,-118.2876857,"(33.9389514953, -118.287685698)",704,B,5,South Los Angeles APC,8,Marqueece Harris-Dawson,87,EMPOWERMENT CONGRESS SOUTHEAST AREA NDC,SOUTHEAST,23675,813,362,7,14,45
1-88130621,12/31/2015 02:05:00 PM,01/07/2016 09:25:00 AM,SR Created,BOS,Metal/Household Appliances,Closed,Call,,N,HB,01/07/2016 12:00:00 AM,01/07/2016 09:25:00 AM,Y,N,"1781 S NEWPORT TER, 90732",1781,S,NEWPORT,TER,90732,33.72805756,-118.3111908,"(33.7280575635, -118.311190839)",823,J,6,Harbor APC,15,Joe Buscaino,94,NORTHWEST SAN PEDRO NC,HARBOR,3343,978,1451,,15,25
1-88130401,12/31/2015 02:04:00 PM,01/04/2016 10:32:00 AM,SR Created,BOS,Bulky Items,Closed,Call,,N,WV,01/04/2016 12:00:00 AM,01/04/2016 10:32:00 AM,Y,N,"7338 N TOPEKA DR, 91335",7338,N,TOPEKA,DR,91335,34.20417095,-118.5463515,"(34.2041709503, -118.546351529)",530,H,4,South Valley APC,3,Bob Blumenfield,15,RESEDA NC,WEST VALLEY,18909,257,544,,4,12
1-88130151,12/31/2015 02:04:00 PM,01/04/2016 09:24:00 AM,SR Created,BOS,Bulky Items,Closed,Call,,N,WV,01/04/2016 12:00:00 AM,01/04/2016 09:24:00 AM,Y,N,"7338 N TOPEKA DR, 91335",7338,N,TOPEKA,DR,91335,34.20417095,-118.5463515,"(34.2041709503, -118.546351529)",530,H,4,South Valley APC,3,Bob Blumenfield,15,RESEDA NC,WEST VALLEY,18909,257,544,,4,12
1-88128821,12/31/2015 02:03:00 PM,01/04/2016 11:58:00 AM,SR Created,BOS,Illegal Dumping Pickup,Closed,Email,,Y,WV,01/04/2016 12:00:00 AM,01/04/2016 11:58:00 AM,Y,N,"RESEDA BLVD AT LASSEN ST, 91324",,,,,91324,34.24999973,-118.5361346,"(34.2499997262, -118.53613458)",500,J,5,North Valley APC,12,Mitchell Englander,113,NORTHRIDGE WEST,DEVONSHIRE,18513,107,250,,2,77
1-88128871,12/31/2015 02:03:00 PM,01/04/2016 01:39:00 PM,SR Created,BOS,Bulky Items,Closed,Call,,N,WV,01/04/2016 12:00:00 AM,01/04/2016 01:39:00 PM,Y,N,"7815 N CHIMINEAS AVE, 91335",7815,N,CHIMINEAS,AVE,91335,34.21239775,-118.5288033,"(34.2123977483, -118.528803256)",531,A,3,South Valley APC,12,Mitchell Englander,15,RESEDA NC,WEST VALLEY,18909,254,283,,2,12
1-88129691,12/31/2015 02:02:00 PM,01/06/2016 04:19:00 PM,SR Created,BOS,Illegal Dumping Pickup,Closed,Call,,Y,SLA,01/07/2016 12:00:00 AM,01/06/2016 04:19:00 PM,Y,N,"5139 S MAIN ST, 90037",5139,S,MAIN,ST,90037,33.99575504,-118.2741531,"(33.9957550366, -118.274153133)",674,C,4,South Los Angeles APC,9,Curren D. Price Jr.,125,ZAPATA KING NC,NEWTON,23668,737,988,7,13,
1-88129751,12/31/2015 02:02:00 PM,01/05/2016 09:56:00 AM,SR Created,BOS,Metal/Household Appliances,Closed,Call,,N,EV,01/05/2016 12:00:00 AM,01/05/2016 09:56:00 AM,Y,N,"12936 W CHANDLER BLVD, 91401",12936,W,CHANDLER,BLVD,91401,34.16819007,-118.4149853,"(34.1681900708, -118.414985342)",562,E,2,South Valley APC,4,David Ryu,26,SHERMAN OAKS NC,VAN NUYS,19729,203,645,,7,83
1-88129451,12/31/2015 02:01:00 PM,01/02/2016 10:05:00 AM,SR Created,BOS,Illegal Dumping Pickup,Closed,Call,,N,WV,01/02/2016 12:00:00 AM,01/02/2016 10:05:00 AM,Y,N,"23933 W KITTRIDGE ST, 91307",23933,W,KITTRIDGE,ST,91307,34.19119711,-118.6480489,"(34.1911971134, -118.648048914)",529,E,6,South Valley APC,12,Mitchell Englander,11,WEST HILLS NC,TOPANGA,4283,302,1476,,2,44
1-88128541,12/31/2015 02:01:00 PM,01/06/2016 12:48:00 PM,SR Created,BOS,Bulky Items,Closed,Call,,N,WV,01/06/2016 12:00:00 AM,01/06/2016 12:48:00 PM,Y,N,"10434 N WOODLEY AVE, 91344",10434,N,WOODLEY,AVE,91344,34.2603392,-118.4846744,"(34.2603391971, -118.48467435)",501,E,3,North Valley APC,12,Mitchell Englander,118,GRANADA HILLS SOUTH NC,DEVONSHIRE,19329,75,394,,2,79
1-88127541,12/31/2015 02:00:00 PM,01/07/2016 12:01:00 PM,SR Created,BOS,Bulky Items,Closed,Call,,N,HB,01/07/2016 12:00:00 AM,01/07/2016 12:01:00 PM,Y,N,"PACIFIC COAST HWY AT SANFORD AVE, 90744",,,,,90744,33.7908758,-118.2510196,"(33.790875796, -118.251019608)",794,F,5,Harbor APC,15,Joe Buscaino,93,WILMINGTON NC,HARBOR,3350,962,1204,,15,15
1-88127491,12/31/2015 02:00:00 PM,01/04/2016 03:49:00 PM,SR Created,BOS,Metal/Household Appliances,Closed,Call,,N,SLA,01/04/2016 12:00:00 AM,01/04/2016 03:49:00 PM,Y,N,"2751 W 14TH ST, 90006",2751,W,14TH,ST,90006,34.04634594,-118.3014568,"(34.0463459423, -118.301456753)",633,J,5,South Los Angeles APC,10,Herb J. Wesson Jr.,74,"UNITED NEIGHBORHOODS OF THE HISTORIC ARLINGTON HEIGHTS, WEST ADAMS, AND JEFFERSON PARK COMMUNITY",OLYMPIC,22723,672,1357,,12,19
1-88127451,12/31/2015 02:00:00 PM,03/04/2016 03:13:00 PM,SR Created,BSL,Single Streetlight Issue,Closed,Call,,N,EAST,03/04/2016 12:00:00 AM,03/04/2016 03:13:00 PM,Y,Y,"364 S ANDERSON ST, 90033",364,S,ANDERSON,ST,90033,34.04309699,-118.2256527,"(34.04309699, -118.2256527)",634,J,5,East Los Angeles APC,14,Jose Huizar,50,BOYLE HEIGHTS NC,HOLLENBECK,23450,534,953,,9,38
1-88128401,12/31/2015 02:00:00 PM,01/02/2016 11:39:00 AM,SR Created,BOS,Bulky Items,Closed,Call,,N,WLA,01/02/2016 12:00:00 AM,01/02/2016 11:39:00 AM,Y,N,"3523 S MEIER ST, 90066",3523,S,MEIER,ST,90066,34.00641154,-118.4442711,"(34.0064115364, -118.444271144)",672,B,3,West Los Angeles APC,11,Mike Bonin,67,MAR VISTA CC,PACIFIC,24031,900,862,10,10,27
1-88123141,12/31/2015 01:59:00 PM,01/02/2016 08:32:00 AM,SR Created,BOS,Bulky Items,Closed,Call,,N,EV,01/02/2016 12:00:00 AM,01/02/2016 08:32:00 AM,Y,N,"9908 N CAYUGA AVE, 91331",9908,N,CAYUGA,AVE,91331,34.24987863,-118.4122962,"(34.2498786295, -118.412296158)",502,E,5,North Valley APC,7,Felipe Fuentes,7,PACOIMA NC,FOOTHILL,18907,34,451,,1,11
1-88128301,12/31/2015 01:59:00 PM,01/06/2016 08:17:00 AM,SR Created,BOS,Bulky Items,Closed,Call,,N,WV,01/06/2016 12:00:00 AM,01/06/2016 08:17:00 AM,Y,N,"7233 N JAMIESON AVE, 91335",7233,N,JAMIESON,AVE,91335,34.20240352,-118.5219541,"(34.2024035158, -118.521954143)",531,A,4,South Valley APC,3,Bob Blumenfield,15,RESEDA NC,WEST VALLEY,18909,258,914,,4,12
1-88122241,12/31/2015 01:58:00 PM,01/03/2016 08:30:00 PM,SR Created,BOS,Electronic Waste,Cancelled,Call,,N,EV,01/04/2016 12:00:00 AM,01/03/2016 08:30:00 PM,Y,N,"7835 W HILLROSE ST, 91040",7835,W,HILLROSE,ST,91040,34.26340664,-118.3040417,"(34.2634066358, -118.304041662)",503,H,3,North Valley APC,7,Felipe Fuentes,10,SUNLAND-TUJUNGA NC,FOOTHILL,3221,12,530,,1,7
