SRNumber,CreatedDate,UpdatedDate,ActionTaken,Owner,RequestType,Status,RequestSource,CreatedByUserOrganization,MobileOS,Anonymous,AssignTo,ServiceDate,ClosedDate,AddressVerified,ApproximateAddress,Address,HouseNumber,Direction,StreetName,Suffix,ZipCode,Latitude,Longitude,Location,TBMPage,TBMColumn,TBMRow,APC,CD,CDMember,NC,NCName,PolicePrecinct,Zip Codes,Census Tracts,Precinct Boundaries,LA Specific Plans,Council Districts,Neighborhood Councils (Certified)
1-1523593321,12/31/2019 11:58:00 PM,01/15/2020 10:51:00 AM,SR Created,BSL,Single Streetlight Issue,Closed,Self Service,Self Service,,N,CENTRAL,,01/15/2020 10:51:00 AM,Y,Y,"401 S CITRUS AVE, 90036",401,S,CITRUS,AVE,90036,34.06678948,-118.3397347,"(34.06678948, -118.3397347)",633,E,2,Central APC,4,David Ryu,119,GREATER WILSHIRE NC,WILSHIRE,23667,577,1347,,7,86
1-1523594231,12/31/2019 11:54:00 PM,01/06/2020 08:45:00 PM,SR Created,BOS,Bulky Items,Closed,Mobile App,Self Service,Android,Y,SLA,01/06/2020 12:00:00 AM,01/06/2020 10:46:00 AM,Y,,"738 W 27TH ST, 90007",738,W,27TH,ST,90007,34.0284793508,-118.280124183,"(34.0284793508, -118.280124183)",634,B,7,South Los Angeles APC,9,Curren D. Price Jr.,77,EMPOWERMENT CONGRESS NORTH AREA NDC,SOUTHWEST,22724,701,967,7,13,32
1-1523585166,12/31/2019 11:30:00 PM,01/03/2020 11:36:00 AM,SR Created,ITA,Other,Closed,Mobile App,Self Service,iOS,N,,,01/03/2020 11:36:00 AM,Y,N,"1307 N ORANGE DR, 90028",1307,N,ORANGE,DR,90028,34.0946646291,-118.341728232,"(34.0946646291, -118.341728232)",593,D,5,Central APC,4,David Ryu,32,CENTRAL HOLLYWOOD NC,HOLLYWOOD,23446,414,974,,7,34
1-1523589121,12/31/2019 11:26:00 PM,01/03/2020 04:09:00 PM,SR Created,OCB,Graffiti Removal,Closed,Self Service,Self Service,,Y,CCAC,01/03/2020 04:08:00 PM,01/03/2020 04:09:00 PM,Y,N,"500 S BURLINGTON AVE, 90057",500,S,BURLINGTON,AVE,90057,34.05856646,-118.2705508,"(34.0585664552, -118.270550799)",634,C,3,Central APC,1,Gilbert Cedillo,97,WESTLAKE NORTH NC,RAMPART,24352,563,836,,11,67
1-1523590871,12/31/2019 11:26:00 PM,01/14/2020 07:52:00 AM,SR Created,BOS,Homeless Encampment,Closed,Mobile App,Self Service,iOS,N,WV,01/14/2020 12:00:00 AM,01/14/2020 07:51:00 AM,Y,,"CANOGA AVE AT VANOWEN ST, 91303",,,,,91303,34.1937512753,-118.597510305,"(34.1937512753, -118.597510305)",530,B,6,South Valley APC,3,Bob Blumenfield,13,CANOGA PARK NC,TOPANGA,4278,299,434,2,4,49
1-1523590842,12/31/2019 11:25:00 PM,01/22/2020 10:23:00 AM,SR Created,OCB,Graffiti Removal,Closed,Mobile App,Self Service,Android,Y,GAPBH,01/17/2020 12:00:00 AM,01/22/2020 10:23:00 AM,Y,N,"1355 S MAPLE AVE, 90015",1355,S,MAPLE,AVE,90015,34.03320173,-118.2581796,"(34.0332017347, -118.258179605)",634,E,6,Central APC,14,Jose Huizar,52,DOWNTOWN LOS ANGELES,NEWTON,23076,703,1018,,9,76
1-1523589088,12/31/2019 11:19:00 PM,01/02/2020 03:17:00 PM,SR Created,OCB,Graffiti Removal,Closed,Mobile App,Self Service,iOS,N,LACC,01/02/2020 03:17:00 PM,01/02/2020 03:17:00 PM,Y,N,"5189 W ADAMS BLVD, 90016",5189,W,ADAMS,BLVD,90016,34.03265297,-118.3549313,"(34.0326529693, -118.354931273)",633,C,7,South Los Angeles APC,10,Herb J. Wesson Jr.,75,WEST ADAMS NC,SOUTHWEST,23077,665,1361,,12,17
1-1523589926,12/31/2019 11:14:00 PM,01/04/2020 01:07:00 PM,SR Created,BOS,Bulky Items,Closed,Mobile App,Self Service,iOS,N,WV,01/04/2020 12:00:00 AM,01/04/2020 01:07:00 PM,Y,,"7240 N VASSAR AVE, 91303",7240,N,VASSAR,AVE,91303,34.2021420874,-118.604274182,"(34.2021420874, -118.604274182)",530,A,5,South Valley APC,3,Bob Blumenfield,13,CANOGA PARK NC,TOPANGA,4278,288,1465,,4,37
1-1523589071,12/31/2019 11:13:00 PM,01/02/2020 03:21:00 PM,SR Created,OCB,Graffiti Removal,Closed,Mobile App,Self Service,iOS,N,LACC,01/02/2020 03:20:00 PM,01/02/2020 03:21:00 PM,Y,N,"2765 S DU RAY PL, 90016",2765,S,DU RAY,PL,90016,34.029582,-118.3603114,"(34.0295819966, -118.360311363)",633,B,7,South Los Angeles APC,10,Herb J. Wesson Jr.,75,WEST ADAMS NC,SOUTHWEST,23077,666,1118,,12,17
1-1523589897,12/31/2019 11:11:00 PM,01/22/2020 10:14:00 AM,SR Created,OCB,Graffiti Removal,Closed,Mobile App,Self Service,Android,Y,GAPBH,01/18/2020 10:13:00 AM,01/22/2020 10:14:00 AM,Y,N,"1624 S HOPE ST, 90015",1624,S,HOPE,ST,90015,34.03574799,-118.2679169,"(34.0357479904, -118.267916928)",634,D,6,Central APC,14,Jose Huizar,52,DOWNTOWN LOS ANGELES,CENTRAL,23076,693,1291,,9,76
1-1523585131,12/31/2019 11:09:00 PM,01/02/2020 12:29:00 PM,SR Created,BOS,Bulky Items,Closed,Mobile App,Self Service,Android,N,NC,01/02/2020 12:00:00 AM,01/02/2020 12:29:00 PM,Y,,"1011 S CALZONA ST, 90023",1011,S,CALZONA,ST,90023,34.0224762797,-118.19458233,"(34.0224762797, -118.19458233)",675,C,1,East Los Angeles APC,14,Jose Huizar,50,BOYLE HEIGHTS NC,HOLLENBECK,23441,527,957,,9,38
1-1523588991,12/31/2019 11:00:00 PM,01/02/2020 03:58:00 PM,SR Created,ITA,Other,Cancelled,Self Service,Self Service,,Y,,,01/02/2020 03:58:00 PM,Y,N,"13333 W KITTRIDGE ST, 91401",13333,W,KITTRIDGE,ST,91401,34.1904079423,-118.423931344,"(34.1904079423, -118.423931344)",532,D,6,South Valley APC,2,Paul Krekorian,21,GREATER VALLEY GLEN COUNCIL,VAN NUYS,19729,183,499,,5,70
1-1523589831,12/31/2019 10:59:00 PM,01/02/2020 02:32:00 PM,SR Created,BOS,Illegal Dumping Pickup,Closed,Call,BOS,,N,EV,01/02/2020 12:00:00 AM,01/02/2020 02:32:00 PM,Y,N,"4516 N MARIOTA AVE, 91602",4516,N,MARIOTA,AVE,91602,34.1528636111,-118.350539731,"(34.1528636111, -118.350539731)",563,C,4,South Valley APC,4,David Ryu,28,GREATER TOLUCA LAKE NC,NORTH HOLLYWOOD,8489,342,702,,7,5
1-1523590711,12/31/2019 10:58:00 PM,01/02/2020 03:32:00 PM,SR Created,ITA,Other,Cancelled,Self Service,Self Service,,Y,,,01/02/2020 03:32:00 PM,Y,N,"13557 W KITTRIDGE ST, 91401",13557,W,KITTRIDGE,ST,91401,34.1904082019,-118.428752228,"(34.1904082019, -118.428752228)",532,C,6,South Valley APC,2,Paul Krekorian,21,GREATER VALLEY GLEN COUNCIL,VAN NUYS,19729,183,499,,5,70
1-1523590661,12/31/2019 10:56:00 PM,01/02/2020 01:12:00 PM,SR Created,OCB,Graffiti Removal,Closed,Self Service,Self Service,,Y,WVA,01/02/2020 10:46:00 AM,01/02/2020 01:12:00 PM,Y,N,"6600 N WOODMAN AVE, 91401",6600,N,WOODMAN,AVE,91401,34.19048771,-118.4310937,"(34.1904877065, -118.431093678)",532,C,6,South Valley APC,2,Paul Krekorian,21,GREATER VALLEY GLEN COUNCIL,VAN NUYS,19729,183,499,,5,70
1-1523590641,12/31/2019 10:53:00 PM,01/03/2020 09:15:00 AM,SR Created,OCB,Graffiti Removal,Closed,Self Service,Self Service,,Y,NDFY,01/02/2020 09:14:00 AM,01/03/2020 09:15:00 AM,Y,N,"GREENBUSH AVE AT KITTRIDGE ST, 91401",,,,,91401,34.19029764,-118.4258369,"(34.190297638, -118.425836889)",532,C,6,South Valley APC,2,Paul Krekorian,21,GREATER VALLEY GLEN COUNCIL,VAN NUYS,19729,184,499,,5,70
1-1523590531,12/31/2019 10:38:00 PM,01/03/2020 03:08:00 PM,SR Created,BOS,Illegal Dumping Pickup,Closed,Self Service,Self Service,,Y,SLA,01/03/2020 12:00:00 AM,01/03/2020 03:08:00 PM,Y,N,"850 W 83RD ST, 90044",850,W,83RD,ST,90044,33.9635263278,-118.288818136,"(33.9635263278, -118.288818136)",704,B,2,South Los Angeles APC,8,Marqueece Harris-Dawson,87,EMPOWERMENT CONGRESS SOUTHEAST AREA NDC,77TH STREET,23675,783,1005,7,14,45
1-1523589671,12/31/2019 10:35:27 PM,06/17/2020 06:30:36 PM,SR Created,BSL,Single Streetlight Issue,Closed,Mobile App,Self Service,Android,N,NORTH,06/17/2020 12:00:00 AM,06/17/2020 12:00:00 AM,Y,,"3863 N BROADLAWN DR, 90068",3863,N,BROADLAWN,DR,90068,34.1325916,-118.35664254,"(34.1325916, -118.35664254)",563,B,7,South Valley APC,4,David Ryu,29,HOLLYWOOD HILLS WEST NC,NORTH HOLLYWOOD,24033,350,591,11,7,82
1-1523588773,12/31/2019 10:35:00 PM,02/11/2020 09:55:00 AM,SR Created,BSL,Multiple Streetlight Issue,Closed,Mobile App,Self Service,Android,N,SOUTH,02/04/2020 12:00:00 AM,02/04/2020 12:00:00 AM,Y,,"1400 S HARBOR BLVD, 90731",1400,S,HARBOR,BLVD,90731,33.73087454,-118.2786889,"(33.7308745377, -118.27868889)",824,C,6,Harbor APC,15,Joe Buscaino,96,COASTAL SAN PEDRO NC,HARBOR,3342,2342,793,,15,33
1-1523590471,12/31/2019 10:25:00 PM,01/07/2020 03:15:00 PM,SR Created,BSL,Single Streetlight Issue,Closed,Self Service,Self Service,,N,NORTH,01/07/2020 12:00:00 AM,01/07/2020 12:00:00 AM,Y,Y,"23130 W INGOMAR ST, 91304",23130,W,INGOMAR,ST,91304,34.21180576,-118.6312712,"(34.21180576, -118.631271159999)",529,G,3,South Valley APC,12,John Lee,11,WEST HILLS NC,TOPANGA,4279,284,1469,,2,44
1-1523588723,12/31/2019 10:24:00 PM,01/02/2020 11:35:00 AM,SR Created,BOS,Electronic Waste,Closed,Mobile App,Self Service,iOS,N,EV,01/02/2020 12:00:00 AM,01/02/2020 09:18:00 AM,Y,,"11915 W KLING ST, 91607",11915,W,KLING,ST,91607,34.1559188489,-118.392906162,"(34.1559188489, -118.392906162)",562,G,4,South Valley APC,2,Paul Krekorian,25,NC VALLEY VILLAGE,NORTH HOLLYWOOD,8890,344,1336,17,5,39
1-1523588693,12/31/2019 10:23:00 PM,01/02/2020 09:00:00 AM,SR Created,BOS,Metal/Household Appliances,Closed,Mobile App,Self Service,iOS,N,EV,01/02/2020 12:00:00 AM,01/02/2020 08:21:00 AM,Y,,"11915 W KLING ST, 91607",11915,W,KLING,ST,91607,34.1559188489,-118.392906162,"(34.1559188489, -118.392906162)",562,G,4,South Valley APC,2,Paul Krekorian,25,NC VALLEY VILLAGE,NORTH HOLLYWOOD,8890,344,1336,17,5,39
1-1523584713,12/31/2019 10:21:00 PM,01/02/2020 02:27:00 PM,SR Created,BOS,Bulky Items,Closed,Mobile App,Self Service,iOS,N,EV,01/02/2020 12:00:00 AM,01/02/2020 02:27:00 PM,Y,,"11925 W KLING ST, 91607",11925,W,KLING,ST,91607,34.155905633,-118.392964812,"(34.155905633, -118.392964812)",562,G,4,South Valley APC,2,Paul Krekorian,25,NC VALLEY VILLAGE,NORTH HOLLYWOOD,8890,344,1336,17,5,39
1-1523590381,12/31/2019 10:20:00 PM,01/07/2020 05:23:00 PM,SR Created,BOS,Bulky Items,Closed,Self Service,Self Service_SAN,,N,EV,01/07/2020 12:00:00 AM,01/07/2020 05:23:00 PM,Y,N,"12340 W SYLVAN ST, 91606",12340,W,SYLVAN,ST,91606,34.184758231,-118.402349436,"(34.184758231, -118.402349436)",532,F,7,South Valley APC,2,Paul Krekorian,21,GREATER VALLEY GLEN COUNCIL,NORTH HOLLYWOOD,8889,188,564,,5,70
1-1523588517,12/31/2019 10:12:00 PM,01/02/2020 03:41:00 PM,SR Created,OCB,Graffiti Removal,Closed,Mobile App,Self Service,Android,N,CRCD,01/02/2020 12:00:00 AM,01/02/2020 03:41:00 PM,Y,N,"1126 W 43RD ST, 90037",1126,W,43RD,ST,90037,34.00537667,-118.2945858,"(34.0053766715, -118.294585775)",674,A,3,South Los Angeles APC,9,Curren D. Price Jr.,109,VOICES OF 90037,SOUTHWEST,23668,733,1153,7,13,2
1-1523589379,12/31/2019 10:03:00 PM,12/31/2019 10:03:00 PM,SR Created,LADWP,Report Water Waste,Closed,Mobile App,Self Service,Android,Y,,,12/31/2019 10:03:00 PM,Y,,"4815 W HOLLYWOOD BLVD, 90027",4815,W,HOLLYWOOD,BLVD,90027,34.1019141117,-118.295177001,"(34.1019141117, -118.295177001)",594,A,4,Central APC,4,David Ryu,36,LOS FELIZ NC,NORTHEAST,23445,401,1327,16,7,3
1-1523584572,12/31/2019 09:59:00 PM,01/06/2020 12:10:00 PM,SR Created,BOS,Bulky Items,Closed,Mobile App,Self Service,iOS,N,NC,01/06/2020 12:00:00 AM,01/06/2020 10:45:00 AM,Y,,"2442 E FOLSOM ST, 90033",2442,E,FOLSOM,ST,90033,34.0478314015,-118.205456451,"(34.0478314015, -118.205456451)",635,B,4,East Los Angeles APC,14,Jose Huizar,50,BOYLE HEIGHTS NC,HOLLENBECK,23450,514,822,,9,38
1-1523584507,12/31/2019 09:56:00 PM,01/02/2020 03:36:00 PM,SR Created,OCB,Graffiti Removal,Closed,Mobile App,Self Service,iOS,N,CRCD,01/02/2020 03:36:00 PM,01/02/2020 03:36:00 PM,Y,N,"50TH ST AT CENTRAL AVE, 90011",,,,,90011,33.99761844,-118.2564995,"(33.9976184409, -118.256499498)",674,E,4,South Los Angeles APC,9,Curren D. Price Jr.,110,CENTRAL ALAMEDA NC,NEWTON,22727,723,893,7,13,
1-1523588398,12/31/2019 09:54:00 PM,01/02/2020 07:09:00 AM,SR Created,OCB,Graffiti Removal,Closed,Mobile App,Self Service,iOS,N,NEGB,01/02/2020 12:00:00 AM,01/02/2020 07:09:00 AM,Y,N,"9750 N WOODMAN AVE, 91331",9750,N,WOODMAN,AVE,91331,34.24803249,-118.4486203,"(34.2480324899, -118.448620296)",502,A,5,North Valley APC,6,Nury Martinez,6,ARLETA NC,MISSION,18907,131,402,,3,41
1-1523588368,12/31/2019 09:53:00 PM,01/02/2020 03:36:00 PM,SR Created,OCB,Graffiti Removal,Closed,Mobile App,Self Service,iOS,N,CRCD,01/02/2020 12:00:00 AM,01/02/2020 03:36:00 PM,Y,N,"5007 S CENTRAL AVE, 90011",5007,S,CENTRAL,AVE,90011,33.99731225,-118.256663,"(33.9973122506, -118.256663004)",674,E,4,South Los Angeles APC,9,Curren D. Price Jr.,125,ZAPATA KING NC,NEWTON,22727,723,893,7,13,
1-1523589274,12/31/2019 09:49:00 PM,01/02/2020 03:25:00 PM,SR Created,OCB,Graffiti Removal,Closed,Mobile App,Self Service,iOS,N,CRCD,01/02/2020 12:00:00 AM,01/02/2020 03:25:00 PM,Y,N,"51ST ST AT ASCOT AVE, 90011",,,,,90011,33.99663656,-118.2502795,"(33.9966365595, -118.2502795)",674,F,4,South Los Angeles APC,9,Curren D. Price Jr.,110,CENTRAL ALAMEDA NC,NEWTON,22727,719,983,7,13,51
1-1523584130,12/31/2019 09:46:00 PM,01/02/2020 03:27:00 PM,SR Created,OCB,Graffiti Removal,Closed,Mobile App,Self Service,iOS,N,CRCD,01/02/2020 03:27:00 PM,01/02/2020 03:27:00 PM,Y,N,"1382 E 48TH ST, 90011",1382,E,48TH,ST,90011,34.00005094,-118.2502734,"(34.0000509351, -118.250273371)",674,F,4,South Los Angeles APC,9,Curren D. Price Jr.,110,CENTRAL ALAMEDA NC,NEWTON,22727,719,982,7,13,51
1-1523577160,12/31/2019 09:46:00 PM,01/06/2020 06:20:00 PM,SR Created,BOS,Metal/Household Appliances,Cancelled,Mobile App,Self Service,iOS,N,EV,01/08/2020 12:00:00 AM,01/06/2020 06:20:00 PM,Y,N,"12321 W ADDISON ST, 91607",12321,W,ADDISON,ST,91607,34.1610661733,-118.401644312,"(34.1610661733, -118.401644312)",562,F,3,South Valley APC,2,Paul Krekorian,25,NC VALLEY VILLAGE,NORTH HOLLYWOOD,8890,191,1332,17,5,39
1-1523584391,12/31/2019 09:44:00 PM,01/03/2020 04:30:00 PM,SR Created,BOS,Bulky Items,Closed,Self Service,Self Service,,N,SLA,01/03/2020 12:00:00 AM,01/03/2020 11:23:00 AM,Y,N,"6409 S FLOWER ST, 90003",6409,S,FLOWER,ST,90003,33.9812558632,-118.281496794,"(33.9812558632, -118.281496794)",674,B,6,South Los Angeles APC,8,Marqueece Harris-Dawson,123,UNITED FOR VICTORY,77TH STREET,22352,774,992,7,14,
1-1523584412,12/31/2019 09:44:00 PM,01/03/2020 07:54:00 AM,SR Created,BOS,Bulky Items,Closed,Mobile App,Self Service,Android,N,WV,01/03/2020 12:00:00 AM,01/03/2020 07:53:00 AM,Y,,"17807 W BULLOCK ST, 91316",17807,W,BULLOCK,ST,91316,34.1798105418,-118.520755558,"(34.1798105418, -118.520755558)",561,B,1,South Valley APC,5,Paul Koretz,18,ENCINO NC,WEST VALLEY,4286,316,339,,6,62
1-1523584020,12/31/2019 09:44:00 PM,01/06/2020 06:23:00 PM,SR Created,BOS,Bulky Items,Cancelled,Mobile App,Self Service,iOS,N,EV,01/08/2020 12:00:00 AM,01/06/2020 06:23:00 PM,Y,N,"12321 W ADDISON ST, 91607",12321,W,ADDISON,ST,91607,34.1610661733,-118.401644312,"(34.1610661733, -118.401644312)",562,F,3,South Valley APC,2,Paul Krekorian,25,NC VALLEY VILLAGE,NORTH HOLLYWOOD,8890,191,1332,17,5,39
1-1523584039,12/31/2019 09:44:00 PM,01/02/2020 03:26:00 PM,SR Created,OCB,Graffiti Removal,Closed,Mobile App,Self Service,iOS,N,CRCD,01/02/2020 03:26:00 PM,01/02/2020 03:26:00 PM,Y,N,"1386 E 48TH ST, 90011",1386,E,48TH,ST,90011,34.00004987,-118.2501888,"(34.0000498707, -118.250188775)",674,F,4,South Los Angeles APC,9,Curren D. Price Jr.,110,CENTRAL ALAMEDA NC,NEWTON,22727,719,982,7,13,51
1-1523583851,12/31/2019 09:40:00 PM,01/03/2020 03:44:00 PM,SR Created,BOS,Bulky Items,Closed,Self Service,Self Service,,N,SLA,01/03/2020 12:00:00 AM,01/03/2020 03:44:00 PM,Y,N,"6601 S FLOWER ST, 90003",6601,S,FLOWER,ST,90003,33.9797817182,-118.281496764,"(33.9797817182, -118.281496764)",674,B,7,South Los Angeles APC,8,Marqueece Harris-Dawson,123,UNITED FOR VICTORY,77TH STREET,22352,774,992,7,14,
1-1523583755,12/31/2019 09:40:00 PM,01/02/2020 03:18:00 PM,SR Created,OCB,Graffiti Removal,Closed,Mobile App,Self Service,iOS,N,CRCD,01/02/2020 03:18:00 PM,01/02/2020 03:18:00 PM,Y,N,"4407 S STAUNTON AVE, 90058",4407,S,STAUNTON,AVE,90058,34.00360564,-118.2421793,"(34.0036056442, -118.242179329)",674,G,3,South Los Angeles APC,9,Curren D. Price Jr.,110,CENTRAL ALAMEDA NC,NEWTON,24353,720,1245,7,13,51
1-1523583846,12/31/2019 09:40:00 PM,01/02/2020 03:24:00 PM,SR Created,OCB,Graffiti Removal,Closed,Mobile App,Self Service,iOS,N,CRCD,01/02/2020 12:00:00 AM,01/02/2020 03:24:00 PM,Y,N,"ALAMEDA ST AT 45TH ST, 90058",,,,,90058,34.00275214,-118.2391499,"(34.0027521423, -118.239149898)",674,G,3,South Los Angeles APC,9,Curren D. Price Jr.,110,CENTRAL ALAMEDA NC,NEWTON,24353,720,1245,7,13,51
1-1523583693,12/31/2019 09:39:00 PM,01/02/2020 03:21:00 PM,SR Created,OCB,Graffiti Removal,Closed,Mobile App,Self Service,iOS,N,CRCD,01/02/2020 12:00:00 AM,01/02/2020 03:21:00 PM,Y,N,"4417 S STAUNTON AVE, 90058",4417,S,STAUNTON,AVE,90058,34.00333193,-118.2421804,"(34.0033319284, -118.242180403)",674,G,3,South Los Angeles APC,9,Curren D. Price Jr.,110,CENTRAL ALAMEDA NC,NEWTON,24353,720,1245,7,13,51
1-1523581111,12/31/2019 09:38:00 PM,01/03/2020 03:43:00 PM,SR Created,BOS,Bulky Items,Closed,Self Service,Self Service,,N,SLA,01/03/2020 12:00:00 AM,01/03/2020 03:43:00 PM,Y,N,"6509 S FLOWER ST, 90003",6509,S,FLOWER,ST,90003,33.9805288556,-118.28149721,"(33.9805288556, -118.28149721)",674,B,7,South Los Angeles APC,8,Marqueece Harris-Dawson,123,UNITED FOR VICTORY,77TH STREET,22352,774,992,7,14,
1-1523583664,12/31/2019 09:38:00 PM,01/02/2020 03:20:00 PM,SR Created,OCB,Graffiti Removal,Closed,Mobile App,Self Service,iOS,N,CRCD,01/02/2020 12:00:00 AM,01/02/2020 03:20:00 PM,Y,N,"4525 S STAUNTON AVE, 90058",4525,S,STAUNTON,AVE,90058,34.00209564,-118.242199,"(34.0020956449, -118.24219903)",674,G,4,South Los Angeles APC,9,Curren D. Price Jr.,110,CENTRAL ALAMEDA NC,NEWTON,24353,720,1245,7,13,51
1-1523581047,12/31/2019 09:37:00 PM,01/02/2020 03:19:00 PM,SR Created,OCB,Graffiti Removal,Closed,Mobile App,Self Service,iOS,N,CRCD,01/02/2020 03:19:00 PM,01/02/2020 03:19:00 PM,Y,N,"46TH ST AT STAUNTON AVE, 90058",,,,,90058,34.00162476,-118.242065,"(34.0016247564, -118.242064976)",674,G,4,South Los Angeles APC,9,Curren D. Price Jr.,110,CENTRAL ALAMEDA NC,NEWTON,24353,720,1245,7,13,51
1-1523576930,12/31/2019 09:36:00 PM,01/02/2020 03:22:00 PM,SR Created,OCB,Graffiti Removal,Closed,Mobile App,Self Service,iOS,N,CRCD,01/02/2020 12:00:00 AM,01/02/2020 03:22:00 PM,Y,N,"47TH ST AT STAUNTON AVE, 90058",,,,,90058,34.00107794,-118.2420749,"(34.0010779433, -118.242074927)",674,G,4,South Los Angeles APC,9,Curren D. Price Jr.,110,CENTRAL ALAMEDA NC,NEWTON,24353,720,1245,7,13,51
1-1523583469,12/31/2019 09:35:00 PM,01/04/2020 02:50:00 PM,SR Created,BOS,Bulky Items,Closed,Mobile App,Self Service,iOS,N,WLA,01/04/2020 12:00:00 AM,01/04/2020 02:50:00 PM,Y,,"1871 S ORANGE DR, 90019",1871,S,ORANGE,DR,90019,34.0410827118,-118.34975747,"(34.0410827118, -118.34975747)",633,C,5,South Los Angeles APC,10,Herb J. Wesson Jr.,73,MID CITY NC,WILSHIRE,23080,652,1110,,12,69
1-1523580935,12/31/2019 09:35:00 PM,01/02/2020 03:23:00 PM,SR Created,OCB,Graffiti Removal,Closed,Mobile App,Self Service,iOS,N,CRCD,01/02/2020 12:00:00 AM,01/02/2020 03:23:00 PM,Y,N,"48TH PL AT STAUNTON AVE, 90058",,,,,90058,33.9993863,-118.2421057,"(33.9993862977, -118.24210571)",674,G,4,South Los Angeles APC,9,Curren D. Price Jr.,110,CENTRAL ALAMEDA NC,NEWTON,24353,720,1245,7,13,51
1-1523580860,12/31/2019 09:34:00 PM,01/02/2020 03:21:00 PM,SR Created,OCB,Graffiti Removal,Closed,Mobile App,Self Service,iOS,N,CRCD,01/02/2020 12:00:00 AM,01/02/2020 03:21:00 PM,Y,N,"4801 S STAUNTON AVE, 90058",4801,S,STAUNTON,AVE,90058,34.00050551,-118.2422292,"(34.000505511, -118.242229189)",674,G,4,South Los Angeles APC,9,Curren D. Price Jr.,110,CENTRAL ALAMEDA NC,NEWTON,24353,720,1245,7,13,51
1-1523584251,12/31/2019 09:33:00 PM,01/03/2020 07:44:00 AM,SR Created,BOS,Bulky Items,Closed,Call,BOS,,N,SLA,01/03/2020 12:00:00 AM,01/03/2020 07:44:00 AM,Y,N,"6714 S 11TH AVE, 90043",6714,S,11TH,AVE,90043,33.977577163,-118.329294755,"(33.977577163, -118.329294755)",673,F,7,South Los Angeles APC,8,Marqueece Harris-Dawson,80,PARK MESA HEIGHTS CC,77TH STREET,23674,759,353,7,14,24
1-1523580711,12/31/2019 09:31:00 PM,01/02/2020 03:33:00 PM,SR Created,OCB,Graffiti Removal,Closed,Mobile App,Self Service,iOS,N,CRCD,01/02/2020 03:33:00 PM,01/02/2020 03:33:00 PM,Y,N,"LONG BEACH AVE EAST AT 41ST ST, 90058",,,,,90058,34.00806836,-118.2430243,"(34.0080683552, -118.243024346)",674,G,3,South Los Angeles APC,9,Curren D. Price Jr.,78,SOUTH CENTRAL NC,NEWTON,24353,709,980,7,13,51
1-1523576758,12/31/2019 09:31:00 PM,01/15/2020 07:03:00 PM,SR Created,OCB,Graffiti Removal,Closed,Mobile App,Self Service,Android,N,PGS,01/02/2020 07:02:00 AM,01/15/2020 07:03:00 PM,Y,N,"11861 W SANTA MONICA BLVD, 90025",11861,W,SANTA MONICA,BLVD,90025,34.042277,-118.4598481,"(34.0422769998, -118.459848054)",631,J,5,West Los Angeles APC,11,Mike Bonin,66,WEST LOS ANGELES NC,WEST LOS ANGELES,23443,864,1519,9,10,50
1-1523576778,12/31/2019 09:30:00 PM,01/02/2020 03:28:00 PM,SR Created,OCB,Graffiti Removal,Closed,Mobile App,Self Service,iOS,N,CRCD,01/02/2020 12:00:00 AM,01/02/2020 03:28:00 PM,Y,N,"1632 E 41ST ST, 90011",1632,E,41ST,ST,90011,34.00815898,-118.2447341,"(34.0081589785, -118.244734065)",674,G,3,South Los Angeles APC,9,Curren D. Price Jr.,110,CENTRAL ALAMEDA NC,NEWTON,22727,709,980,7,13,51
1-1523576104,12/31/2019 09:28:00 PM,01/03/2020 03:59:00 PM,SR Created,BOS,Bulky Items,Closed,Mobile App,Self Service,Android,Y,EV,01/03/2020 12:00:00 AM,01/03/2020 03:59:00 PM,Y,,"15403 W SHERMAN WAY, 91406",15403,W,SHERMAN,WAY,91406,34.2014525219,-118.46882664,"(34.2014525219, -118.46882664)",531,G,4,South Valley APC,6,Nury Martinez,20,VAN NUYS NC,VAN NUYS,19734,220,1323,,3,18
1-1523576655,12/31/2019 09:27:00 PM,01/08/2020 01:42:00 PM,SR Created,BOS,Homeless Encampment,Closed,Mobile App,Self Service,Android,Y,WV,01/10/2020 12:00:00 AM,01/08/2020 01:42:00 PM,Y,,"23001 W VANOWEN ST, 91307",23001,W,VANOWEN,ST,91307,34.1938760121,-118.628127548,"(34.1938760121, -118.628127548)",529,G,6,South Valley APC,12,John Lee,11,WEST HILLS NC,TOPANGA,4283,300,1475,,2,44
1-1523580388,12/31/2019 09:23:47 PM,09/24/2021 01:21:57 PM,SR Created,OCB,Graffiti Removal,Cancelled,Mobile App,Self Service,Android,Y,GAP,09/24/2021 01:21:31 PM,09/24/2021 01:21:57 PM,Y,,"FLORENCE AVE AT GRAMERCY PL, 90047",,,,,90047,33.9745639619,-118.313400983,"(33.9745639619, -118.313400983)",673,H,7,South Los Angeles APC,8,Marqueece Harris-Dawson,84,EMPOWERMENT CONGRESS SOUTHWEST AREA NDC,77TH STREET,23678,778,354,7,14,20
1-1523580334,12/31/2019 09:23:00 PM,01/01/2020 09:02:00 AM,SR Created,BOS,Dead Animal Removal,Closed,Mobile App,Self Service,Android,N,HB,,01/01/2020 09:02:00 AM,Y,,"1906 E 110TH ST, 90059",1906,E,110TH,ST,90059,33.9350308323,-118.238787332,"(33.9350308323, -118.238787332)",704,G,6,South Los Angeles APC,15,Joe Buscaino,88,WATTS NC,SOUTHEAST,24354,824,1185,7,15,40
1-1523576480,12/31/2019 09:22:00 PM,01/04/2020 02:27:00 PM,SR Created,BOS,Bulky Items,Closed,Mobile App,Self Service,Android,N,SLA,01/04/2020 12:00:00 AM,01/04/2020 02:27:00 PM,Y,,"10809 S WILMINGTON AVE, 90059",10809,S,WILMINGTON,AVE,90059,33.9375279959,-118.239206385,"(33.9375279959, -118.239206385)",704,G,5,South Los Angeles APC,15,Joe Buscaino,88,WATTS NC,SOUTHEAST,24354,822,866,7,15,40
1-1523575751,12/31/2019 09:22:00 PM,01/03/2020 02:51:00 PM,SR Created,BOS,Bulky Items,Closed,Mobile App,Self Service,Android,Y,EV,01/03/2020 12:00:00 AM,01/03/2020 02:51:00 PM,Y,,"15455 W SHERMAN WAY, 91406",15455,W,SHERMAN,WAY,91406,34.2014665237,-118.470331295,"(34.2014665237, -118.470331295)",531,G,4,South Valley APC,6,Nury Martinez,20,VAN NUYS NC,VAN NUYS,19734,220,1323,,3,18
1-1523575711,12/31/2019 09:21:00 PM,01/15/2020 07:06:00 PM,SR Created,OCB,Graffiti Removal,Closed,Mobile App,Self Service,Android,N,PGS,01/02/2020 08:40:00 AM,01/15/2020 07:06:00 PM,Y,N,"ARMACOST AVE AT ROCHESTER AVE, 90025",,,,,90025,34.04386124,-118.4619569,"(34.0438612449, -118.461956944)",631,J,5,West Los Angeles APC,11,Mike Bonin,66,WEST LOS ANGELES NC,WEST LOS ANGELES,23443,862,1519,9,10,50
1-1523574987,12/31/2019 09:17:00 PM,01/21/2020 03:26:00 PM,SR Created,BOS,Homeless Encampment,Closed,Mobile App,Self Service,iOS,Y,WV,01/10/2020 12:00:00 AM,01/21/2020 08:49:00 AM,Y,,"WINNETKA AVE AT VENTURA FRWY, 91367",,,,,91367,34.1722034404,-118.570966015,"(34.1722034404, -118.570966015)",560,E,2,South Valley APC,3,Bob Blumenfield,16,WOODLAND HILLS-WARNER CENTER NC,TOPANGA,19347,305,336,,4,49
1-1523574966,12/31/2019 09:17:00 PM,01/02/2020 04:23:00 PM,SR Created,BOS,Bulky Items,Cancelled,Mobile App,Self Service,Android,Y,EV,01/03/2020 12:00:00 AM,01/02/2020 04:23:00 PM,Y,N,"15540 W SHERMAN WAY, 91406",15540,W,SHERMAN,WAY,91406,34.2009537477,-118.471709997,"(34.2009537477, -118.471709997)",531,G,5,South Valley APC,6,Nury Martinez,20,VAN NUYS NC,VAN NUYS,19734,228,295,,3,18
1-1523574918,12/31/2019 09:13:00 PM,01/02/2020 01:26:00 PM,SR Created,OCB,Graffiti Removal,Closed,Mobile App,Self Service,iOS,N,CRCD,01/02/2020 12:00:00 AM,01/02/2020 01:26:00 PM,Y,N,"24TH ST AT MAPLE AVE, 90011",,,,,90011,34.02510089,-118.2644218,"(34.0251008938, -118.264421831)",634,D,7,South Los Angeles APC,9,Curren D. Price Jr.,78,SOUTH CENTRAL NC,NEWTON,22727,694,660,7,13,6
1-1523574845,12/31/2019 09:12:00 PM,01/02/2020 01:19:00 PM,SR Created,OCB,Graffiti Removal,Closed,Mobile App,Self Service,iOS,N,CRCD,01/02/2020 12:00:00 AM,01/02/2020 01:19:00 PM,Y,N,"23RD ST AT MAPLE AVE, 90011",,,,,90011,34.02582922,-118.2639646,"(34.0258292188, -118.263964629)",634,D,7,South Los Angeles APC,9,Curren D. Price Jr.,78,SOUTH CENTRAL NC,NEWTON,22727,694,660,7,13,6
1-1523574861,12/31/2019 09:11:00 PM,01/02/2020 01:13:00 PM,SR Created,OCB,Graffiti Removal,Closed,Mobile App,Self Service,iOS,N,CRCD,01/02/2020 12:00:00 AM,01/02/2020 01:13:00 PM,Y,N,"22ND ST AT MAPLE AVE, 90011",,,,,90011,34.02726721,-118.2630671,"(34.0272672114, -118.263067082)",634,D,7,South Los Angeles APC,9,Curren D. Price Jr.,78,SOUTH CENTRAL NC,NEWTON,22727,694,660,7,13,6
1-1523574812,12/31/2019 09:10:00 PM,01/02/2020 01:21:00 PM,SR Created,OCB,Graffiti Removal,Closed,Mobile App,Self Service,iOS,N,CRCD,01/02/2020 12:00:00 AM,01/02/2020 01:21:00 PM,Y,N,"22ND ST AT WALL ST, 90011",,,,,90011,34.02676177,-118.2619041,"(34.0267617693, -118.261904136)",634,E,7,South Los Angeles APC,9,Curren D. Price Jr.,78,SOUTH CENTRAL NC,NEWTON,22727,704,815,7,13,6
1-1523576293,12/31/2019 09:09:00 PM,01/02/2020 01:15:00 PM,SR Created,OCB,Graffiti Removal,Closed,Mobile App,Self Service,iOS,N,CRCD,01/02/2020 12:00:00 AM,01/02/2020 01:15:00 PM,Y,N,"23RD ST AT WALL ST, 90011",,,,,90011,34.02539585,-118.2629208,"(34.025395852, -118.262920775)",634,D,7,South Los Angeles APC,9,Curren D. Price Jr.,78,SOUTH CENTRAL NC,NEWTON,22727,704,815,7,13,6
1-1523575482,12/31/2019 09:09:00 PM,01/02/2020 01:11:00 PM,SR Created,OCB,Graffiti Removal,Cancelled,Mobile App,Self Service,iOS,N,CRCD,01/02/2020 12:00:00 AM,01/02/2020 01:11:00 PM,Y,N,"2324 S TRINITY ST, 90011",2324,S,TRINITY,ST,90011,34.02418742,-118.2621532,"(34.0241874218, -118.262153174)",674,E,1,South Los Angeles APC,9,Curren D. Price Jr.,78,SOUTH CENTRAL NC,NEWTON,22727,704,815,7,13,6
1-1523576213,12/31/2019 09:06:00 PM,01/06/2020 10:27:00 AM,SR Created,OCB,Graffiti Removal,Cancelled,Mobile App,Self Service,iOS,N,CRCD,01/06/2020 10:26:00 AM,01/06/2020 10:27:00 AM,Y,N,"2101 S SAN PEDRO ST, 90011",2101,S,SAN PEDRO,ST,90011,34.02582077,-118.2588751,"(34.0258207717, -118.258875086)",634,E,7,South Los Angeles APC,9,Curren D. Price Jr.,78,SOUTH CENTRAL NC,NEWTON,22727,704,815,7,13,6
1-1523574716,12/31/2019 09:03:00 PM,01/22/2020 10:21:00 AM,SR Created,OCB,Graffiti Removal,Closed,Mobile App,Self Service,iOS,N,GAPBH,01/17/2020 12:00:00 AM,01/22/2020 10:21:00 AM,Y,N,"GRIFFITH AVE AT 18TH ST, 90021",,,,,90021,34.02665634,-118.2527926,"(34.0266563365, -118.252792603)",634,F,7,South Los Angeles APC,14,Jose Huizar,52,DOWNTOWN LOS ANGELES,NEWTON,23082,702,1220,7,9,76
1-1523574674,12/31/2019 09:02:00 PM,01/22/2020 10:19:00 AM,SR Created,OCB,Graffiti Removal,Closed,Mobile App,Self Service,iOS,N,GAPBH,01/17/2020 12:00:00 AM,01/22/2020 10:19:00 AM,Y,N,"SAN PEDRO ST AT 18TH ST, 90015",,,,,90015,34.02854893,-118.2568687,"(34.02854893, -118.256868667)",634,E,7,South Los Angeles APC,14,Jose Huizar,52,DOWNTOWN LOS ANGELES,NEWTON,23076,702,1220,7,9,76
1-1523575421,12/31/2019 09:00:00 PM,01/02/2020 01:00:00 PM,SR Created,OCB,Graffiti Removal,Closed,Mobile App,Self Service,iOS,N,CRCD,01/02/2020 12:00:00 AM,01/02/2020 01:00:00 PM,Y,N,"22ND ST AT SAN PEDRO ST, 90011",,,,,90011,34.0248869,-118.2592285,"(34.0248869014, -118.259228509)",634,E,7,South Los Angeles APC,9,Curren D. Price Jr.,78,SOUTH CENTRAL NC,NEWTON,22727,704,815,7,13,6
1-1523571181,12/31/2019 09:00:00 PM,01/02/2020 01:04:00 PM,SR Created,OCB,Graffiti Removal,Closed,Mobile App,Self Service,iOS,N,CRCD,01/02/2020 12:00:00 AM,01/02/2020 01:04:00 PM,Y,N,"21ST ST AT SAN PEDRO ST, 90011",,,,,90011,34.02586989,-118.2586023,"(34.0258698917, -118.258602335)",634,E,7,South Los Angeles APC,9,Curren D. Price Jr.,78,SOUTH CENTRAL NC,NEWTON,22727,704,815,7,13,6
1-1523571943,12/31/2019 08:57:00 PM,01/02/2020 03:45:00 PM,SR Created,OCB,Graffiti Removal,Closed,Mobile App,Self Service,iOS,N,CRCD,01/02/2020 03:45:00 PM,01/02/2020 03:45:00 PM,Y,N,"SAN PEDRO ST AT JEFFERSON BLVD, 90011",,,,,90011,34.0153627,-118.2652944,"(34.0153626962, -118.265294396)",674,D,2,South Los Angeles APC,9,Curren D. Price Jr.,78,SOUTH CENTRAL NC,NEWTON,22727,714,965,7,13,6
1-1523575311,12/31/2019 08:57:00 PM,01/02/2020 03:56:00 PM,SR Created,ITA,Other,Cancelled,Mobile App,Self Service,iOS,N,,,01/02/2020 03:56:00 PM,Y,N,"15403 W SHERMAN WAY, 91406",15403,W,SHERMAN,WAY,91406,34.2014525219,-118.46882664,"(34.2014525219, -118.46882664)",531,G,4,South Valley APC,6,Nury Martinez,20,VAN NUYS NC,VAN NUYS,19734,220,1323,,3,18
1-1523571925,12/31/2019 08:55:00 PM,01/03/2020 03:59:00 PM,SR Created,BOS,Bulky Items,Closed,Mobile App,Self Service,iOS,N,EV,01/03/2020 12:00:00 AM,01/03/2020 03:59:00 PM,Y,,"15403 W SHERMAN WAY, 91406",15403,W,SHERMAN,WAY,91406,34.2014525219,-118.46882664,"(34.2014525219, -118.46882664)",531,G,4,South Valley APC,6,Nury Martinez,20,VAN NUYS NC,VAN NUYS,19734,220,1323,,3,18
1-1523575271,12/31/2019 08:54:00 PM,01/02/2020 03:16:00 PM,SR Created,OCB,Graffiti Removal,Closed,Mobile App,Self Service,iOS,N,CRCD,01/02/2020 03:16:00 PM,01/02/2020 03:16:00 PM,Y,N,"MARTIN LUTHER KING, JR BLVD AT MAIN ST, 90011",,,,,90011,34.01112327,-118.2740458,"(34.0111232743, -118.274045763)",674,C,2,South Los Angeles APC,9,Curren D. Price Jr.,78,SOUTH CENTRAL NC,NEWTON,23668,736,978,7,13,
1-1523571891,12/31/2019 08:52:00 PM,01/02/2020 03:18:00 PM,SR Created,OCB,Graffiti Removal,Closed,Mobile App,Self Service,iOS,N,CRCD,01/02/2020 03:17:00 PM,01/02/2020 03:18:00 PM,Y,N,"43RD ST AT BROADWAY, 90037",,,,,90037,34.00559746,-118.2783904,"(34.0055974615, -118.278390406)",674,C,3,South Los Angeles APC,9,Curren D. Price Jr.,125,ZAPATA KING NC,NEWTON,23668,736,655,7,13,
1-1523574501,12/31/2019 08:49:00 PM,01/07/2020 03:35:00 PM,SR Created,BOS,Bulky Items,Closed,Self Service,Self Service_SAN,,N,NC,01/07/2020 12:00:00 AM,01/07/2020 03:35:00 PM,Y,N,"5211 N HIGHLAND VIEW AVE, 90041",5211,N,HIGHLAND VIEW,AVE,90041,34.1415964502,-118.209227481,"(34.1415964502, -118.209227481)",565,A,5,East Los Angeles APC,14,Jose Huizar,40,EAGLE ROCK NC,NORTHEAST,23672,354,568,,9,60
1-1523571841,12/31/2019 08:48:00 PM,01/04/2020 02:24:00 PM,SR Created,BOS,Bulky Items,Closed,Mobile App,Self Service,iOS,N,WLA,01/04/2020 12:00:00 AM,01/04/2020 02:24:00 PM,Y,,"3721 S MOTOR AVE, 90034",3721,S,MOTOR,AVE,90034,34.0220258539,-118.405505531,"(34.0220258539, -118.405505531)",672,F,1,West Los Angeles APC,5,Paul Koretz,115,PALMS NC,PACIFIC,23451,880,786,9,6,74
1-1523568101,12/31/2019 08:47:00 PM,01/07/2020 03:29:00 PM,SR Created,BOS,Bulky Items,Closed,Call,BOS,,N,EV,01/07/2020 12:00:00 AM,01/07/2020 09:10:00 AM,Y,N,"11038 W CAMARILLO ST, 91602",11038,W,CAMARILLO,ST,91602,34.157440962,-118.371782124,"(34.157440962, -118.371782124)",563,A,3,South Valley APC,4,David Ryu,28,GREATER TOLUCA LAKE NC,NORTH HOLLYWOOD,8489,211,1334,,7,5
1-1523574411,12/31/2019 08:47:00 PM,01/02/2020 03:44:00 PM,SR Created,OCB,Graffiti Removal,Closed,Mobile App,Self Service,iOS,N,CRCD,01/02/2020 12:00:00 AM,01/02/2020 03:44:00 PM,Y,N,"59TH ST AT BROADWAY, 90003",,,,,90003,33.9869131,-118.2783344,"(33.9869131041, -118.278334426)",674,C,6,South Los Angeles APC,9,Curren D. Price Jr.,86,COMMUNITY AND NEIGHBORS FOR NINTH DISTRICT UNITY (CANNDU),NEWTON,22352,785,993,7,13,46
1-1523574301,12/31/2019 08:41:00 PM,01/07/2020 08:26:00 AM,SR Created,BOS,Metal/Household Appliances,Closed,Call,BOS,,N,NC,01/07/2020 12:00:00 AM,01/07/2020 08:19:00 AM,Y,N,"3956 E SAN RAFAEL AVE, 90065",3956,E,SAN RAFAEL,AVE,90065,34.1042007403,-118.215608324,"(34.1042007403, -118.215608324)",595,A,3,East Los Angeles APC,1,Gilbert Cedillo,42,ARROYO SECO NC,NORTHEAST,24030,376,1290,13,11,92
1-1523574256,12/31/2019 08:40:00 PM,01/06/2020 02:45:00 PM,SR Created,OCB,Graffiti Removal,Closed,Mobile App,Self Service,Android,Y,HBT,01/02/2020 12:00:00 AM,01/06/2020 02:45:00 PM,Y,N,"1430 N HOBART BLVD, 90027",1430,N,HOBART,BLVD,90027,34.09764638,-118.3054965,"(34.0976463814, -118.305496504)",593,H,4,Central APC,13,Mitch O'Farrell,34,EAST HOLLYWOOD NC,HOLLYWOOD,23445,428,456,16,8,58
1-1523571607,12/31/2019 08:39:00 PM,01/07/2020 07:34:00 AM,SR Created,OCB,Graffiti Removal,Cancelled,Mobile App,Self Service,Android,Y,HBT,01/02/2020 12:00:00 AM,01/07/2020 07:34:00 AM,Y,N,"1434 N HOBART BLVD, 90027",1434,N,HOBART,BLVD,90027,34.09716391,-118.3055438,"(34.0971639101, -118.305543828)",593,H,5,Central APC,13,Mitch O'Farrell,34,EAST HOLLYWOOD NC,HOLLYWOOD,23445,428,456,,8,58
1-1523571715,12/31/2019 08:39:00 PM,01/07/2020 01:48:00 PM,SR Created,BOS,Bulky Items,Closed,Mobile App,Self Service,iOS,N,HB,01/07/2020 12:00:00 AM,01/07/2020 01:48:00 PM,Y,,"25423 S FRAMPTON AVE, 90710",25423,S,FRAMPTON,AVE,90710,33.7931164524,-118.300071791,"(33.7931164524, -118.300071791)",794,A,4,Harbor APC,15,Joe Buscaino,92,HARBOR CITY NC,HARBOR,26327,949,1309,,15,29
1-1523571565,12/31/2019 08:38:00 PM,01/17/2020 02:05:00 PM,SR Created,OCB,Graffiti Removal,Closed,Mobile App,Self Service,Android,Y,HBT,01/15/2020 12:00:00 AM,01/17/2020 02:05:00 PM,Y,N,"1428 N HOBART BLVD, 90027",1428,N,HOBART,BLVD,90027,34.09753373,-118.305495,"(34.0975337305, -118.305494957)",593,H,4,Central APC,13,Mitch O'Farrell,34,EAST HOLLYWOOD NC,HOLLYWOOD,23445,428,456,16,8,58
1-1523571686,12/31/2019 08:38:00 PM,01/06/2020 02:47:00 PM,SR Created,OCB,Graffiti Removal,Closed,Mobile App,Self Service,Android,Y,HBT,01/02/2020 02:46:00 PM,01/06/2020 02:47:00 PM,Y,N,"1431 N HOBART BLVD, 90027",1431,N,HOBART,BLVD,90027,34.09743867,-118.3059126,"(34.0974386684, -118.305912568)",593,H,5,Central APC,13,Mitch O'Farrell,34,EAST HOLLYWOOD NC,HOLLYWOOD,23445,428,456,,8,58
1-1523570874,12/31/2019 08:37:00 PM,01/04/2020 01:14:00 PM,SR Created,BOS,Electronic Waste,Closed,Mobile App,Self Service,iOS,N,HB,01/09/2020 12:00:00 AM,01/04/2020 01:14:00 PM,Y,,"25434 S FRAMPTON AVE, 90710",25434,S,FRAMPTON,AVE,90710,33.7927787322,-118.299843413,"(33.7927787322, -118.299843413)",794,A,4,Harbor APC,15,Joe Buscaino,92,HARBOR CITY NC,HARBOR,26327,958,1288,,15,29
1-1523571524,12/31/2019 08:37:00 PM,01/17/2020 02:55:00 PM,SR Created,OCB,Graffiti Removal,Closed,Mobile App,Self Service,Android,Y,HBT,01/15/2020 12:00:00 AM,01/17/2020 02:55:00 PM,Y,N,"1438 N SERRANO AVE, 90027",1438,N,SERRANO,AVE,90027,34.09773834,-118.3069544,"(34.0977383414, -118.306954378)",593,H,4,Central APC,13,Mitch O'Farrell,34,EAST HOLLYWOOD NC,HOLLYWOOD,23445,428,456,16,8,58
1-1523567991,12/31/2019 08:36:00 PM,01/17/2020 02:15:00 PM,SR Created,OCB,Graffiti Removal,Closed,Mobile App,Self Service,Android,Y,HBT,01/15/2020 12:00:00 AM,01/17/2020 02:15:00 PM,Y,N,"1430 N SERRANO AVE, 90027",1430,N,SERRANO,AVE,90027,34.09755462,-118.3069536,"(34.0975546217, -118.306953584)",593,H,4,Central APC,13,Mitch O'Farrell,34,EAST HOLLYWOOD NC,HOLLYWOOD,23445,428,456,16,8,58
1-1523570862,12/31/2019 08:35:00 PM,01/21/2020 01:30:00 PM,SR Created,BOS,Homeless Encampment,Closed,Mobile App,Self Service,iOS,Y,WV,01/06/2020 12:00:00 AM,01/21/2020 09:05:00 AM,Y,,"5550 N WINNETKA AVE, 91364",5550,N,WINNETKA,AVE,91364,34.1714255598,-118.570737398,"(34.1714255598, -118.570737398)",560,E,2,South Valley APC,3,Bob Blumenfield,16,WOODLAND HILLS-WARNER CENTER NC,TOPANGA,19346,311,1492,6,4,49
1-1523574201,12/31/2019 08:34:00 PM,01/02/2020 01:55:00 PM,SR Created,OCB,Graffiti Removal,Closed,Self Service,Self Service,,Y,CRCD,01/02/2020 12:00:00 AM,01/02/2020 01:55:00 PM,Y,N,"4176 S VERMONT AVE, 90037",4176,S,VERMONT,AVE,90037,34.00754151,-118.2914191,"(34.0075415117, -118.291419086)",674,A,3,South Los Angeles APC,9,Curren D. Price Jr.,109,VOICES OF 90037,SOUTHWEST,23668,734,977,7,13,2
1-1523570821,12/31/2019 08:33:00 PM,01/21/2020 09:41:00 AM,SR Created,BOS,Homeless Encampment,Closed,Mobile App,Self Service,iOS,Y,WV,01/06/2020 12:00:00 AM,01/21/2020 09:10:00 AM,Y,,"5550 N WINNETKA AVE, 91364",5550,N,WINNETKA,AVE,91364,34.1714255598,-118.570737398,"(34.1714255598, -118.570737398)",560,E,2,South Valley APC,3,Bob Blumenfield,16,WOODLAND HILLS-WARNER CENTER NC,TOPANGA,19346,311,1492,6,4,49
1-1523565161,12/31/2019 08:33:00 PM,01/03/2020 08:53:00 AM,SR Created,BOS,Metal/Household Appliances,Closed,Call,BOS,,N,SLA,01/03/2020 12:00:00 AM,01/03/2020 08:53:00 AM,Y,N,"1441 W 81ST ST, 90047",1441,W,81ST,ST,90047,33.9655899207,-118.301712533,"(33.9655899207, -118.301712533)",703,J,2,South Los Angeles APC,8,Marqueece Harris-Dawson,84,EMPOWERMENT CONGRESS SOUTHWEST AREA NDC,77TH STREET,23678,781,1242,7,14,20
1-1523565141,12/31/2019 08:32:00 PM,01/03/2020 03:25:00 PM,SR Created,BOS,Bulky Items,Closed,Call,BOS,,N,SLA,01/03/2020 12:00:00 AM,01/03/2020 03:25:00 PM,Y,N,"1441 W 81ST ST, 90047",1441,W,81ST,ST,90047,33.9655899207,-118.301712533,"(33.9655899207, -118.301712533)",703,J,2,South Los Angeles APC,8,Marqueece Harris-Dawson,84,EMPOWERMENT CONGRESS SOUTHWEST AREA NDC,77TH STREET,23678,781,1242,7,14,20
1-1523565101,12/31/2019 08:31:00 PM,01/02/2020 01:53:00 PM,SR Created,OCB,Graffiti Removal,Closed,Self Service,Self Service,,Y,CRCD,01/02/2020 12:00:00 AM,01/02/2020 01:53:00 PM,Y,N,"4215 S VERMONT AVE, 90037",4215,S,VERMONT,AVE,90037,34.00681484,-118.2917878,"(34.0068148437, -118.291787819)",674,A,3,South Los Angeles APC,9,Curren D. Price Jr.,109,VOICES OF 90037,SOUTHWEST,23668,733,1153,7,13,2
1-1523567911,12/31/2019 08:30:00 PM,01/06/2020 10:35:00 AM,SR Created,OCB,Graffiti Removal,Closed,Self Service,Self Service,,Y,CRCD,01/03/2020 10:34:00 AM,01/06/2020 10:35:00 AM,Y,N,"950 W 42ND PL, 90037",950,W,42ND,PL,90037,34.00628293,-118.2902863,"(34.0062829305, -118.290286258)",674,A,3,South Los Angeles APC,9,Curren D. Price Jr.,109,VOICES OF 90037,SOUTHWEST,23668,734,865,7,13,2
1-1523570761,12/31/2019 08:29:32 PM,07/01/2020 12:03:01 PM,SR Created,LASAN,Homeless Encampment,Closed,Self Service,Self Service,,N,NC,01/06/2020 12:00:00 AM,07/01/2020 11:15:03 AM,Y,N,"OAKWOOD AVE AT NEW HAMPSHIRE AVE, 90004",,,,,90004,34.0776730133,-118.293274337,"(34.0776730133, -118.293274337)",594,A,7,Central APC,13,Mitch O'Farrell,55,WILSHIRE CENTER - KOREATOWN NC,RAMPART,22721,454,455,16,8,89
1-1523571461,12/31/2019 08:29:00 PM,01/02/2020 01:49:00 PM,SR Created,OCB,Graffiti Removal,Closed,Self Service,Self Service,,Y,CRCD,01/02/2020 12:00:00 AM,01/02/2020 01:49:00 PM,Y,N,"861 W 42ND PL, 90037",861,W,42ND,PL,90037,34.0065089,-118.2894983,"(34.0065089002, -118.289498254)",674,A,3,South Los Angeles APC,9,Curren D. Price Jr.,109,VOICES OF 90037,SOUTHWEST,23668,734,865,7,13,2
1-1523571491,12/31/2019 08:29:00 PM,01/02/2020 01:47:00 PM,SR Created,OCB,Graffiti Removal,Closed,Self Service,Self Service,,Y,CRCD,01/02/2020 12:00:00 AM,01/02/2020 01:47:00 PM,Y,N,"847 W 42ND PL, 90037",847,W,42ND,PL,90037,34.00651433,-118.2890398,"(34.00651433, -118.289039846)",674,B,3,South Los Angeles APC,9,Curren D. Price Jr.,109,VOICES OF 90037,SOUTHWEST,23668,734,865,7,13,2
1-1523565051,12/31/2019 08:28:00 PM,01/02/2020 02:00:00 PM,SR Created,OCB,Graffiti Removal,Closed,Self Service,Self Service,,Y,CRCD,01/02/2020 12:00:00 AM,01/02/2020 02:00:00 PM,Y,N,"839 W 42ND PL, 90037",839,W,42ND,PL,90037,34.00651742,-118.2887099,"(34.006517415, -118.288709906)",674,B,3,South Los Angeles APC,9,Curren D. Price Jr.,109,VOICES OF 90037,SOUTHWEST,23668,734,865,7,13,2
1-1523570711,12/31/2019 08:26:00 PM,01/03/2020 02:51:00 PM,SR Created,BOS,Electronic Waste,Closed,Mobile App,Self Service,iOS,N,EV,01/03/2020 12:00:00 AM,01/03/2020 12:13:00 PM,Y,,"8102 N WISNER AVE, 91402",8102,N,WISNER,AVE,91402,34.2180707595,-118.462612602,"(34.2180707595, -118.462612602)",531,H,2,North Valley APC,6,Nury Martinez,100,PANORAMA CITY NC,MISSION,19730,141,424,,3,59
1-1523567851,12/31/2019 08:25:00 PM,01/03/2020 09:43:00 AM,SR Created,BOS,Bulky Items,Closed,Self Service,Self Service_SAN,,N,EV,01/03/2020 12:00:00 AM,01/03/2020 09:32:00 AM,Y,N,"14835 W SHERMAN WAY, 91405",14835,W,SHERMAN,WAY,91405,34.2013900792,-118.456502312,"(34.2013900792, -118.456502312)",531,J,4,South Valley APC,6,Nury Martinez,20,VAN NUYS NC,VAN NUYS,19733,219,1324,,3,18
1-1523567771,12/31/2019 08:15:00 PM,01/02/2020 11:05:00 AM,SR Created,BOS,Bulky Items,Closed,Call,BOS,,N,SLA,01/02/2020 12:00:00 AM,01/02/2020 11:05:00 AM,Y,N,"7518 S SAN PEDRO ST, 90003",7518,S,SAN PEDRO,ST,90003,33.9715264293,-118.269398847,"(33.9715264293, -118.269398847)",704,D,1,South Los Angeles APC,9,Curren D. Price Jr.,86,COMMUNITY AND NEIGHBORS FOR NINTH DISTRICT UNITY (CANNDU),77TH STREET,22352,790,998,7,13,46
1-1523570515,12/31/2019 08:07:00 PM,02/22/2020 07:11:00 AM,SR Created,OCB,Graffiti Removal,Closed,Mobile App,Self Service,Android,Y,GAP,02/19/2020 07:10:00 AM,02/22/2020 07:11:00 AM,Y,N,"5355 W SUNSET BLVD, 90027",5355,W,SUNSET,BLVD,90027,34.09828664,-118.3069615,"(34.0982866361, -118.306961469)",593,H,4,Central APC,13,Mitch O'Farrell,34,EAST HOLLYWOOD NC,HOLLYWOOD,23445,421,555,16,8,58
1-1523564891,12/31/2019 08:05:00 PM,01/02/2020 02:11:00 PM,SR Created,OCB,Graffiti Removal,Closed,Self Service,Self Service,,Y,CCAC,01/02/2020 02:10:00 PM,01/02/2020 02:11:00 PM,Y,N,"600 N CORONADO ST, 90026",600,N,CORONADO,ST,90026,34.07510468,-118.2715464,"(34.0751046808, -118.271546381)",634,C,1,East Los Angeles APC,13,Mitch O'Farrell,38,SILVER LAKE NC,RAMPART,23444,470,789,,8,90
1-1523571270,12/31/2019 08:05:00 PM,01/06/2020 02:40:00 PM,SR Created,OCB,Graffiti Removal,Cancelled,Mobile App,Self Service,Android,Y,HBT,01/02/2020 12:00:00 AM,01/06/2020 02:40:00 PM,Y,N,"5355 W SUNSET BLVD, 90027",5355,W,SUNSET,BLVD,90027,34.09828664,-118.3069615,"(34.0982866361, -118.306961469)",593,H,4,Central APC,13,Mitch O'Farrell,34,EAST HOLLYWOOD NC,HOLLYWOOD,23445,421,555,16,8,58
1-1523571241,12/31/2019 08:04:00 PM,01/06/2020 02:42:00 PM,SR Created,OCB,Graffiti Removal,Closed,Mobile App,Self Service,Android,Y,HBT,01/06/2020 02:41:00 PM,01/06/2020 02:42:00 PM,Y,N,"5401 W SUNSET BLVD, 90027",5401,W,SUNSET,BLVD,90027,34.0982675,-118.3072898,"(34.0982675, -118.307289821)",593,H,4,Central APC,13,Mitch O'Farrell,34,EAST HOLLYWOOD NC,HOLLYWOOD,23445,420,555,16,8,58
1-1523570481,12/31/2019 08:02:00 PM,01/06/2020 02:37:00 PM,SR Created,OCB,Graffiti Removal,Closed,Mobile App,Self Service,Android,Y,HBT,01/02/2020 12:00:00 AM,01/06/2020 02:37:00 PM,Y,N,"5317 W SUNSET BLVD, 90027",5317,W,SUNSET,BLVD,90027,34.09836095,-118.3062821,"(34.0983609546, -118.306282072)",593,H,4,Central APC,13,Mitch O'Farrell,34,EAST HOLLYWOOD NC,HOLLYWOOD,23445,421,555,16,8,58
1-1523563186,12/31/2019 08:00:00 PM,01/17/2020 02:02:00 PM,SR Created,OCB,Graffiti Removal,Closed,Mobile App,Self Service,Android,Y,HBT,01/15/2020 02:02:00 PM,01/17/2020 02:02:00 PM,Y,N,"5301 W SUNSET BLVD, 90027",5301,W,SUNSET,BLVD,90027,34.09826713,-118.3060253,"(34.0982671322, -118.306025319)",593,H,4,Central APC,13,Mitch O'Farrell,34,EAST HOLLYWOOD NC,HOLLYWOOD,23445,421,555,16,8,58
1-1523564138,12/31/2019 07:58:11 PM,03/19/2020 12:53:39 PM,SR Created,BOS,Homeless Encampment,Closed,Mobile App,Self Service,iOS,N,WV,01/06/2020 12:00:00 AM,03/19/2020 12:50:12 PM,Y,,"5200 N FALLBROOK AVE, 91364",5200,N,FALLBROOK,AVE,91364,34.1650127931,-118.623222274,"(34.1650127931, -118.623222274)",559,H,3,South Valley APC,3,Bob Blumenfield,16,WOODLAND HILLS-WARNER CENTER NC,TOPANGA,19346,306,1555,,4,49
1-1523564851,12/31/2019 07:58:00 PM,01/07/2020 08:33:00 AM,SR Created,OCB,Graffiti Removal,Closed,Self Service,Self Service,,Y,HBT,01/02/2020 08:31:00 AM,01/07/2020 08:33:00 AM,Y,N,"800 N VIRGIL AVE, 90029",800,N,VIRGIL,AVE,90029,34.0857604,-118.2867304,"(34.0857603955, -118.286730446)",594,B,6,Central APC,13,Mitch O'Farrell,34,EAST HOLLYWOOD NC,RAMPART,23447,436,522,16,8,58
1-1523570417,12/31/2019 07:58:00 PM,01/06/2020 02:34:00 PM,SR Created,OCB,Graffiti Removal,Cancelled,Mobile App,Self Service,Android,Y,HBT,01/02/2020 02:33:00 PM,01/06/2020 02:34:00 PM,Y,N,"5281 W SUNSET BLVD, 90027",5281,W,SUNSET,BLVD,90027,34.0981985,-118.3051748,"(34.0981984966, -118.305174817)",593,H,4,Central APC,13,Mitch O'Farrell,34,EAST HOLLYWOOD NC,HOLLYWOOD,23445,421,555,16,8,58
1-1523570294,12/31/2019 07:56:00 PM,01/06/2020 02:32:00 PM,SR Created,OCB,Graffiti Removal,Closed,Mobile App,Self Service,Android,Y,HBT,01/02/2020 12:00:00 AM,01/06/2020 02:32:00 PM,Y,N,"5270 W SUNSET BLVD, 90027",5270,W,SUNSET,BLVD,90027,34.097934,-118.3050579,"(34.0979339969, -118.305057867)",593,H,4,Central APC,13,Mitch O'Farrell,34,EAST HOLLYWOOD NC,HOLLYWOOD,23445,428,456,16,8,58
1-1523570378,12/31/2019 07:56:00 PM,01/17/2020 11:07:00 AM,SR Created,OCB,Graffiti Removal,Cancelled,Mobile App,Self Service,Android,Y,HBT,01/15/2020 12:00:00 AM,01/17/2020 11:07:00 AM,Y,N,"5270 W SUNSET BLVD, 90027",5270,W,SUNSET,BLVD,90027,34.097934,-118.3050579,"(34.0979339969, -118.305057867)",593,H,4,Central APC,13,Mitch O'Farrell,34,EAST HOLLYWOOD NC,HOLLYWOOD,23445,428,456,16,8,58
1-1523564171,12/31/2019 07:56:00 PM,01/04/2020 01:00:00 PM,SR Created,BOS,Homeless Encampment,Closed,Mobile App,Self Service,iOS,N,WV,01/04/2020 12:00:00 AM,01/04/2020 01:00:00 PM,Y,,"5500 N SHOUP AVE, 91367",5500,N,SHOUP,AVE,91367,34.1701419565,-118.614504893,"(34.1701419565, -118.614504893)",559,J,2,South Valley APC,3,Bob Blumenfield,16,WOODLAND HILLS-WARNER CENTER NC,TOPANGA,19347,306,1554,,4,49
1-1523564037,12/31/2019 07:54:00 PM,01/17/2020 02:00:00 PM,SR Created,OCB,Graffiti Removal,Closed,Mobile App,Self Service,Android,Y,HBT,01/15/2020 01:56:00 PM,01/17/2020 02:00:00 PM,Y,N,"5222 W SUNSET BLVD, 90027",5222,W,SUNSET,BLVD,90027,34.09793047,-118.3040658,"(34.0979304677, -118.304065759)",593,J,4,Central APC,13,Mitch O'Farrell,34,EAST HOLLYWOOD NC,HOLLYWOOD,23445,428,456,16,8,58
1-1523567661,12/31/2019 07:54:00 PM,01/04/2020 11:56:00 AM,SR Created,BOS,Bulky Items,Closed,Call,BOS,,N,WLA,01/04/2020 12:00:00 AM,01/04/2020 11:56:00 AM,Y,N,"3640 S CARDIFF AVE, 90034",3640,S,CARDIFF,AVE,90034,34.0279853298,-118.398175998,"(34.0279853298, -118.398175998)",632,G,7,West Los Angeles APC,5,Paul Koretz,115,PALMS NC,PACIFIC,23451,885,1129,,6,74
1-1523564021,12/31/2019 07:53:00 PM,01/06/2020 02:27:00 PM,SR Created,OCB,Graffiti Removal,Closed,Mobile App,Self Service,Android,Y,HBT,01/02/2020 12:00:00 AM,01/06/2020 02:27:00 PM,Y,N,"5232 W SUNSET BLVD, 90027",5232,W,SUNSET,BLVD,90027,34.0978789,-118.3044127,"(34.0978789011, -118.304412663)",593,J,4,Central APC,13,Mitch O'Farrell,34,EAST HOLLYWOOD NC,HOLLYWOOD,23445,428,456,16,8,58
1-1523563966,12/31/2019 07:52:00 PM,01/06/2020 10:38:00 AM,SR Created,OCB,Graffiti Removal,Closed,Mobile App,Self Service,iOS,N,NDFY,01/05/2020 10:37:00 AM,01/06/2020 10:38:00 AM,Y,N,"4500 N LAUREL CANYON BLVD, 91607",4500,N,LAUREL CANYON,BLVD,91607,34.15231332,-118.396316,"(34.1523133233, -118.396316004)",562,G,4,South Valley APC,2,Paul Krekorian,27,STUDIO CITY NC,NORTH HOLLYWOOD,8890,344,1340,,5,84
1-1523567525,12/31/2019 07:50:00 PM,01/06/2020 02:02:00 PM,SR Created,OCB,Graffiti Removal,Cancelled,Mobile App,Self Service,Android,Y,HBT,01/02/2020 12:00:00 AM,01/06/2020 02:02:00 PM,Y,N,"5170 W SUNSET BLVD, 90027",5170,W,SUNSET,BLVD,90027,34.09794384,-118.3029521,"(34.0979438411, -118.302952121)",593,J,4,Central APC,13,Mitch O'Farrell,34,EAST HOLLYWOOD NC,HOLLYWOOD,23445,428,456,16,8,58
1-1523563951,12/31/2019 07:49:00 PM,01/04/2020 07:33:00 AM,SR Created,BOS,Illegal Dumping Pickup,Closed,Mobile App,Self Service,Android,N,NC,01/04/2020 12:00:00 AM,01/04/2020 07:33:00 AM,Y,,"353 S MARIPOSA AVE, 90020",353,S,MARIPOSA,AVE,90020,34.0674680525,-118.299431824,"(34.0674680525, -118.299431824)",633,J,2,Central APC,10,Herb J. Wesson Jr.,55,WILSHIRE CENTER - KOREATOWN NC,OLYMPIC,23081,594,1028,,12,89
1-1523563903,12/31/2019 07:48:00 PM,01/17/2020 02:14:00 PM,SR Created,OCB,Graffiti Removal,Closed,Mobile App,Self Service,Android,Y,HBT,01/15/2020 12:00:00 AM,01/17/2020 02:14:00 PM,Y,N,"5152 W SUNSET BLVD, 90027",5152,W,SUNSET,BLVD,90027,34.09801318,-118.302272,"(34.0980131771, -118.302271989)",593,J,4,Central APC,13,Mitch O'Farrell,34,EAST HOLLYWOOD NC,HOLLYWOOD,23445,428,456,16,8,58
1-1523567440,12/31/2019 07:47:00 PM,01/02/2020 03:10:00 PM,SR Created,OCB,Graffiti Removal,Closed,Mobile App,Self Service,iOS,N,CRCD,01/02/2020 03:10:00 PM,01/02/2020 03:10:00 PM,Y,N,"36TH ST AT AVALON BLVD, 90011",,,,,90011,34.01359026,-118.2653007,"(34.0135902588, -118.265300735)",674,D,2,South Los Angeles APC,9,Curren D. Price Jr.,78,SOUTH CENTRAL NC,NEWTON,22727,712,696,7,13,6
1-1523564671,12/31/2019 07:47:00 PM,01/06/2020 03:51:00 PM,SR Created,BOS,Bulky Items,Closed,Call,BOS,,N,WLA,01/06/2020 12:00:00 AM,01/06/2020 03:51:00 PM,Y,N,"8746 S BELFORD AVE, 90045",8746,S,BELFORD,AVE,90045,33.9570381243,-118.383841462,"(33.9570381243, -118.383841462)",702,J,3,West Los Angeles APC,11,Mike Bonin,71,NC WESTCHESTER/PLAYA,PACIFIC,23676,934,1070,10,10,16
1-1523563800,12/31/2019 07:46:00 PM,01/02/2020 03:10:00 PM,SR Created,OCB,Graffiti Removal,Closed,Mobile App,Self Service,iOS,N,CRCD,01/02/2020 03:09:00 PM,01/02/2020 03:09:00 PM,Y,N,"37TH ST AT AVALON BLVD, 90011",,,,,90011,34.01276563,-118.2652982,"(34.0127656276, -118.265298221)",674,D,2,South Los Angeles APC,9,Curren D. Price Jr.,78,SOUTH CENTRAL NC,NEWTON,22727,712,696,7,13,6
1-1523563121,12/31/2019 07:44:00 PM,01/02/2020 11:48:00 AM,SR Created,BOS,Bulky Items,Closed,Self Service,Self Service_SAN,,Y,NC,01/02/2020 12:00:00 AM,01/02/2020 11:48:00 AM,Y,N,"1409 N SUTHERLAND ST, 90026",1409,N,SUTHERLAND,ST,90026,34.0770028414,-118.252471071,"(34.0770028414, -118.252471071)",594,F,7,East Los Angeles APC,13,Mitch O'Farrell,44,ECHO PARK NC,NORTHEAST,23444,479,1366,,8,31
1-1523567421,12/31/2019 07:44:00 PM,01/07/2020 01:50:00 PM,SR Created,BOS,Illegal Dumping Pickup,Closed,Mobile App,Self Service,Android,N,NC,01/04/2020 12:00:00 AM,01/07/2020 01:50:00 PM,Y,,"832 S NORMANDIE AVE, 90005",832,S,NORMANDIE,AVE,90005,34.056765914,-118.299708198,"(34.056765914, -118.299708198)",633,J,3,Central APC,10,Herb J. Wesson Jr.,55,WILSHIRE CENTER - KOREATOWN NC,OLYMPIC,22722,604,1246,,12,89
1-1523563781,12/31/2019 07:41:00 PM,01/04/2020 07:54:00 AM,SR Created,BOS,Illegal Dumping Pickup,Closed,Mobile App,Self Service,Android,N,NC,01/04/2020 12:00:00 AM,01/04/2020 07:54:00 AM,Y,,"800 S NORMANDIE AVE, 90005",800,S,NORMANDIE,AVE,90005,34.057491341,-118.299710268,"(34.057491341, -118.299710268)",633,J,3,Central APC,10,Herb J. Wesson Jr.,55,WILSHIRE CENTER - KOREATOWN NC,OLYMPIC,22722,604,1246,,12,89
1-1523564448,12/31/2019 07:35:00 PM,01/06/2020 08:43:00 PM,SR Created,BOS,Electronic Waste,Closed,Mobile App,Self Service,iOS,N,SLA,01/06/2020 12:00:00 AM,01/06/2020 02:58:00 PM,Y,,"ARAPAHOE ST AT WASHINGTON BLVD, 90007",,,,,90007,34.0400275365,-118.285255642,"(34.0400275365, -118.285255642)",634,B,5,South Los Angeles APC,1,Gilbert Cedillo,76,PICO UNION NC,OLYMPIC,22724,681,1282,,11,8
1-1523567237,12/31/2019 07:35:00 PM,01/06/2020 01:54:00 PM,SR Created,OCB,Graffiti Removal,Closed,Mobile App,Self Service,Android,Y,HBT,01/02/2020 12:00:00 AM,01/06/2020 01:53:00 PM,Y,N,"5050 W SUNSET BLVD, 90027",5050,W,SUNSET,BLVD,90027,34.09789271,-118.2996018,"(34.0978927072, -118.299601786)",593,J,4,Central APC,13,Mitch O'Farrell,34,EAST HOLLYWOOD NC,NORTHEAST,23445,430,456,16,8,58
1-1523563605,12/31/2019 07:33:00 PM,01/27/2020 02:46:00 PM,SR Created,BOS,Homeless Encampment,Closed,Mobile App,Self Service,iOS,N,SLA,01/07/2020 12:00:00 AM,01/27/2020 02:45:00 PM,Y,,"2002 S HOOVER ST, 90007",2002,S,HOOVER,ST,90007,34.0377803557,-118.283719949,"(34.0377803557, -118.283719949)",634,B,6,South Los Angeles APC,1,Gilbert Cedillo,76,PICO UNION NC,RAMPART,22724,697,1282,,11,8
1-1523567241,12/31/2019 07:33:00 PM,01/03/2020 03:41:00 PM,SR Created,BOS,Bulky Items,Closed,Self Service,Self Service,,N,NC,01/03/2020 12:00:00 AM,01/03/2020 03:41:00 PM,Y,N,"1165 N HOBART BLVD, 90029",1165,N,HOBART,BLVD,90029,34.0924924893,-118.304791809,"(34.0924924893, -118.304791809)",593,H,5,Central APC,13,Mitch O'Farrell,34,EAST HOLLYWOOD NC,HOLLYWOOD,23447,429,593,,8,58
1-1523563545,12/31/2019 07:32:00 PM,01/06/2020 02:00:00 PM,SR Created,OCB,Graffiti Removal,Closed,Mobile App,Self Service,Android,Y,HBT,01/02/2020 12:00:00 AM,01/06/2020 02:00:00 PM,Y,N,"5060 W SUNSET BLVD, 90027",5060,W,SUNSET,BLVD,90027,34.09786381,-118.29995,"(34.0978638117, -118.29994997)",593,J,4,Central APC,13,Mitch O'Farrell,34,EAST HOLLYWOOD NC,NORTHEAST,23445,430,456,16,8,58
1-1523564417,12/31/2019 07:31:00 PM,01/17/2020 10:36:00 AM,SR Created,OCB,Graffiti Removal,Closed,Mobile App,Self Service,Android,Y,HBT,01/15/2020 12:00:00 AM,01/17/2020 10:36:00 AM,Y,N,"5076 W SUNSET BLVD, 90027",5076,W,SUNSET,BLVD,90027,34.09788213,-118.3003466,"(34.0978821323, -118.300346554)",593,J,4,Central APC,13,Mitch O'Farrell,34,EAST HOLLYWOOD NC,NORTHEAST,23445,430,456,16,8,58
1-1523564401,12/31/2019 07:31:00 PM,01/08/2020 04:03:00 PM,SR Created,OCB,Graffiti Removal,Closed,Mobile App,Self Service,Android,Y,CCAC,01/08/2020 12:00:00 AM,01/08/2020 04:03:00 PM,Y,N,"BISHOPS ROAD AT SAVOY ST, 90012",,,,,90012,34.06959534,-118.233979,"(34.069595341, -118.233978989)",634,H,1,Central APC,1,Gilbert Cedillo,128,HISTORIC CULTURAL NORTH NC,CENTRAL,22728,531,886,,11,28
1-1523562161,12/31/2019 07:30:00 PM,01/17/2020 10:52:00 AM,SR Created,OCB,Graffiti Removal,Cancelled,Mobile App,Self Service,Android,Y,HBT,01/15/2020 12:00:00 AM,01/17/2020 10:52:00 AM,Y,N,"5124 W SUNSET BLVD, 90027",5124,W,SUNSET,BLVD,90027,34.0979515,-118.3015242,"(34.0979515016, -118.301524151)",593,J,4,Central APC,13,Mitch O'Farrell,34,EAST HOLLYWOOD NC,HOLLYWOOD,23445,428,456,16,8,58
1-1523562735,12/31/2019 07:28:00 PM,01/04/2020 08:07:00 AM,SR Created,BOS,Illegal Dumping Pickup,Closed,Mobile App,Self Service,iOS,N,EV,01/04/2020 12:00:00 AM,01/04/2020 08:03:00 AM,Y,,"WENTWORTH ST AT STANWIN AVE, 91331",,,,,91331,34.23237102,-118.417692631,"(34.23237102, -118.417692631)",502,D,7,North Valley APC,6,Nury Martinez,6,ARLETA NC,MISSION,18907,128,454,,3,41
1-1523562841,12/31/2019 07:25:00 PM,01/03/2020 10:46:00 AM,SR Created,BOS,Bulky Items,Closed,Mobile App,Self Service,iOS,N,EV,01/03/2020 12:00:00 AM,01/03/2020 10:19:00 AM,Y,,"TRUESDALE ST AT GREENBUSH AVE, 91402",,,,,91402,34.2234993321,-118.422616833,"(34.2234993321, -118.422616833)",532,D,1,North Valley APC,6,Nury Martinez,6,ARLETA NC,MISSION,19730,138,270,,3,41
1-1523562061,12/31/2019 07:24:00 PM,01/03/2020 07:29:00 AM,SR Created,BOS,Bulky Items,Closed,Call,BOS,,N,NC,01/03/2020 12:00:00 AM,01/03/2020 07:29:00 AM,Y,N,"1226 N HOOVER ST, 90029",1226,N,HOOVER,ST,90029,34.0942302152,-118.284477486,"(34.0942302152, -118.284477486)",594,B,5,Central APC,13,Mitch O'Farrell,38,SILVER LAKE NC,NORTHEAST,23447,434,624,,8,90
1-1523562783,12/31/2019 07:24:00 PM,01/03/2020 03:35:00 PM,SR Created,BOS,Bulky Items,Closed,Mobile App,Self Service,iOS,N,EV,01/03/2020 12:00:00 AM,01/03/2020 09:54:00 AM,Y,,"TONOPAH ST AT CANTERBURY AVE, 91402",,,,,91402,34.225842482,-118.420592498,"(34.225842482, -118.420592498)",532,D,1,North Valley APC,6,Nury Martinez,6,ARLETA NC,MISSION,19730,138,270,,3,41
1-1523562707,12/31/2019 07:23:00 PM,01/03/2020 03:29:00 PM,SR Created,BOS,Bulky Items,Closed,Mobile App,Self Service,iOS,N,EV,01/03/2020 12:00:00 AM,01/03/2020 09:53:00 AM,Y,,"TONOPAH ST AT ROSLYNDALE AVE, 91331",,,,,91331,34.2266846045,-118.420087661,"(34.2266846045, -118.420087661)",532,D,1,North Valley APC,6,Nury Martinez,6,ARLETA NC,MISSION,18907,128,1072,,3,41
1-1523564213,12/31/2019 07:22:00 PM,01/02/2020 03:37:00 PM,SR Created,OCB,Graffiti Removal,Closed,Mobile App,Self Service,iOS,N,CRCD,01/02/2020 03:37:00 PM,01/02/2020 03:37:00 PM,Y,N,"57TH ST AT HOOPER AVE, 90011",,,,,90011,33.99111424,-118.2521397,"(33.9911142425, -118.252139741)",674,F,5,South Los Angeles APC,9,Curren D. Price Jr.,110,CENTRAL ALAMEDA NC,NEWTON,22727,722,629,7,13,51
1-1523563359,12/31/2019 07:21:00 PM,01/02/2020 03:35:00 PM,SR Created,OCB,Graffiti Removal,Closed,Mobile App,Self Service,iOS,N,CRCD,01/02/2020 12:00:00 AM,01/02/2020 03:35:00 PM,Y,N,"56TH ST AT CENTRAL AVE, 90011",,,,,90011,33.99205262,-118.2564851,"(33.9920526195, -118.256485078)",674,E,5,South Los Angeles APC,9,Curren D. Price Jr.,125,ZAPATA KING NC,NEWTON,22727,726,984,7,13,
1-1523561971,12/31/2019 07:18:00 PM,01/04/2020 10:29:00 AM,SR Created,BOS,Bulky Items,Closed,Call,BOS,,N,EV,01/04/2020 12:00:00 AM,01/04/2020 10:29:00 AM,Y,N,"10234 N LAUREL CANYON BLVD, 91331",10234,N,LAUREL CANYON,BLVD,91331,34.2566255394,-118.429648831,"(34.2566255394, -118.429648831)",502,C,4,North Valley APC,7,Monica Rodriguez,7,PACOIMA NC,FOOTHILL,18907,28,408,,1,11
1-1523560177,12/31/2019 07:18:00 PM,01/30/2020 04:27:00 PM,SR Created,BOS,Homeless Encampment,Closed,Mobile App,Self Service,iOS,N,WV,01/06/2020 12:00:00 AM,01/30/2020 04:27:00 PM,Y,,"22766 W VENTURA BLVD, 91364",22766,W,VENTURA,BLVD,91364,34.1659354236,-118.62277837,"(34.1659354236, -118.62277837)",559,H,3,South Valley APC,3,Bob Blumenfield,16,WOODLAND HILLS-WARNER CENTER NC,TOPANGA,19346,306,1555,6,4,49
1-1523564231,12/31/2019 07:17:00 PM,01/02/2020 07:31:00 AM,SR Created,BOS,Bulky Items,Closed,Call,BOS,,N,WV,01/02/2020 12:00:00 AM,01/02/2020 07:29:00 AM,Y,N,"10200 N WOODLEY AVE, 91343",10200,N,WOODLEY,AVE,91343,34.2556754309,-118.484716063,"(34.2556754309, -118.484716063)",501,E,4,North Valley APC,12,John Lee,118,GRANADA HILLS SOUTH NC,DEVONSHIRE,18914,76,251,,2,88
1-1523560154,12/31/2019 07:16:00 PM,01/04/2020 07:50:00 AM,SR Created,BOS,Bulky Items,Closed,Mobile App,Self Service,iOS,Y,NC,01/04/2020 12:00:00 AM,01/04/2020 07:50:00 AM,Y,,"861 S KENMORE AVE, 90005",861,S,KENMORE,AVE,90005,34.0561002166,-118.296699459,"(34.0561002166, -118.296699459)",634,A,3,Central APC,10,Herb J. Wesson Jr.,55,WILSHIRE CENTER - KOREATOWN NC,OLYMPIC,22722,604,1246,,12,89
1-1523561881,12/31/2019 07:14:00 PM,01/04/2020 11:53:00 AM,SR Created,BOS,Metal/Household Appliances,Closed,Call,BOS,,N,HB,01/09/2020 12:00:00 AM,01/04/2020 11:49:00 AM,Y,N,"666 W 21ST ST, 90731",666,W,21ST,ST,90731,33.7252661779,-118.291762339,"(33.7252661779, -118.291762339)",824,B,7,Harbor APC,15,Joe Buscaino,96,COASTAL SAN PEDRO NC,HARBOR,3342,981,1248,,15,33
1-1523563301,12/31/2019 07:14:00 PM,01/01/2020 10:50:00 AM,SR Created,BOS,Dead Animal Removal,Closed,Self Service,Self Service_SAN,,Y,SLA,,01/01/2020 10:50:00 AM,Y,N,"4212 S GRAND AVE, 90037",4212,S,GRAND,AVE,90037,34.0070005869,-118.280436566,"(34.0070005869, -118.280436566)",674,B,3,South Los Angeles APC,9,Curren D. Price Jr.,125,ZAPATA KING NC,NEWTON,23668,736,978,7,13,
1-1523563291,12/31/2019 07:14:00 PM,01/04/2020 07:49:00 AM,SR Created,BOS,Bulky Items,Closed,Mobile App,Self Service,iOS,Y,NC,01/04/2020 12:00:00 AM,01/04/2020 07:49:00 AM,Y,,"811 S KENMORE AVE, 90005",811,S,KENMORE,AVE,90005,34.0573333017,-118.296702954,"(34.0573333017, -118.296702954)",633,J,3,Central APC,10,Herb J. Wesson Jr.,55,WILSHIRE CENTER - KOREATOWN NC,OLYMPIC,22722,604,1246,,12,89
1-1523560135,12/31/2019 07:13:00 PM,01/02/2020 03:25:00 PM,SR Created,OCB,Graffiti Removal,Closed,Mobile App,Self Service,iOS,N,CRCD,01/02/2020 12:00:00 AM,01/02/2020 03:25:00 PM,Y,N,"4404 S COMPTON AVE, 90011",4404,S,COMPTON,AVE,90011,34.00376295,-118.2477017,"(34.0037629532, -118.247701674)",674,F,3,South Los Angeles APC,9,Curren D. Price Jr.,110,CENTRAL ALAMEDA NC,NEWTON,22727,720,982,7,13,51
1-1523560101,12/31/2019 07:13:00 PM,01/02/2020 03:26:00 PM,SR Created,OCB,Graffiti Removal,Closed,Mobile App,Self Service,iOS,N,CRCD,01/02/2020 03:26:00 PM,01/02/2020 03:26:00 PM,Y,N,"47TH ST AT COMPTON AVE, 90011",,,,,90011,34.00100084,-118.2478123,"(34.0010008399, -118.247812283)",674,F,4,South Los Angeles APC,9,Curren D. Price Jr.,110,CENTRAL ALAMEDA NC,NEWTON,22727,719,982,7,13,51
1-1523562621,12/31/2019 07:12:00 PM,01/07/2020 08:03:00 PM,SR Created,BOS,Metal/Household Appliances,Closed,Call,BOS,,N,WLA,01/07/2020 12:00:00 AM,01/07/2020 11:36:00 AM,Y,N,"1435 N AVENIDA DE CORTEZ, 90272",1435,N,DE CORTEZ,,90272,34.0735319431,-118.563304433,"(34.0735319431, -118.563304433)",630,F,1,West Los Angeles APC,11,Mike Bonin,117,PACIFIC PALISADES NC,WEST LOS ANGELES,25066,835,1526,,10,
1-1523562591,12/31/2019 07:11:00 PM,01/07/2020 05:04:00 PM,SR Created,BOS,Bulky Items,Closed,Call,BOS,,N,WLA,01/07/2020 12:00:00 AM,01/07/2020 05:04:00 PM,Y,N,"1435 N AVENIDA DE CORTEZ, 90272",1435,N,DE CORTEZ,,90272,34.0735319431,-118.563304433,"(34.0735319431, -118.563304433)",630,F,1,West Los Angeles APC,11,Mike Bonin,117,PACIFIC PALISADES NC,WEST LOS ANGELES,25066,835,1526,,10,
1-1523560071,12/31/2019 07:11:00 PM,01/02/2020 01:46:00 PM,SR Created,BOS,Bulky Items,Closed,Call,BOS,,N,HB,01/02/2020 12:00:00 AM,01/02/2020 01:46:00 PM,Y,N,"666 W 21ST ST, 90731",666,W,21ST,ST,90731,33.7252661779,-118.291762339,"(33.7252661779, -118.291762339)",824,B,7,Harbor APC,15,Joe Buscaino,96,COASTAL SAN PEDRO NC,HARBOR,3342,981,1248,,15,33
1-1523563211,12/31/2019 07:10:00 PM,01/02/2020 12:41:00 PM,SR Created,BOS,Dead Animal Removal,Closed,Self Service,Self Service_SAN,,N,NC,,01/02/2020 12:41:00 PM,Y,N,"1120 S GRAND AVE, 90015",1120,S,GRAND,AVE,90015,34.040935504,-118.262357416,"(34.040935504, -118.262357416)",634,D,5,Central APC,14,Jose Huizar,52,DOWNTOWN LOS ANGELES,CENTRAL,23076,547,773,,9,76
1-1523562551,12/31/2019 07:09:00 PM,01/04/2020 02:38:00 PM,SR Created,BOS,Metal/Household Appliances,Closed,Call,BOS,,N,WLA,01/04/2020 12:00:00 AM,01/04/2020 02:38:00 PM,Y,N,"2211 S ALSACE AVE, 90016",2211,S,ALSACE,AVE,90016,34.0374392201,-118.353397799,"(34.0374392201, -118.353397799)",633,C,6,South Los Angeles APC,10,Herb J. Wesson Jr.,73,MID CITY NC,WILSHIRE,23077,654,1115,,12,69
1-1523558191,12/31/2019 07:07:00 PM,01/07/2020 07:45:00 PM,SR Created,BOS,Bulky Items,Closed,Call,BOS,,N,EV,01/07/2020 12:00:00 AM,01/07/2020 02:37:00 PM,Y,N,"8024 N IRVINE AVE, 91605",8024,N,IRVINE,AVE,91605,34.2164870858,-118.384963153,"(34.2164870858, -118.384963153)",532,H,2,North Valley APC,6,Nury Martinez,8,SUN VALLEY AREA NC,FOOTHILL,8888,162,272,,3,21
1-1523559991,12/31/2019 07:03:00 PM,01/02/2020 11:06:00 AM,SR Created,BOS,Bulky Items,Closed,Call,BOS,,N,SLA,01/02/2020 12:00:00 AM,01/02/2020 11:06:00 AM,Y,N,"4120 S COMPTON AVE, 90011",4120,S,COMPTON,AVE,90011,34.0081294952,-118.247346388,"(34.0081294952, -118.247346388)",674,F,3,South Los Angeles APC,9,Curren D. Price Jr.,110,CENTRAL ALAMEDA NC,NEWTON,22727,709,980,7,13,51
1-1523562441,12/31/2019 07:01:00 PM,01/06/2020 08:07:00 AM,SR Created,BOS,Bulky Items,Closed,Mobile App,Self Service,Android,N,WV,01/06/2020 12:00:00 AM,01/06/2020 08:07:00 AM,Y,,"11539 N WISH AVE, 91344",11539,N,WISH,AVE,91344,34.2805314041,-118.505621053,"(34.2805314041, -118.505621053)",501,C,1,North Valley APC,12,John Lee,4,GRANADA HILLS NORTH NC,DEVONSHIRE,19329,53,1409,,2,78
1-1523561671,12/31/2019 06:58:00 PM,01/04/2020 12:10:00 PM,SR Created,BOS,Bulky Items,Closed,Self Service,Self Service_SAN,,N,NC,01/04/2020 12:00:00 AM,01/04/2020 12:10:00 PM,Y,N,"1107 S GRAMERCY PL, 90019",1107,S,GRAMERCY,PL,90019,34.0504299489,-118.313493884,"(34.0504299489, -118.313493884)",633,H,4,Central APC,10,Herb J. Wesson Jr.,104,OLYMPIC PARK NC,OLYMPIC,23080,616,1229,,12,52
1-1523558042,12/31/2019 06:52:00 PM,01/03/2020 08:19:00 AM,SR Created,BOS,Bulky Items,Closed,Mobile App,Self Service,iOS,N,SLA,01/03/2020 12:00:00 AM,01/03/2020 08:06:00 AM,Y,,"1417 W 69TH ST, 90047",1417,W,69TH,ST,90047,33.9771014604,-118.30093007,"(33.9771014604, -118.30093007)",673,J,7,South Los Angeles APC,8,Marqueece Harris-Dawson,81,EMPOWERMENT CONGRESS CENTRAL AREA NDC,77TH STREET,23678,772,1054,7,14,35
1-1523561611,12/31/2019 06:52:00 PM,01/04/2020 10:09:00 AM,SR Created,BOS,Electronic Waste,Closed,Self Service,Self Service_SAN,,N,NC,01/04/2020 12:00:00 AM,01/04/2020 10:09:00 AM,Y,N,"1107 S GRAMERCY PL, 90019",1107,S,GRAMERCY,PL,90019,34.0504299489,-118.313493884,"(34.0504299489, -118.313493884)",633,H,4,Central APC,10,Herb J. Wesson Jr.,104,OLYMPIC PARK NC,OLYMPIC,23080,616,1229,,12,52
1-1523562351,12/31/2019 06:52:00 PM,01/01/2020 11:57:00 AM,SR Created,BOS,Metal/Household Appliances,Cancelled,Call,BOS,,N,WV,01/03/2020 12:00:00 AM,01/01/2020 11:57:00 AM,Y,N,"6462 N ALDEA AVE, 91406",6462,N,ALDEA,AVE,91406,34.1885487296,-118.507813397,"(34.1885487296, -118.507813397)",531,C,6,South Valley APC,6,Nury Martinez,19,LAKE BALBOA NC,WEST VALLEY,19734,261,571,,3,61
1-1523557992,12/31/2019 06:51:00 PM,01/02/2020 07:05:00 AM,SR Created,BOS,Bulky Items,Closed,Mobile App,Self Service,Android,N,SLA,01/02/2020 12:00:00 AM,01/02/2020 07:04:00 AM,Y,,"3115 S GRIFFITH AVE, 90011",3115,S,GRIFFITH,AVE,90011,34.0157492003,-118.260394085,"(34.0157492003, -118.260394085)",674,E,2,South Los Angeles APC,9,Curren D. Price Jr.,78,SOUTH CENTRAL NC,NEWTON,22727,706,965,7,13,6
1-1523561591,12/31/2019 06:51:00 PM,01/02/2020 02:11:00 PM,SR Created,BOS,Bulky Items,Closed,Self Service,Self Service,,N,EV,01/02/2020 12:00:00 AM,01/02/2020 02:11:00 PM,Y,Y,"4521 N COLFAX AVE, 91602",4521,N,COLFAX,AVE,91602,34.1526826253,-118.387930765,"(34.1526826253, -118.387930765)",562,H,4,South Valley APC,2,Paul Krekorian,27,STUDIO CITY NC,NORTH HOLLYWOOD,8489,344,1340,,5,84
1-1523562281,12/31/2019 06:48:00 PM,01/02/2020 11:01:00 AM,SR Created,BOS,Bulky Items,Closed,Self Service,Self Service,,N,EV,01/02/2020 12:00:00 AM,01/02/2020 10:57:00 AM,Y,Y,"5150 N WOODMAN AVE, 91423",5150,N,WOODMAN,AVE,91423,34.164485958,-118.431066659,"(34.164485958, -118.431066659)",562,C,3,South Valley APC,4,David Ryu,26,SHERMAN OAKS NC,VAN NUYS,19736,202,329,,7,83
1-1523561481,12/31/2019 06:47:00 PM,01/03/2020 12:45:00 PM,SR Created,BOS,Bulky Items,Closed,Mobile App,Self Service,iOS,N,WLA,01/03/2020 12:00:00 AM,01/03/2020 12:45:00 PM,Y,,"829 S CLOVERDALE AVE, 90036",829,S,CLOVERDALE,AVE,90036,34.0597099636,-118.347314448,"(34.0597099636, -118.347314448)",633,D,3,Central APC,4,David Ryu,58,MID CITY WEST CC,WILSHIRE,23667,637,1293,,7,26
1-1523559711,12/31/2019 06:47:00 PM,01/03/2020 10:12:00 AM,SR Created,BOS,Bulky Items,Closed,Call,BOS,,N,EV,01/03/2020 12:00:00 AM,01/03/2020 09:49:00 AM,Y,N,"13348 W WILLARD ST, 91605",13348,W,WILLARD,ST,91605,34.218012574,-118.424462146,"(34.218012574, -118.424462146)",532,C,2,North Valley APC,6,Nury Martinez,100,PANORAMA CITY NC,MISSION,19730,138,461,,3,59
1-1523559171,12/31/2019 06:46:00 PM,01/02/2020 01:17:00 PM,SR Created,OCB,Graffiti Removal,Closed,Self Service,Self Service,,N,WVA,01/02/2020 09:30:00 AM,01/02/2020 01:17:00 PM,Y,Y,"5150 N WOODMAN AVE, 91423",5150,N,WOODMAN,AVE,91423,34.16448596,-118.4310667,"(34.164485958, -118.431066659)",562,C,3,South Valley APC,4,David Ryu,26,SHERMAN OAKS NC,VAN NUYS,19736,202,329,,7,83
1-1523557881,12/31/2019 06:46:00 PM,01/04/2020 03:04:00 PM,SR Created,BOS,Illegal Dumping Pickup,Closed,Call,BOS,,N,HB,01/04/2020 12:00:00 AM,01/04/2020 03:04:00 PM,Y,N,"761 W 6TH ST, 90731",761,W,6TH,ST,90731,33.7386540872,-118.293683727,"(33.7386540872, -118.293683727)",824,B,5,Harbor APC,15,Joe Buscaino,95,CENTRAL SAN PEDRO NC,HARBOR,3342,975,1206,,15,36
1-1523557741,12/31/2019 06:44:00 PM,01/04/2020 03:04:00 PM,SR Created,BOS,Bulky Items,Closed,Call,BOS,,N,HB,01/04/2020 12:00:00 AM,01/04/2020 03:04:00 PM,Y,N,"761 W 6TH ST, 90731",761,W,6TH,ST,90731,33.7386540872,-118.293683727,"(33.7386540872, -118.293683727)",824,B,5,Harbor APC,15,Joe Buscaino,95,CENTRAL SAN PEDRO NC,HARBOR,3342,975,1206,,15,36
1-1523559591,12/31/2019 06:42:00 PM,01/04/2020 03:04:00 PM,SR Created,BOS,Bulky Items,Closed,Call,BOS,,N,HB,01/04/2020 12:00:00 AM,01/04/2020 03:04:00 PM,Y,N,"761 W 6TH ST, 90731",761,W,6TH,ST,90731,33.7386540872,-118.293683727,"(33.7386540872, -118.293683727)",824,B,5,Harbor APC,15,Joe Buscaino,95,CENTRAL SAN PEDRO NC,HARBOR,3342,975,1206,,15,36
1-1523557602,12/31/2019 06:41:00 PM,01/02/2020 03:25:00 PM,SR Created,ITA,Other,Cancelled,Mobile App,Self Service,iOS,N,,,01/02/2020 03:25:00 PM,Y,N,"23770 S WESTERN AVE, 90710",23770,S,WESTERN,AVE,90710,33.8091674373,-118.308092335,"(33.8091674373, -118.308092335)",793,J,2,Harbor APC,15,Joe Buscaino,92,HARBOR CITY NC,HARBOR,26327,947,1447,,15,29
1-1523559449,12/31/2019 06:34:00 PM,01/04/2020 09:15:00 AM,SR Created,BOS,Bulky Items,Closed,Mobile App,Self Service,iOS,N,SLA,01/04/2020 12:00:00 AM,01/04/2020 09:13:00 AM,Y,,"250 W 88TH ST, 90003",250,W,88TH,ST,90003,33.9570640074,-118.277668976,"(33.9570640074, -118.277668976)",704,C,3,South Los Angeles APC,8,Marqueece Harris-Dawson,87,EMPOWERMENT CONGRESS SOUTHEAST AREA NDC,SOUTHEAST,22352,800,358,7,14,45
1-1523558871,12/31/2019 06:33:00 PM,01/04/2020 10:07:00 AM,SR Created,BOS,Bulky Items,Closed,Mobile App,Self Service,iOS,N,NC,01/04/2020 12:00:00 AM,01/04/2020 10:07:00 AM,Y,,"902 S VICTORIA AVE, 90019",902,S,VICTORIA,AVE,90019,34.0565582011,-118.323212642,"(34.0565582011, -118.323212642)",633,F,3,Central APC,4,David Ryu,119,GREATER WILSHIRE NC,WILSHIRE,23080,613,1344,,7,86
1-1523558801,12/31/2019 06:31:57 PM,04/16/2020 09:07:57 AM,SR Created,BOS,Homeless Encampment,Closed,Self Service,Self Service,,N,EV,01/06/2020 12:00:00 AM,04/16/2020 09:07:27 AM,Y,N,"10730 N SEPULVEDA BLVD, 91345",10730,N,SEPULVEDA,BLVD,91345,34.2653363852,-118.467017921,"(34.2653363852, -118.467017921)",501,G,3,North Valley APC,7,Monica Rodriguez,101,MISSION HILLS NC,MISSION,19330,74,398,,1,4
1-1523558644,12/31/2019 06:31:00 PM,01/03/2020 03:20:00 PM,SR Created,OCB,Graffiti Removal,Closed,Mobile App,Self Service,iOS,Y,LACC,01/03/2020 12:00:00 AM,01/03/2020 03:20:00 PM,Y,N,"5751 W PICO BLVD, 90019",5751,W,PICO,BLVD,90019,34.05107299,-118.3635322,"(34.0510729903, -118.363532206)",633,B,4,Central APC,10,Herb J. Wesson Jr.,60,P.I.C.O. NC,WILSHIRE,23080,643,1348,,12,23
1-1523557394,12/31/2019 06:28:00 PM,01/03/2020 01:10:00 PM,SR Created,BOS,Bulky Items,Closed,Mobile App,Self Service,Android,N,WV,01/03/2020 12:00:00 AM,01/03/2020 01:10:00 PM,Y,,"5215 N BALBOA BLVD, 91316",5215,N,BALBOA,BLVD,91316,34.1656181017,-118.501325983,"(34.1656181017, -118.501325983)",561,D,2,South Valley APC,5,Paul Koretz,18,ENCINO NC,WEST VALLEY,4286,325,1495,,6,62
1-1523557471,12/31/2019 06:23:00 PM,01/03/2020 12:51:00 PM,SR Created,BOS,Bulky Items,Closed,Call,BOS,,N,EV,01/03/2020 12:00:00 AM,01/03/2020 12:51:00 PM,Y,N,"14102 W GILMORE ST, 91401",14102,W,GILMORE,ST,91401,34.1875068693,-118.440217029,"(34.1875068693, -118.440217029)",532,B,6,South Valley APC,6,Nury Martinez,20,VAN NUYS NC,VAN NUYS,19729,236,290,,3,18
1-1523556051,12/31/2019 06:22:00 PM,01/02/2020 02:30:00 PM,SR Created,BOS,Bulky Items,Closed,Call,BOS,,N,NC,01/02/2020 12:00:00 AM,01/02/2020 02:30:00 PM,Y,N,"3455 W LACLEDE AVE, 90039",3455,W,LACLEDE,AVE,90039,34.1189541692,-118.256586395,"(34.1189541692, -118.256586395)",594,E,1,East Los Angeles APC,13,Mitch O'Farrell,37,ATWATER VILLAGE NC,NORTHEAST,23670,391,1429,,8,42
1-1523557431,12/31/2019 06:22:00 PM,01/07/2020 07:51:00 PM,SR Created,BOS,Bulky Items,Closed,Self Service,Self Service_SAN,,N,NC,01/04/2020 12:00:00 AM,01/07/2020 10:03:00 AM,Y,N,"1107 S GRAMERCY PL, 90019",1107,S,GRAMERCY,PL,90019,34.0504299489,-118.313493884,"(34.0504299489, -118.313493884)",633,H,4,Central APC,10,Herb J. Wesson Jr.,104,OLYMPIC PARK NC,OLYMPIC,23080,616,1229,,12,52
1-1523558551,12/31/2019 06:22:00 PM,01/01/2020 12:16:00 PM,SR Created,BOS,Dead Animal Removal,Closed,Self Service,Self Service_SAN,,N,NC,,01/01/2020 12:16:00 PM,Y,N,"952 N EAST EDGEWARE ROAD, 90026",952,N,EAST EDGEWARE,ROAD,90026,34.070953198,-118.252831397,"(34.070953198, -118.252831397)",634,E,1,East Los Angeles APC,1,Gilbert Cedillo,44,ECHO PARK NC,RAMPART,23444,483,1010,,11,31
1-1523558461,12/31/2019 06:21:00 PM,01/02/2020 02:30:00 PM,SR Created,BOS,Bulky Items,Closed,Call,BOS,,N,NC,01/02/2020 12:00:00 AM,01/02/2020 02:30:00 PM,Y,N,"3449 W LACLEDE AVE, 90039",3449,W,LACLEDE,AVE,90039,34.1189127132,-118.256539009,"(34.1189127132, -118.256539009)",594,E,1,East Los Angeles APC,13,Mitch O'Farrell,37,ATWATER VILLAGE NC,NORTHEAST,23670,391,1429,,8,42
1-1523558501,12/31/2019 06:21:00 PM,01/03/2020 08:45:00 AM,SR Created,BOS,Illegal Dumping Pickup,Closed,Call,BOS,,N,EV,01/03/2020 12:00:00 AM,01/03/2020 08:22:00 AM,Y,N,"13961 W OXNARD ST, 91401",13961,W,OXNARD,ST,91401,34.1795230262,-118.437416906,"(34.1795230262, -118.437416906)",532,B,7,South Valley APC,2,Paul Krekorian,21,GREATER VALLEY GLEN COUNCIL,VAN NUYS,19729,243,510,,5,70
1-1523558258,12/31/2019 06:21:00 PM,01/04/2020 11:09:00 AM,SR Created,BOS,Illegal Dumping Pickup,Closed,Mobile App,Self Service,iOS,N,NC,01/04/2020 12:00:00 AM,01/04/2020 11:09:00 AM,Y,N,"1352 N LAS PALMAS AVE, 90028",1352,N,LAS PALMAS,AVE,90028,34.0958365228,-118.336247666,"(34.0958365228, -118.336247666)",593,E,5,Central APC,4,David Ryu,32,CENTRAL HOLLYWOOD NC,HOLLYWOOD,23446,422,868,,7,34
1-1523557371,12/31/2019 06:20:00 PM,01/07/2020 05:53:00 PM,SR Created,BOS,Bulky Items,Closed,Call,BOS,,N,EV,01/07/2020 12:00:00 AM,01/07/2020 09:55:00 AM,Y,N,"5700 N LAUREL CANYON BLVD, 91607",5700,N,LAUREL CANYON,BLVD,91607,34.1736410054,-118.396339855,"(34.1736410054, -118.396339855)",562,G,1,South Valley APC,2,Paul Krekorian,21,GREATER VALLEY GLEN COUNCIL,NORTH HOLLYWOOD,8890,190,519,,5,70
1-1523554188,12/31/2019 06:20:00 PM,01/03/2020 07:29:00 AM,SR Created,BOS,Homeless Encampment,Closed,Mobile App,Self Service,iOS,N,WV,01/03/2020 12:00:00 AM,01/03/2020 07:28:00 AM,Y,,"MECCA AVE AT VENTURA BLVD, 91356",,,,,91356,34.1693720205,-118.537558999,"(34.1693720205, -118.537558999)",560,J,2,South Valley APC,3,Bob Blumenfield,17,TARZANA NC,WEST VALLEY,19339,320,1496,6,4,10
1-1523553119,12/31/2019 06:20:00 PM,01/03/2020 11:59:00 AM,SR Created,BOS,Bulky Items,Closed,Mobile App,Self Service,Android,Y,WLA,01/03/2020 12:00:00 AM,01/03/2020 11:59:00 AM,Y,,"1142 S HAYWORTH AVE, 90035",1142,S,HAYWORTH,AVE,90035,34.0546569913,-118.366468105,"(34.0546569913, -118.366468105)",633,B,4,Central APC,5,Paul Koretz,60,P.I.C.O. NC,WILSHIRE,23666,642,1099,,6,23
1-1523555171,12/31/2019 06:19:00 PM,01/07/2020 06:06:00 PM,SR Created,BOS,Bulky Items,Closed,Call,BOS,,N,EV,01/07/2020 12:00:00 AM,01/07/2020 08:55:00 AM,Y,N,"11459 W COLLINS ST, 91601",11459,W,COLLINS,ST,91601,34.1740670014,-118.381150786,"(34.1740670014, -118.381150786)",562,J,1,South Valley APC,2,Paul Krekorian,24,NOHO NC,NORTH HOLLYWOOD,8488,192,813,,5,13
1-1523554970,12/31/2019 06:19:00 PM,01/04/2020 02:22:00 PM,SR Created,BOS,Homeless Encampment,Closed,Mobile App,Self Service,iOS,N,WV,01/04/2020 12:00:00 AM,01/04/2020 02:22:00 PM,Y,,"23000 W FRIAR ST, 91367",23000,W,FRIAR,ST,91367,34.1852877025,-118.628044806,"(34.1852877025, -118.628044806)",529,G,7,South Valley APC,3,Bob Blumenfield,16,WOODLAND HILLS-WARNER CENTER NC,TOPANGA,19347,300,1479,,4,49
1-1523555871,12/31/2019 06:18:00 PM,01/02/2020 01:50:00 PM,SR Created,BOS,Bulky Items,Closed,Self Service,Self Service_SAN,,N,SLA,01/02/2020 12:00:00 AM,01/02/2020 01:50:00 PM,Y,N,"1165 E 48TH ST, 90011",1165,E,48TH,ST,90011,33.9999326734,-118.25497482,"(33.9999326734, -118.25497482)",674,E,4,South Los Angeles APC,9,Curren D. Price Jr.,110,CENTRAL ALAMEDA NC,NEWTON,22727,718,563,7,13,51
1-1523557281,12/31/2019 06:18:00 PM,01/03/2020 08:42:00 AM,SR Created,BOS,Bulky Items,Closed,Call,BOS,,N,EV,01/03/2020 12:00:00 AM,01/03/2020 08:23:00 AM,Y,N,"14037 W OXNARD ST, 91401",14037,W,OXNARD,ST,91401,34.1795212847,-118.438659037,"(34.1795212847, -118.438659037)",532,B,7,South Valley APC,2,Paul Krekorian,21,GREATER VALLEY GLEN COUNCIL,VAN NUYS,19729,243,510,,5,70
1-1523558241,12/31/2019 06:16:19 PM,06/03/2020 08:50:58 AM,SR Created,BSL,Multiple Streetlight Issue,Closed,Mobile App,Self Service,Android,Y,NORTH,,06/03/2020 08:50:58 AM,Y,,"7609 N WHITSETT AVE, 91605",7609,N,WHITSETT,AVE,91605,34.2088356028,-118.405470567,"(34.2088356028, -118.405470567)",532,F,3,North Valley APC,2,Paul Krekorian,22,NOHO WEST NC,FOOTHILL,8888,153,472,,5,71
1-1523555831,12/31/2019 06:16:00 PM,01/02/2020 09:03:00 AM,SR Created,BOS,Metal/Household Appliances,Closed,Self Service,Self Service_SAN,,N,SLA,01/02/2020 12:00:00 AM,01/02/2020 08:53:00 AM,Y,N,"1165 E 48TH ST, 90011",1165,E,48TH,ST,90011,33.9999326734,-118.25497482,"(33.9999326734, -118.25497482)",674,E,4,South Los Angeles APC,9,Curren D. Price Jr.,110,CENTRAL ALAMEDA NC,NEWTON,22727,718,563,7,13,51
1-1523555801,12/31/2019 06:16:00 PM,01/03/2020 07:40:00 AM,SR Created,BOS,Bulky Items,Closed,Call,BOS,,N,NC,01/03/2020 12:00:00 AM,01/03/2020 07:40:00 AM,Y,N,"1872 N ALEXANDRIA AVE, 90027",1872,N,ALEXANDRIA,AVE,90027,34.104824395,-118.298294288,"(34.104824395, -118.298294288)",593,J,3,Central APC,4,David Ryu,36,LOS FELIZ NC,NORTHEAST,23445,401,1327,16,7,3
1-1523555771,12/31/2019 06:16:00 PM,01/03/2020 07:29:00 AM,SR Created,BOS,Illegal Dumping Pickup,Closed,Call,BOS,,N,EV,01/03/2020 12:00:00 AM,01/03/2020 07:29:00 AM,Y,N,"6658 N WOODMAN AVE, 91401",6658,N,WOODMAN,AVE,91401,34.1920788944,-118.431096935,"(34.1920788944, -118.431096935)",532,C,6,South Valley APC,2,Paul Krekorian,21,GREATER VALLEY GLEN COUNCIL,VAN NUYS,19729,183,499,,5,70
1-1523553131,12/31/2019 06:14:00 PM,01/03/2020 07:26:00 AM,SR Created,BOS,Bulky Items,Closed,Call,BOS,,N,EV,01/03/2020 12:00:00 AM,01/03/2020 07:19:00 AM,Y,N,"6739 N WOODMAN AVE, 91401",6739,N,WOODMAN,AVE,91401,34.1927814065,-118.43141095,"(34.1927814065, -118.43141095)",532,C,6,South Valley APC,2,Paul Krekorian,21,GREATER VALLEY GLEN COUNCIL,VAN NUYS,19729,235,508,,5,70
1-1523555011,12/31/2019 06:14:00 PM,01/03/2020 01:24:00 PM,SR Created,BOS,Bulky Items,Closed,Call,BOS,,N,NC,01/03/2020 12:00:00 AM,01/03/2020 01:24:00 PM,Y,N,"3201 W FERNWOOD AVE, 90039",3201,W,FERNWOOD,AVE,90039,34.0982921194,-118.271202714,"(34.0982921194, -118.271202714)",594,C,4,East Los Angeles APC,4,David Ryu,38,SILVER LAKE NC,NORTHEAST,23670,463,599,,7,90
1-1523554101,12/31/2019 06:12:00 PM,01/03/2020 08:32:00 AM,SR Created,BOS,Illegal Dumping Pickup,Closed,Call,BOS,,N,EV,01/03/2020 12:00:00 AM,01/03/2020 08:22:00 AM,Y,N,"13855 W OXNARD ST, 91401",13855,W,OXNARD,ST,91401,34.179524258,-118.435449988,"(34.179524258, -118.435449988)",532,B,7,South Valley APC,2,Paul Krekorian,21,GREATER VALLEY GLEN COUNCIL,VAN NUYS,19729,243,510,,5,70
1-1523555645,12/31/2019 06:12:00 PM,01/03/2020 01:52:00 PM,SR Created,BOS,Metal/Household Appliances,Closed,Mobile App,Self Service,iOS,N,NC,01/03/2020 12:00:00 AM,01/03/2020 01:52:00 PM,Y,,"1005 N MADISON AVE, 90029",1005,N,MADISON,AVE,90029,34.0899102958,-118.289458439,"(34.0899102958, -118.289458439)",594,A,6,Central APC,13,Mitch O'Farrell,34,EAST HOLLYWOOD NC,RAMPART,23447,435,631,16,8,58
1-1523554911,12/31/2019 06:10:00 PM,01/03/2020 03:39:00 PM,SR Created,BOS,Bulky Items,Closed,Call,BOS,,N,EV,01/03/2020 12:00:00 AM,01/03/2020 08:21:00 AM,Y,N,"13731 W SYLVAN ST, 91401",13731,W,SYLVAN,ST,91401,34.1849535265,-118.432425659,"(34.1849535265, -118.432425659)",532,C,7,South Valley APC,2,Paul Krekorian,21,GREATER VALLEY GLEN COUNCIL,VAN NUYS,19729,238,292,,5,70
1-1523553941,12/31/2019 06:09:00 PM,01/03/2020 04:26:00 PM,SR Created,BOS,Metal/Household Appliances,Closed,Self Service,Self Service_SAN,,N,EV,01/03/2020 12:00:00 AM,01/03/2020 04:24:00 PM,Y,N,"5317 N VENTURA CANYON AVE, 91401",5317,N,VENTURA CANYON,AVE,91401,34.1670872653,-118.429304908,"(34.1670872653, -118.429304908)",562,C,2,South Valley APC,4,David Ryu,26,SHERMAN OAKS NC,VAN NUYS,19729,202,329,,7,83
1-1523553961,12/31/2019 06:09:00 PM,01/03/2020 03:14:00 PM,SR Created,BOS,Bulky Items,Closed,Call,BOS,,N,EV,01/03/2020 12:00:00 AM,01/03/2020 03:14:00 PM,Y,N,"9211 N NATICK AVE, 91343",9211,N,NATICK,AVE,91343,34.2377395193,-118.458080197,"(34.2377395193, -118.458080197)",501,J,6,North Valley APC,7,Monica Rodriguez,112,NORTH HILLS EAST,MISSION,18914,114,415,,1,73
1-1523555481,12/31/2019 06:07:00 PM,01/03/2020 03:14:00 PM,SR Created,BOS,Bulky Items,Closed,Call,BOS,,N,EV,01/03/2020 12:00:00 AM,01/03/2020 03:14:00 PM,Y,N,"9211 N NATICK AVE, 91343",9211,N,NATICK,AVE,91343,34.2377395193,-118.458080197,"(34.2377395193, -118.458080197)",501,J,6,North Valley APC,7,Monica Rodriguez,112,NORTH HILLS EAST,MISSION,18914,114,415,,1,73
1-1523554781,12/31/2019 06:06:00 PM,01/03/2020 07:10:00 AM,SR Created,BOS,Bulky Items,Closed,Call,BOS,,N,EV,01/07/2020 12:00:00 AM,01/03/2020 07:10:00 AM,Y,N,"11161 W LAUGHLIN LANE, 91606",11161,W,LAUGHLIN,LANE,91606,34.1857948794,-118.374194798,"(34.1857948794, -118.374194798)",532,J,6,South Valley APC,2,Paul Krekorian,24,NOHO NC,NORTH HOLLYWOOD,8889,196,487,,5,13
1-1523553861,12/31/2019 06:04:00 PM,01/07/2020 04:30:00 PM,SR Created,BOS,Bulky Items,Closed,Call,BOS,,N,NC,01/07/2020 12:00:00 AM,01/07/2020 12:12:00 PM,Y,N,"3266 N ANDRITA ST, 90065",3266,N,ANDRITA,ST,90065,34.1187756153,-118.242313409,"(34.1187756153, -118.242313409)",594,G,1,East Los Angeles APC,13,Mitch O'Farrell,39,GLASSELL PARK NC,NORTHEAST,24030,388,476,,8,56
1-1523553781,12/31/2019 06:03:00 PM,01/06/2020 11:00:00 AM,SR Created,BOS,Bulky Items,Closed,Call,BOS,,N,NC,01/06/2020 12:00:00 AM,01/06/2020 11:00:00 AM,Y,N,"501 S MATHEWS ST, 90033",501,S,MATHEWS,ST,90033,34.0385790935,-118.211862835,"(34.0385790935, -118.211862835)",635,A,5,East Los Angeles APC,14,Jose Huizar,50,BOYLE HEIGHTS NC,HOLLENBECK,23450,520,239,,9,38
1-1523554671,12/31/2019 06:00:00 PM,01/06/2020 11:00:00 AM,SR Created,BOS,Bulky Items,Closed,Call,BOS,,N,NC,01/06/2020 12:00:00 AM,01/06/2020 11:00:00 AM,Y,N,"501 S MATHEWS ST, 90033",501,S,MATHEWS,ST,90033,34.0385790935,-118.211862835,"(34.0385790935, -118.211862835)",635,A,5,East Los Angeles APC,14,Jose Huizar,50,BOYLE HEIGHTS NC,HOLLENBECK,23450,520,239,,9,38
1-1523554591,12/31/2019 05:57:00 PM,02/11/2020 01:50:00 PM,SR Created,BSL,Multiple Streetlight Issue,Closed,Self Service,Self Service,,Y,NORTH,02/05/2020 12:00:00 AM,02/05/2020 12:00:00 AM,Y,N,"SAN FERNANDO ROAD SOUTHWEST RDWY AT TUXFORD ST, 91352",,,,,91352,34.22744635,-118.3810599,"(34.2274463497, -118.3810599)",532,H,1,North Valley APC,6,Nury Martinez,8,SUN VALLEY AREA NC,FOOTHILL,19335,158,446,,3,21
1-1523551181,12/31/2019 05:52:00 PM,01/04/2020 03:02:00 PM,SR Created,BOS,Metal/Household Appliances,Closed,Call,BOS,,N,NC,01/04/2020 12:00:00 AM,01/04/2020 03:02:00 PM,Y,N,"4535 W ABBEY PL, 90019",4535,W,ABBEY,PL,90019,34.053408434,-118.330371889,"(34.053408434, -118.330371889)",633,F,4,Central APC,10,Herb J. Wesson Jr.,104,OLYMPIC PARK NC,WILSHIRE,23080,614,1345,,12,52
1-1523553601,12/31/2019 05:51:00 PM,01/03/2020 07:12:00 AM,SR Created,BOS,Bulky Items,Closed,Self Service,Self Service_SAN,,N,WV,01/03/2020 12:00:00 AM,01/03/2020 07:12:00 AM,Y,N,"18961 W KITTRIDGE ST, 91335",18961,W,KITTRIDGE,ST,91335,34.1903309942,-118.546708812,"(34.1903309942, -118.546708812)",530,H,6,South Valley APC,3,Bob Blumenfield,15,RESEDA NC,WEST VALLEY,18909,266,309,,4,12
1-1523551141,12/31/2019 05:50:00 PM,01/03/2020 04:35:00 PM,SR Created,BOS,Electronic Waste,Closed,Call,BOS,,N,EV,01/03/2020 12:00:00 AM,01/03/2020 12:14:00 PM,Y,N,"14924 W LULL ST, 91405",14924,W,LULL,ST,91405,34.2092371609,-118.458504441,"(34.2092371609, -118.458504441)",531,J,3,South Valley APC,6,Nury Martinez,20,VAN NUYS NC,VAN NUYS,19733,218,581,,3,18
1-1523554335,12/31/2019 05:49:00 PM,01/02/2020 07:51:00 AM,SR Created,BOS,Bulky Items,Closed,Mobile App,Self Service,iOS,Y,WV,01/02/2020 12:00:00 AM,01/02/2020 07:51:00 AM,Y,,"17164 W CANTLAY ST, 91406",17164,W,CANTLAY,ST,91406,34.2019544881,-118.507699183,"(34.2019544881, -118.507699183)",531,C,4,South Valley APC,6,Nury Martinez,19,LAKE BALBOA NC,WEST VALLEY,19734,259,315,,3,61
1-1523554391,12/31/2019 05:48:00 PM,01/04/2020 07:24:00 AM,SR Created,BOS,Bulky Items,Closed,Self Service,Self Service_SAN,,Y,WV,01/04/2020 12:00:00 AM,01/04/2020 07:24:00 AM,Y,N,"22620 W FLAMINGO ST, 91364",22620,W,FLAMINGO,ST,91364,34.1476883096,-118.61859211,"(34.1476883096, -118.61859211)",559,H,5,South Valley APC,3,Bob Blumenfield,16,WOODLAND HILLS-WARNER CENTER NC,TOPANGA,19346,310,652,11,4,49
1-1523551031,12/31/2019 05:47:00 PM,01/02/2020 01:23:00 PM,SR Created,BOS,Bulky Items,Closed,Call,BOS,,N,WLA,01/02/2020 12:00:00 AM,01/02/2020 01:23:00 PM,Y,N,"2530 S WESTGATE AVE, 90064",2530,S,WESTGATE,AVE,90064,34.0271984779,-118.44591432,"(34.0271984779, -118.44591432)",632,A,7,West Los Angeles APC,11,Mike Bonin,67,MAR VISTA CC,PACIFIC,24029,890,347,9,10,27
1-1523553511,12/31/2019 05:47:00 PM,01/02/2020 03:20:00 PM,SR Created,ITA,Other,Cancelled,Mobile App,Self Service,Android,Y,,,01/02/2020 03:20:00 PM,Y,N,"3900 W 1ST ST, 90004",3900,W,1ST,ST,90004,34.0726399907,-118.298849995,"(34.0726399907, -118.298849995)",633,J,1,Central APC,13,Mitch O'Farrell,55,WILSHIRE CENTER - KOREATOWN NC,OLYMPIC,22721,583,937,,8,89
1-1523551007,12/31/2019 05:47:00 PM,01/03/2020 12:18:00 PM,SR Created,BOS,Bulky Items,Closed,Mobile App,Self Service,iOS,N,NC,01/03/2020 12:00:00 AM,01/03/2020 12:18:00 PM,Y,,"2362 W SCOTT AVE, 90026",2362,W,SCOTT,AVE,90026,34.0831756582,-118.264690954,"(34.0831756582, -118.264690954)",594,D,6,East Los Angeles APC,13,Mitch O'Farrell,38,SILVER LAKE NC,NORTHEAST,23444,469,634,,8,90
1-1523554291,12/31/2019 05:46:00 PM,01/05/2020 12:30:00 PM,SR Created,OCB,Graffiti Removal,Cancelled,Mobile App,Self Service,Android,Y,KYCC,01/05/2020 12:30:00 PM,01/05/2020 12:30:00 PM,Y,N,"3900 W 1ST ST, 90004",3900,W,1ST,ST,90004,34.07263999,-118.29885,"(34.0726399907, -118.298849995)",633,J,1,Central APC,13,Mitch O'Farrell,55,WILSHIRE CENTER - KOREATOWN NC,OLYMPIC,22721,583,937,,8,89
1-1523550931,12/31/2019 05:44:00 PM,01/02/2020 01:31:00 PM,SR Created,BOS,Bulky Items,Closed,Call,BOS,,N,WV,01/02/2020 12:00:00 AM,01/02/2020 09:07:00 AM,Y,N,"10413 N DEMPSEY AVE, 91344",10413,N,DEMPSEY,AVE,91344,34.2597119103,-118.477368405,"(34.2597119103, -118.477368405)",501,F,3,North Valley APC,12,John Lee,118,GRANADA HILLS SOUTH NC,DEVONSHIRE,19329,75,394,,2,79
1-1523549111,12/31/2019 05:42:00 PM,01/02/2020 08:23:00 AM,SR Created,BOS,Bulky Items,Closed,Call,BOS,,N,NC,01/02/2020 12:00:00 AM,01/02/2020 08:23:00 AM,Y,N,"447 S RAMPART BLVD, 90057",447,S,RAMPART,BLVD,90057,34.0637394307,-118.280814861,"(34.0637394307, -118.280814861)",634,B,2,Central APC,1,Gilbert Cedillo,53,RAMPART VILLAGE NC,RAMPART,24352,558,1318,,11,80
1-1523550852,12/31/2019 05:42:00 PM,01/02/2020 02:25:00 PM,SR Created,BOS,Bulky Items,Closed,Mobile App,Self Service,Android,N,WV,01/02/2020 12:00:00 AM,01/02/2020 02:25:00 PM,Y,,"15850 W SUNBURST ST, 91343",15850,W,SUNBURST,ST,91343,34.2345361534,-118.478098586,"(34.2345361534, -118.478098586)",501,F,7,North Valley APC,12,John Lee,111,NORTH HILLS WEST NC,DEVONSHIRE,18914,121,252,,2,88
1-1523552321,12/31/2019 05:39:00 PM,01/03/2020 03:31:00 PM,SR Created,BOS,Bulky Items,Closed,Mobile App,Self Service,iOS,Y,WLA,01/03/2020 12:00:00 AM,01/03/2020 03:31:00 PM,Y,,"1615 N LAUREL AVE, 90046",1615,N,LAUREL,AVE,90046,34.1003938139,-118.364490077,"(34.1003938139, -118.364490077)",593,B,4,Central APC,4,David Ryu,29,HOLLYWOOD HILLS WEST NC,HOLLYWOOD,23677,409,728,,7,82
1-1523552271,12/31/2019 05:38:00 PM,01/01/2020 09:00:00 AM,SR Created,BOS,Dead Animal Removal,Closed,Call,BOS,,N,EV,,01/01/2020 09:00:00 AM,Y,N,"11150 W SYLVAN ST, 91606",11150,W,SYLVAN,ST,91606,34.184748288,-118.374149754,"(34.184748288, -118.374149754)",532,J,7,South Valley APC,2,Paul Krekorian,24,NOHO NC,NORTH HOLLYWOOD,8889,196,487,,5,13
1-1523550771,12/31/2019 05:37:00 PM,01/04/2020 02:56:00 PM,SR Created,BOS,Homeless Encampment,Closed,Self Service,Self Service,,Y,NC,01/04/2020 12:00:00 AM,01/04/2020 02:56:00 PM,Y,N,"CAHUENGA BLVD AT HOLLYWOOD FRWY, 90068",,,,,90068,34.1079390185,-118.330833858,"(34.1079390185, -118.330833858)",593,E,3,Central APC,4,David Ryu,29,HOLLYWOOD HILLS WEST NC,HOLLYWOOD,24033,406,716,,7,82
1-1523552221,12/31/2019 05:36:00 PM,01/04/2020 10:32:00 AM,SR Created,BOS,Bulky Items,Closed,Self Service,Self Service,,N,WLA,01/04/2020 12:00:00 AM,01/04/2020 09:48:00 AM,Y,Y,"5023 W WASHINGTON BLVD, 90016",5023,W,WASHINGTON,BLVD,90016,34.0409110081,-118.349384078,"(34.0409110081, -118.349384078)",633,C,5,South Los Angeles APC,10,Herb J. Wesson Jr.,73,MID CITY NC,WILSHIRE,23080,652,1110,,12,69
1-1523547140,12/31/2019 05:33:00 PM,12/31/2019 05:33:00 PM,SR Created,LADWP,Report Water Waste,Closed,Mobile App,Self Service,iOS,N,,,12/31/2019 05:33:00 PM,Y,,"1526 S ARMACOST AVE, 90025",1526,S,ARMACOST,AVE,90025,34.0411522862,-118.45947759,"(34.0411522862, -118.45947759)",631,J,6,West Los Angeles APC,11,Mike Bonin,66,WEST LOS ANGELES NC,WEST LOS ANGELES,23443,865,751,9,10,50
1-1523547944,12/31/2019 05:33:00 PM,01/02/2020 03:40:00 PM,SR Created,OCB,Graffiti Removal,Closed,Mobile App,Self Service,iOS,Y,CRCD,01/02/2020 03:39:00 PM,01/02/2020 03:40:00 PM,Y,N,"5006 S NORMANDIE AVE, 90037",5006,S,NORMANDIE,AVE,90037,33.99756062,-118.3000305,"(33.9975606177, -118.300030469)",673,J,4,South Los Angeles APC,9,Curren D. Price Jr.,109,VOICES OF 90037,77TH STREET,23668,741,1155,7,13,2
1-1523548041,12/31/2019 05:32:00 PM,01/03/2020 01:34:00 PM,SR Created,BOS,Bulky Items,Closed,Call,BOS,,N,NC,01/03/2020 12:00:00 AM,01/03/2020 01:34:00 PM,Y,N,"3513 W CRESTMONT AVE, 90026",3513,W,CRESTMONT,AVE,90026,34.0925802333,-118.274136349,"(34.0925802333, -118.274136349)",594,C,5,East Los Angeles APC,13,Mitch O'Farrell,38,SILVER LAKE NC,NORTHEAST,23444,467,596,,8,90
1-1523548081,12/31/2019 05:32:00 PM,01/02/2020 01:52:00 PM,SR Created,BOS,Bulky Items,Closed,Call,BOS,,N,NC,01/02/2020 12:00:00 AM,01/02/2020 01:52:00 PM,Y,N,"246 N DILLON ST, 90026",246,N,DILLON,ST,90026,34.074896553,-118.281270936,"(34.074896553, -118.281270936)",634,B,1,Central APC,13,Mitch O'Farrell,53,RAMPART VILLAGE NC,RAMPART,23444,555,941,,8,80
1-1523548001,12/31/2019 05:31:00 PM,01/02/2020 02:29:00 PM,SR Created,BOS,Bulky Items,Closed,Call,BOS,,N,NC,01/02/2020 12:00:00 AM,01/02/2020 02:29:00 PM,Y,N,"3312 W GLENHURST AVE, 90039",3312,W,GLENHURST,AVE,90039,34.1126706564,-118.258769207,"(34.1126706564, -118.258769207)",594,E,2,East Los Angeles APC,13,Mitch O'Farrell,37,ATWATER VILLAGE NC,NORTHEAST,23670,391,450,,8,42
1-1523548931,12/31/2019 05:31:00 PM,01/02/2020 02:31:00 PM,SR Created,BOS,Electronic Waste,Closed,Call,BOS,,N,NC,01/02/2020 12:00:00 AM,01/02/2020 02:31:00 PM,Y,N,"246 N DILLON ST, 90026",246,N,DILLON,ST,90026,34.074896553,-118.281270936,"(34.074896553, -118.281270936)",634,B,1,Central APC,13,Mitch O'Farrell,53,RAMPART VILLAGE NC,RAMPART,23444,555,941,,8,80
1-1523550581,12/31/2019 05:31:00 PM,01/02/2020 01:40:00 PM,SR Created,BOS,Bulky Items,Closed,Call,BOS,,N,NC,01/02/2020 12:00:00 AM,01/02/2020 12:05:00 PM,Y,N,"246 N DILLON ST, 90026",246,N,DILLON,ST,90026,34.074896553,-118.281270936,"(34.074896553, -118.281270936)",634,B,1,Central APC,13,Mitch O'Farrell,53,RAMPART VILLAGE NC,RAMPART,23444,555,941,,8,80
1-1523547051,12/31/2019 05:30:00 PM,01/02/2020 02:29:00 PM,SR Created,BOS,Bulky Items,Closed,Call,BOS,,N,NC,01/02/2020 12:00:00 AM,01/02/2020 02:29:00 PM,Y,N,"3312 W GLENHURST AVE, 90039",3312,W,GLENHURST,AVE,90039,34.1126706564,-118.258769207,"(34.1126706564, -118.258769207)",594,E,2,East Los Angeles APC,13,Mitch O'Farrell,37,ATWATER VILLAGE NC,NORTHEAST,23670,391,450,,8,42
1-1523547905,12/31/2019 05:30:00 PM,01/02/2020 01:39:00 PM,SR Created,BOS,Illegal Dumping Pickup,Closed,Mobile App,Self Service,iOS,N,NC,01/02/2020 12:00:00 AM,01/02/2020 01:39:00 PM,Y,,"2224 W RESERVOIR ST, 90026",2224,W,RESERVOIR,ST,90026,34.0799481487,-118.265001083,"(34.0799481487, -118.265001083)",594,D,7,East Los Angeles APC,13,Mitch O'Farrell,44,ECHO PARK NC,NORTHEAST,23444,469,634,,8,31
1-1523547011,12/31/2019 05:30:00 PM,01/02/2020 07:53:00 AM,SR Created,BOS,Bulky Items,Closed,Call,BOS,,N,NC,01/02/2020 12:00:00 AM,01/02/2020 07:53:00 AM,Y,N,"3426 E EAGLE ST, 90063",3426,E,EAGLE,ST,90063,34.0327322465,-118.196675512,"(34.0327322465, -118.196675512)",635,C,6,East Los Angeles APC,14,Jose Huizar,50,BOYLE HEIGHTS NC,HOLLENBECK,24028,516,956,,9,38
1-1523548801,12/31/2019 05:29:00 PM,01/02/2020 03:29:00 PM,SR Created,BOS,Metal/Household Appliances,Closed,Call,BOS,,N,NC,01/02/2020 12:00:00 AM,01/02/2020 03:28:00 PM,Y,N,"3426 E EAGLE ST, 90063",3426,E,EAGLE,ST,90063,34.0327322465,-118.196675512,"(34.0327322465, -118.196675512)",635,C,6,East Los Angeles APC,14,Jose Huizar,50,BOYLE HEIGHTS NC,HOLLENBECK,24028,516,956,,9,38
1-1523548741,12/31/2019 05:28:00 PM,01/02/2020 02:23:00 PM,SR Created,BOS,Bulky Items,Closed,Call,BOS,,N,NC,01/02/2020 12:00:00 AM,01/02/2020 12:07:00 PM,Y,N,"3426 E EAGLE ST, 90063",3426,E,EAGLE,ST,90063,34.0327322465,-118.196675512,"(34.0327322465, -118.196675512)",635,C,6,East Los Angeles APC,14,Jose Huizar,50,BOYLE HEIGHTS NC,HOLLENBECK,24028,516,956,,9,38
1-1523550421,12/31/2019 05:26:00 PM,01/02/2020 07:13:00 AM,SR Created,BOS,Bulky Items,Closed,Call,BOS,,N,SLA,01/02/2020 12:00:00 AM,01/02/2020 07:13:00 AM,Y,N,"3720 S PALOMA ST, 90011",3720,S,PALOMA,ST,90011,34.0120710613,-118.261432714,"(34.0120710613, -118.261432714)",674,E,2,South Los Angeles APC,9,Curren D. Price Jr.,78,SOUTH CENTRAL NC,NEWTON,22727,712,673,7,13,6
1-1523546861,12/31/2019 05:26:00 PM,01/06/2020 12:42:00 PM,SR Created,OCB,Graffiti Removal,Closed,Self Service,Self Service,,Y,HBT,01/02/2020 12:00:00 AM,01/06/2020 12:42:00 PM,Y,N,"CAHUENGA BLVD AT HOLLYWOOD FRWY, 90068",,,,,90068,34.10793902,-118.3308339,"(34.1079390185, -118.330833858)",593,E,3,Central APC,4,David Ryu,29,HOLLYWOOD HILLS WEST NC,HOLLYWOOD,24033,406,716,,7,82
1-1523550283,12/31/2019 05:24:00 PM,01/21/2020 09:21:00 AM,SR Created,BOS,Homeless Encampment,Closed,Mobile App,Self Service,iOS,Y,WV,01/06/2020 12:00:00 AM,01/21/2020 09:15:00 AM,Y,,"5550 N WINNETKA AVE, 91364",5550,N,WINNETKA,AVE,91364,34.1714255598,-118.570737398,"(34.1714255598, -118.570737398)",560,E,2,South Valley APC,3,Bob Blumenfield,16,WOODLAND HILLS-WARNER CENTER NC,TOPANGA,19346,311,1492,6,4,49
1-1523546781,12/31/2019 05:24:00 PM,01/02/2020 08:57:00 AM,SR Created,BOS,Metal/Household Appliances,Closed,Self Service,Self Service_SAN,,N,WLA,01/02/2020 12:00:00 AM,01/02/2020 08:52:00 AM,Y,N,"11928 W IDAHO AVE, 90025",11928,W,IDAHO,AVE,90025,34.0397654932,-118.459576507,"(34.0397654932, -118.459576507)",631,J,6,West Los Angeles APC,11,Mike Bonin,66,WEST LOS ANGELES NC,WEST LOS ANGELES,23443,865,751,9,10,50
1-1523547612,12/31/2019 05:23:32 PM,04/13/2020 02:54:51 PM,SR Created,BOS,Homeless Encampment,Closed,Mobile App,Self Service,iOS,Y,EV,01/03/2020 12:00:00 AM,04/13/2020 02:54:25 PM,Y,,"4222 N VINELAND AVE, 91602",4222,N,VINELAND,AVE,91602,34.145492511,-118.370085424,"(34.145492511, -118.370085424)",563,A,5,South Valley APC,2,Paul Krekorian,27,STUDIO CITY NC,NORTH HOLLYWOOD,8489,348,708,,5,84
1-1523550300,12/31/2019 05:23:00 PM,01/21/2020 11:56:00 AM,SR Created,BOS,Homeless Encampment,Closed,Mobile App,Self Service,iOS,Y,WV,01/06/2020 12:00:00 AM,01/21/2020 08:56:00 AM,Y,,"5550 N WINNETKA AVE, 91364",5550,N,WINNETKA,AVE,91364,34.1714255598,-118.570737398,"(34.1714255598, -118.570737398)",560,E,2,South Valley APC,3,Bob Blumenfield,16,WOODLAND HILLS-WARNER CENTER NC,TOPANGA,19346,311,1492,6,4,49
1-1523546530,12/31/2019 05:21:00 PM,01/21/2020 12:00:00 PM,SR Created,BOS,Homeless Encampment,Closed,Mobile App,Self Service,iOS,Y,WV,01/06/2020 12:00:00 AM,01/21/2020 08:56:00 AM,Y,,"5550 N WINNETKA AVE, 91364",5550,N,WINNETKA,AVE,91364,34.1714255598,-118.570737398,"(34.1714255598, -118.570737398)",560,E,2,South Valley APC,3,Bob Blumenfield,16,WOODLAND HILLS-WARNER CENTER NC,TOPANGA,19346,311,1492,6,4,49
1-1523548481,12/31/2019 05:20:00 PM,01/02/2020 02:19:00 PM,SR Created,BOS,Bulky Items,Closed,Self Service,Self Service_SAN,,N,WLA,01/02/2020 12:00:00 AM,01/02/2020 02:19:00 PM,Y,N,"11928 W IDAHO AVE, 90025",11928,W,IDAHO,AVE,90025,34.0397654932,-118.459576507,"(34.0397654932, -118.459576507)",631,J,6,West Los Angeles APC,11,Mike Bonin,66,WEST LOS ANGELES NC,WEST LOS ANGELES,23443,865,751,9,10,50
1-1523543137,12/31/2019 05:19:00 PM,01/21/2020 11:37:00 AM,SR Created,BOS,Homeless Encampment,Closed,Mobile App,Self Service,iOS,N,WV,01/06/2020 12:00:00 AM,01/21/2020 09:14:00 AM,Y,,"5550 N WINNETKA AVE, 91364",5550,N,WINNETKA,AVE,91364,34.1714255598,-118.570737398,"(34.1714255598, -118.570737398)",560,E,2,South Valley APC,3,Bob Blumenfield,16,WOODLAND HILLS-WARNER CENTER NC,TOPANGA,19346,311,1492,6,4,49
1-1523546601,12/31/2019 05:19:00 PM,01/02/2020 07:57:00 AM,SR Created,BOS,Bulky Items,Closed,Call,BOS,,N,SLA,01/02/2020 12:00:00 AM,01/02/2020 07:57:00 AM,Y,N,"189 E 50TH ST, 90011",189,E,50TH,ST,90011,33.9975346554,-118.272343393,"(33.9975346554, -118.272343393)",674,C,4,South Los Angeles APC,9,Curren D. Price Jr.,125,ZAPATA KING NC,NEWTON,22727,724,1342,7,13,
1-1523546548,12/31/2019 05:19:00 PM,01/02/2020 01:38:00 PM,SR Created,BOS,Bulky Items,Closed,Mobile App,Self Service,iOS,N,NC,01/02/2020 12:00:00 AM,01/02/2020 01:38:00 PM,Y,,"2224 W RESERVOIR ST, 90026",2224,W,RESERVOIR,ST,90026,34.0799932296,-118.265553179,"(34.0799932296, -118.265553179)",594,D,7,East Los Angeles APC,13,Mitch O'Farrell,44,ECHO PARK NC,NORTHEAST,23444,469,634,,8,31
1-1523543024,12/31/2019 05:18:00 PM,01/21/2020 01:44:00 PM,SR Created,BOS,Homeless Encampment,Closed,Mobile App,Self Service,iOS,Y,WV,01/06/2020 12:00:00 AM,01/21/2020 09:04:00 AM,Y,,"5550 N WINNETKA AVE, 91364",5550,N,WINNETKA,AVE,91364,34.1714255598,-118.570737398,"(34.1714255598, -118.570737398)",560,E,2,South Valley APC,3,Bob Blumenfield,16,WOODLAND HILLS-WARNER CENTER NC,TOPANGA,19346,311,1492,6,4,49
1-1523548441,12/31/2019 05:18:00 PM,01/03/2020 04:19:00 PM,SR Created,BOS,Metal/Household Appliances,Closed,Call,BOS,,N,EV,01/03/2020 12:00:00 AM,01/03/2020 02:43:00 PM,Y,N,"7321 N LENNOX AVE, 91405",7321,N,LENNOX,AVE,91405,34.2033613837,-118.446498879,"(34.2033613837, -118.446498879)",532,A,4,South Valley APC,2,Paul Krekorian,20,VAN NUYS NC,VAN NUYS,19733,215,458,,5,18
1-1523546352,12/31/2019 05:17:00 PM,01/04/2020 03:06:00 PM,SR Created,BOS,Bulky Items,Closed,Mobile App,Self Service,Android,N,EV,01/04/2020 12:00:00 AM,01/04/2020 03:06:00 PM,Y,,"11140 N PHILLIPPI AVE, 91331",11140,N,PHILLIPPI,AVE,91331,34.2725827824,-118.401099551,"(34.2725827824, -118.401099551)",502,F,2,North Valley APC,7,Monica Rodriguez,7,PACOIMA NC,FOOTHILL,18907,18,1370,,1,11
1-1523548371,12/31/2019 05:17:00 PM,01/03/2020 02:45:00 PM,SR Created,BOS,Metal/Household Appliances,Closed,Call,BOS,,N,EV,01/03/2020 12:00:00 AM,01/03/2020 02:43:00 PM,Y,N,"7320 N LENNOX AVE, 91405",7320,N,LENNOX,AVE,91405,34.2033608892,-118.446185978,"(34.2033608892, -118.446185978)",532,A,4,South Valley APC,2,Paul Krekorian,20,VAN NUYS NC,VAN NUYS,19733,215,458,,5,18
1-1523547293,12/31/2019 05:17:00 PM,01/21/2020 12:25:00 PM,SR Created,BOS,Homeless Encampment,Closed,Mobile App,Self Service,iOS,Y,WV,01/06/2020 12:00:00 AM,01/21/2020 09:07:00 AM,Y,,"5550 N WINNETKA AVE, 91364",5550,N,WINNETKA,AVE,91364,34.1714255598,-118.570737398,"(34.1714255598, -118.570737398)",560,E,2,South Valley APC,3,Bob Blumenfield,16,WOODLAND HILLS-WARNER CENTER NC,TOPANGA,19346,311,1492,6,4,49
1-1523542897,12/31/2019 05:17:00 PM,01/05/2020 02:14:00 PM,SR Created,OCB,Graffiti Removal,Closed,Mobile App,Self Service,iOS,Y,LACC,01/05/2020 02:14:00 PM,01/05/2020 02:14:00 PM,Y,N,"2200 S HOBART BLVD, 90018",2200,S,HOBART,BLVD,90018,34.03613281,-118.307709,"(34.0361328109, -118.307708977)",633,H,6,South Los Angeles APC,8,Marqueece Harris-Dawson,77,EMPOWERMENT CONGRESS NORTH AREA NDC,SOUTHWEST,23079,679,643,7,14,32
1-1523548341,12/31/2019 05:16:00 PM,01/03/2020 03:38:00 PM,SR Created,BOS,Bulky Items,Closed,Call,BOS,,N,SLA,01/03/2020 12:00:00 AM,01/03/2020 03:38:00 PM,Y,N,"5824 S 3RD AVE, 90043",5824,S,3RD,AVE,90043,33.9883634359,-118.32049593,"(33.9883634359, -118.32049593)",673,G,6,South Los Angeles APC,8,Marqueece Harris-Dawson,80,PARK MESA HEIGHTS CC,77TH STREET,23674,753,615,7,14,24
1-1523542957,12/31/2019 05:15:00 PM,01/21/2020 09:39:00 AM,SR Created,BOS,Homeless Encampment,Closed,Mobile App,Self Service,iOS,N,WV,01/06/2020 12:00:00 AM,01/21/2020 09:10:00 AM,Y,,"5550 N WINNETKA AVE, 91364",5550,N,WINNETKA,AVE,91364,34.1714255598,-118.570737398,"(34.1714255598, -118.570737398)",560,E,2,South Valley APC,3,Bob Blumenfield,16,WOODLAND HILLS-WARNER CENTER NC,TOPANGA,19346,311,1492,6,4,49
