SRNumber,CreatedDate,UpdatedDate,ActionTaken,Owner,RequestType,Status,RequestSource,MobileOS,Anonymous,AssignTo,ServiceDate,ClosedDate,AddressVerified,ApproximateAddress,Address,HouseNumber,Direction,StreetName,Suffix,ZipCode,Latitude,Longitude,Location,TBMPage,TBMColumn,TBMRow,APC,CD,CDMember,NC,NCName,PolicePrecinct,Zip Codes,Census Tracts,Precinct Boundaries,LA Specific Plans,Council Districts,Neighborhood Councils (Certified)
1-411056851,12/31/2016 11:51:00 PM,01/01/2017 09:18:00 AM,SR Created,BOS,Dead Animal Removal,Closed,Self Service,,N,EV,,01/01/2017 09:18:00 AM,Y,N,"13922 W OSBORNE ST, 91331",13922,W,OSBORNE,ST,91331,34.23409856,-118.4367399,"(34.2340985645, -118.43673991)",502,B,7,North Valley APC,6,Nury Martinez,6,ARLETA NC,MISSION,18907,139,453,,3,41
1-411056141,12/31/2016 11:39:00 PM,01/04/2017 05:56:00 PM,SR Created,OCB,Graffiti Removal,Cancelled,Self Service,,Y,CCAC,01/04/2017 05:56:00 PM,01/04/2017 05:56:00 PM,Y,N,"430 N CORONADO ST, 90026",430,N,CORONADO,ST,90026,34.07371387,-118.2724016,"(34.0737138726, -118.272401627)",634,C,1,East Los Angeles APC,13,Mitch O'Farrell,44,GREATER ECHO PARK ELYSIAN NC,RAMPART,23444,470,838,,8,31
1-411057731,12/31/2016 11:37:00 PM,01/01/2017 07:21:00 AM,SR Created,BOS,Dead Animal Removal,Closed,Call,,N,WLA,,01/01/2017 07:21:00 AM,Y,N,"11914 W ATLANTIC AVE, 90066",11914,W,ATLANTIC,AVE,90066,33.99885,-118.4204465,"(33.9988499952, -118.42044647)",672,D,4,West Los Angeles APC,11,Mike Bonin,67,MAR VISTA CC,PACIFIC,24031,903,1343,10,10,27
1-411056761,12/31/2016 11:32:00 PM,01/04/2017 05:39:00 PM,SR Created,OCB,Graffiti Removal,Cancelled,Self Service,,Y,CCAC,01/04/2017 05:39:00 PM,01/04/2017 05:39:00 PM,Y,N,"2435 W TEMPLE ST, 90026",2435,W,TEMPLE,ST,90026,34.07199373,-118.2730177,"(34.0719937299, -118.273017652)",634,C,1,East Los Angeles APC,13,Mitch O'Farrell,44,GREATER ECHO PARK ELYSIAN NC,RAMPART,23444,470,838,,8,31
1-411056681,12/31/2016 11:30:00 PM,01/04/2017 05:52:00 PM,SR Created,OCB,Graffiti Removal,Cancelled,Self Service,,Y,CCAC,01/04/2017 05:51:00 PM,01/04/2017 05:52:00 PM,Y,N,"414 N CORONADO ST, 90026",414,N,CORONADO,ST,90026,34.07334691,-118.2726177,"(34.0733469063, -118.272617749)",634,C,1,East Los Angeles APC,13,Mitch O'Farrell,44,GREATER ECHO PARK ELYSIAN NC,RAMPART,23444,470,838,,8,31
1-411057631,12/31/2016 11:27:00 PM,01/04/2017 05:38:00 PM,SR Created,OCB,Graffiti Removal,Cancelled,Self Service,,Y,CCAC,01/04/2017 05:37:00 PM,01/04/2017 05:38:00 PM,Y,N,"CORONADO ST AT TEMPLE ST, 90026",,,,,90026,34.07218753,-118.2739192,"(34.0721875331, -118.273919201)",634,C,1,East Los Angeles APC,13,Mitch O'Farrell,44,GREATER ECHO PARK ELYSIAN NC,RAMPART,23444,556,612,,8,31
1-411062521,12/31/2016 11:26:00 PM,01/04/2017 05:55:00 PM,SR Created,OCB,Graffiti Removal,Closed,Self Service,,Y,CCAC,01/04/2017 05:55:00 PM,01/04/2017 05:55:00 PM,Y,N,"322 N CORONADO ST, 90026",322,N,CORONADO,ST,90026,34.07272434,-118.272997,"(34.0727243439, -118.272996952)",634,C,1,East Los Angeles APC,13,Mitch O'Farrell,44,GREATER ECHO PARK ELYSIAN NC,RAMPART,23444,470,838,,8,31
1-411056041,12/31/2016 11:23:00 PM,01/13/2017 04:17:00 PM,SR Created,OCB,Graffiti Removal,Closed,Self Service,,Y,CCAC,01/13/2017 04:17:00 PM,01/13/2017 04:17:00 PM,Y,N,"404 N CORONADO ST, 90026",404,N,CORONADO,ST,90026,34.07311041,-118.2727693,"(34.073110406, -118.272769338)",634,C,1,East Los Angeles APC,13,Mitch O'Farrell,44,GREATER ECHO PARK ELYSIAN NC,RAMPART,23444,470,838,,8,31
1-411054431,12/31/2016 11:17:00 PM,01/04/2017 05:50:00 PM,SR Created,OCB,Graffiti Removal,Cancelled,Self Service,,Y,CCAC,01/04/2017 05:49:00 PM,01/04/2017 05:50:00 PM,Y,N,"401 N CORONADO ST, 90026",401,N,CORONADO,ST,90026,34.07338015,-118.2728936,"(34.0733801524, -118.272893647)",634,C,1,East Los Angeles APC,13,Mitch O'Farrell,44,GREATER ECHO PARK ELYSIAN NC,RAMPART,23444,472,612,,8,31
1-411056601,12/31/2016 11:07:00 PM,01/04/2017 10:01:00 AM,SR Created,OCB,Graffiti Removal,Closed,Mobile App,Android,N,HBT,01/03/2017 09:53:00 AM,01/04/2017 10:01:00 AM,Y,N,"1438 N SERRANO AVE, 90027",1438,N,SERRANO,AVE,90027,34.09773834,-118.3069544,"(34.0977383414, -118.306954378)",593,H,4,Central APC,13,Mitch O'Farrell,34,EAST HOLLYWOOD NC,HOLLYWOOD,23445,428,456,16,8,58
1-411055901,12/31/2016 10:19:00 PM,01/07/2017 09:41:00 AM,SR Created,BOS,Illegal Dumping Pickup,Closed,Self Service,,N,NC,01/07/2017 12:00:00 AM,01/07/2017 09:41:00 AM,Y,N,"5705 W FRANKLIN AVE, 90028",5705,W,FRANKLIN,AVE,90028,34.1054445,-118.3140618,"(34.1054445002, -118.314061803)",593,G,3,Central APC,4,David Ryu,30,HOLLYWOOD UNITED NC,HOLLYWOOD,24033,403,1296,16,7,64
1-411055821,12/31/2016 10:18:00 PM,01/03/2017 07:30:00 AM,SR Created,OCB,Graffiti Removal,Closed,Self Service,,Y,GAP,01/02/2017 07:30:00 AM,01/03/2017 07:30:00 AM,Y,N,"1539 W CARSON ST, 90501",1539,W,CARSON,ST,90501,33.83164484,-118.3052654,"(33.8316448378, -118.3052654)",763,J,6,Harbor APC,15,Joe Buscaino,91,HARBOR GATEWAY SOUTH NC,HARBOR,25715,945,1320,,15,55
1-411054151,12/31/2016 10:14:00 PM,01/03/2017 07:31:00 AM,SR Created,OCB,Graffiti Removal,Closed,Self Service,,Y,GAP,01/02/2017 07:31:00 AM,01/03/2017 07:31:00 AM,Y,N,"1533 W CARSON ST, 90501",1533,W,CARSON,ST,90501,33.83164551,-118.3051348,"(33.8316455051, -118.305134811)",763,J,6,Harbor APC,15,Joe Buscaino,91,HARBOR GATEWAY SOUTH NC,HARBOR,25715,945,1320,,15,55
1-411049404,12/31/2016 10:08:00 PM,01/07/2017 01:18:00 PM,SR Created,BOS,Bulky Items,Closed,Mobile App,iOS,Y,WLA,01/07/2017 12:00:00 AM,01/07/2017 01:18:00 PM,Y,,"10021 W TABOR ST, 90034",10021,W,TABOR,ST,90034,34.02725789,-118.4034523,"(34.0272578935, -118.403452251)",632,F,7,West Los Angeles APC,5,Paul Koretz,115,PALMS NC,PACIFIC,23451,884,1129,9,6,74
1-411055701,12/31/2016 10:07:00 PM,01/03/2017 12:55:00 PM,SR Created,BOS,Bulky Items,Closed,Self Service,,Y,WV,01/03/2017 12:00:00 AM,01/03/2017 12:55:00 PM,Y,N,"11305 N ENCINO AVE, 91344",11305,N,ENCINO,AVE,91344,34.27585978,-118.5154353,"(34.2758597772, -118.515435275)",501,B,1,North Valley APC,12,Mitchell Englander,118,GRANADA HILLS SOUTH NC,DEVONSHIRE,19329,78,1414,,2,79
1-411055631,12/31/2016 10:06:00 PM,01/03/2017 12:19:00 PM,SR Created,BOS,Bulky Items,Closed,Self Service,,N,SLA,01/03/2017 12:00:00 AM,01/03/2017 12:19:00 PM,Y,N,"3446 S HILLCREST DR, 90016",3446,S,HILLCREST,DR,90016,34.02411011,-118.3427708,"(34.0241101132, -118.342770827)",673,D,1,South Los Angeles APC,10,Herb J. Wesson Jr.,75,WEST ADAMS NC,SOUTHWEST,23077,668,925,7,12,17
1-411049251,12/31/2016 10:04:00 PM,01/03/2017 09:02:00 AM,SR Created,BOS,Electronic Waste,Closed,Self Service,,N,SLA,01/03/2017 12:00:00 AM,01/03/2017 09:02:00 AM,Y,N,"4131 W EXPOSITION BLVD, 90016",4131,W,EXPOSITION,BLVD,90016,34.02370586,-118.3413715,"(34.0237058561, -118.341371495)",673,D,1,South Los Angeles APC,10,Herb J. Wesson Jr.,75,WEST ADAMS NC,SOUTHWEST,23077,668,925,7,12,17
1-411055521,12/31/2016 10:02:00 PM,01/03/2017 10:32:00 AM,SR Created,BOS,Bulky Items,Closed,Self Service,,N,SLA,01/03/2017 12:00:00 AM,01/03/2017 10:32:00 AM,Y,N,"3721 W EXPOSITION BLVD, 90016",3721,W,EXPOSITION,BLVD,90016,34.0230916,-118.3371771,"(34.0230916033, -118.337177075)",673,E,1,South Los Angeles APC,10,Herb J. Wesson Jr.,75,WEST ADAMS NC,SOUTHWEST,23077,668,926,7,12,17
1-411053901,12/31/2016 10:00:00 PM,01/04/2017 08:19:00 AM,SR Created,BOS,Bulky Items,Closed,Self Service,,N,SLA,01/04/2017 12:00:00 AM,01/04/2017 08:19:00 AM,Y,N,"1414 W 36TH PL, 90018",1414,W,36TH,PL,90018,34.02176143,-118.3008036,"(34.0217614333, -118.300803572)",673,J,1,South Los Angeles APC,8,Marqueece Harris-Dawson,77,EMPOWERMENT CONGRESS NORTH AREA NDC,SOUTHWEST,23079,690,916,7,14,32
1-411044411,12/31/2016 09:54:00 PM,01/05/2017 09:26:00 AM,SR Created,BOS,Homeless Encampment,Closed,Self Service,,N,SLA,01/05/2017 12:00:00 AM,01/05/2017 09:26:00 AM,Y,N,"3779 S HOBART BLVD, 90018",3779,S,HOBART,BLVD,90018,34.0180219,-118.3079988,"(34.0180219048, -118.307998768)",673,H,1,South Los Angeles APC,8,Marqueece Harris-Dawson,77,EMPOWERMENT CONGRESS NORTH AREA NDC,SOUTHWEST,24027,730,1011,7,14,32
1-411049051,12/31/2016 09:51:00 PM,01/01/2017 11:00:00 AM,SR Created,BOS,Dead Animal Removal,Closed,Self Service,,Y,EV,,01/01/2017 11:00:00 AM,Y,N,"5412 N SEPULVEDA BLVD, 91411",5412,N,SEPULVEDA,BLVD,91411,34.16893185,-118.4659583,"(34.1689318451, -118.465958298)",561,H,2,South Valley APC,4,David Ryu,26,SHERMAN OAKS NC,VAN NUYS,19735,246,649,,7,83
1-411048981,12/31/2016 09:48:00 PM,01/04/2017 08:20:00 AM,SR Created,BOS,Bulky Items,Closed,Self Service,,N,SLA,01/04/2017 12:00:00 AM,01/04/2017 08:20:00 AM,Y,N,"1446 W 37TH DR, 90018",1446,W,37TH,DR,90018,34.01878494,-118.3018453,"(34.0187849415, -118.301845296)",673,J,1,South Los Angeles APC,8,Marqueece Harris-Dawson,77,EMPOWERMENT CONGRESS NORTH AREA NDC,SOUTHWEST,23079,690,916,7,14,32
1-411044321,12/31/2016 09:34:00 PM,01/05/2017 10:05:00 AM,SR Created,BOS,Electronic Waste,Closed,Call,,N,WV,01/05/2017 12:00:00 AM,01/05/2017 10:05:00 AM,Y,N,"17025 W PARTHENIA ST, 91325",17025,W,PARTHENIA,ST,91325,34.22864047,-118.5037377,"(34.2286404697, -118.503737692)",531,C,1,North Valley APC,12,Mitchell Englander,124,NORTHRIDGE SOUTH NC,DEVONSHIRE,18514,104,1424,,2,65
1-411048221,12/31/2016 09:21:00 PM,01/01/2017 01:15:00 PM,SR Created,BOS,Dead Animal Removal,Closed,Call,,N,SLA,,01/01/2017 01:15:00 PM,Y,N,"2901 S WESTERN AVE, 90018",2901,S,WESTERN,AVE,90018,34.02905208,-118.3090843,"(34.0290520766, -118.309084307)",633,H,7,South Los Angeles APC,10,Herb J. Wesson Jr.,74,"UNITED NEIGHBORHOODS OF THE HISTORIC ARLINGTON HEIGHTS, WEST ADAMS, AND JEFFERSON PARK COMMUNITY",SOUTHWEST,23079,686,919,7,12,19
1-411048871,12/31/2016 09:20:00 PM,01/04/2017 02:29:00 PM,SR Created,BOS,Metal/Household Appliances,Closed,Call,,N,SLA,01/04/2017 12:00:00 AM,01/04/2017 02:29:00 PM,Y,N,"1744 W 42ND PL, 90062",1744,W,42ND,PL,90062,34.00625312,-118.3105145,"(34.0062531245, -118.310514481)",673,H,3,South Los Angeles APC,8,Marqueece Harris-Dawson,81,EMPOWERMENT CONGRESS CENTRAL AREA NDC,SOUTHWEST,24027,732,1023,7,14,35
1-411053631,12/31/2016 09:19:00 PM,01/04/2017 09:10:00 AM,SR Created,BOS,Bulky Items,Closed,Call,,N,SLA,01/04/2017 12:00:00 AM,01/04/2017 09:10:00 AM,Y,N,"1744 W 42ND PL, 90062",1744,W,42ND,PL,90062,34.00625312,-118.3105145,"(34.0062531245, -118.310514481)",673,H,3,South Los Angeles APC,8,Marqueece Harris-Dawson,81,EMPOWERMENT CONGRESS CENTRAL AREA NDC,SOUTHWEST,24027,732,1023,7,14,35
1-411048131,12/31/2016 09:18:00 PM,01/09/2017 08:52:00 AM,SR Created,BOS,Bulky Items,Closed,Self Service,,N,WLA,01/09/2017 12:00:00 AM,01/09/2017 08:52:00 AM,Y,N,"12205 W ALBERTA DR, 90230",12205,W,ALBERTA,DR,90230,33.98578726,-118.4117852,"(33.9857872582, -118.411785204)",672,E,6,West Los Angeles APC,11,Mike Bonin,70,DEL REY NC,PACIFIC,24678,924,1139,10,10,85
1-411053521,12/31/2016 09:17:00 PM,01/02/2017 03:29:00 PM,SR Created,OCB,Graffiti Removal,Closed,Self Service,,N,NEGB_ELA,01/02/2017 03:29:00 PM,01/02/2017 03:29:00 PM,Y,N,"3101 ALTURA ST, 90031",3101,,ALTURA,ST,90031,34.07560774,-118.2088277,"(34.0756077433, -118.208827727)",595,B,7,East Los Angeles APC,1,Gilbert Cedillo,47,LINCOLN HEIGHTS NC,HOLLENBECK,23448,488,516,,11,1
1-411048031,12/31/2016 09:15:00 PM,01/06/2017 03:16:00 PM,SR Created,OCB,Graffiti Removal,Closed,Mobile App,iOS,N,CCAC,01/06/2017 03:16:00 PM,01/06/2017 03:16:00 PM,Y,N,"1215 W WASHINGTON BLVD, 90007",1215,W,WASHINGTON,BLVD,90007,34.03966303,-118.2833305,"(34.0396630296, -118.283330482)",634,B,5,Central APC,1,Gilbert Cedillo,76,PICO UNION NC,RAMPART,22723,697,1521,,11,8
1-411048611,12/31/2016 09:02:00 PM,01/05/2017 08:08:00 AM,SR Created,BOS,Bulky Items,Closed,Mobile App,Android,N,WV,01/05/2017 12:00:00 AM,01/05/2017 08:08:00 AM,Y,,"7012 N ALDEA AVE, 91406",7012,N,ALDEA,AVE,91406,34.19792481,-118.5086819,"(34.1979248066, -118.508681919)",531,C,5,South Valley APC,6,Nury Martinez,19,LAKE BALBOA NC,WEST VALLEY,19734,261,301,,3,61
1-411047826,12/31/2016 09:02:00 PM,01/06/2017 03:39:00 PM,SR Created,BOS,Metal/Household Appliances,Closed,Mobile App,Android,N,NC,01/06/2017 12:00:00 AM,01/06/2017 03:39:00 PM,Y,,"232 S ALEXANDRIA AVE, 90004",232,S,ALEXANDRIA,AVE,90004,34.07017178,-118.2977492,"(34.0701717818, -118.297749222)",633,J,1,Central APC,13,Mitch O'Farrell,55,WILSHIRE CENTER - KOREATOWN NC,OLYMPIC,22721,583,937,,8,89
1-411045371,12/31/2016 08:57:00 PM,01/02/2017 03:41:00 PM,SR Created,OCB,Graffiti Removal,Closed,Self Service,,N,NEGB_ELA,01/02/2017 03:40:00 PM,01/02/2017 03:41:00 PM,Y,N,"HANCOCK ST AT GEORGE ST, 90031",,,,,90031,34.07663143,-118.2091775,"(34.0766314307, -118.209177538)",595,A,7,East Los Angeles APC,1,Gilbert Cedillo,47,LINCOLN HEIGHTS NC,HOLLENBECK,23448,488,516,,11,1
1-411047831,12/31/2016 08:56:00 PM,01/06/2017 01:22:00 PM,SR Created,BOS,Bulky Items,Closed,Self Service,,Y,EV,01/06/2017 12:00:00 AM,01/06/2017 01:22:00 PM,Y,N,"7320 N LENNOX AVE, 91405",7320,N,LENNOX,AVE,91405,34.20336089,-118.446186,"(34.2033608892, -118.446185978)",532,A,4,South Valley APC,2,Paul Krekorian,20,VAN NUYS NC,VAN NUYS,19733,215,458,,5,18
1-411047749,12/31/2016 08:52:00 PM,01/07/2017 02:16:00 PM,SR Created,BOS,Bulky Items,Closed,Mobile App,iOS,Y,EV,01/07/2017 12:00:00 AM,01/07/2017 02:16:00 PM,Y,,"13595 W GAGER ST, 91331",13595,W,GAGER,ST,91331,34.25441696,-118.4293741,"(34.254416961, -118.429374103)",502,C,4,North Valley APC,7,Vacant,7,PACOIMA NC,FOOTHILL,18907,26,408,,1,11
1-411042491,12/31/2016 08:23:00 PM,01/04/2017 09:20:00 AM,SR Created,BOS,Bulky Items,Closed,Mobile App,iOS,Y,WV,01/04/2017 12:00:00 AM,01/04/2017 09:20:00 AM,Y,,"20141 W SHERMAN WAY, 91306",20141,W,SHERMAN,WAY,91306,34.20126618,-118.5725391,"(34.2012661753, -118.572539145)",530,E,5,South Valley APC,3,Bob Blumenfield,14,WINNETKA NC,TOPANGA,4282,290,281,,4,66
1-411044031,12/31/2016 07:52:00 PM,01/07/2017 10:16:00 AM,SR Created,BOS,Bulky Items,Closed,Self Service,,N,NC,01/07/2017 12:00:00 AM,01/07/2017 10:16:00 AM,Y,N,"701 S GRAMERCY DR, 90005",701,S,GRAMERCY,DR,90005,34.05921533,-118.3123656,"(34.0592153257, -118.312365552)",633,H,3,Central APC,4,David Ryu,119,GREATER WILSHIRE NC,OLYMPIC,22722,610,888,,7,86
1-411045221,12/31/2016 07:45:00 PM,01/04/2017 10:17:00 AM,SR Created,OCB,Graffiti Removal,Cancelled,Mobile App,Android,Y,HBT,01/03/2017 10:16:00 AM,01/04/2017 10:17:00 AM,Y,N,"301 N VERMONT AVE, 90004",301,N,VERMONT,AVE,90004,34.0765279,-118.2919452,"(34.0765279026, -118.291945157)",594,A,7,Central APC,13,Mitch O'Farrell,55,WILSHIRE CENTER - KOREATOWN NC,RAMPART,22721,454,455,16,8,89
1-411045161,12/31/2016 07:41:00 PM,01/04/2017 02:34:00 PM,SR Created,BOS,Metal/Household Appliances,Closed,Call,,N,NC,01/04/2017 12:00:00 AM,01/04/2017 02:34:00 PM,Y,N,"5200 E LINCOLN AVE, 90042",5200,E,LINCOLN,AVE,90042,34.11961981,-118.2027391,"(34.1196198077, -118.202739132)",595,B,1,East Los Angeles APC,1,Gilbert Cedillo,41,HISTORIC HIGHLAND PARK NC,NORTHEAST,23673,365,584,,11,93
1-411047571,12/31/2016 07:40:00 PM,01/04/2017 12:35:00 PM,SR Created,BOS,Bulky Items,Closed,Call,,N,NC,01/04/2017 12:00:00 AM,01/04/2017 12:35:00 PM,Y,N,"5200 E LINCOLN AVE, 90042",5200,E,LINCOLN,AVE,90042,34.11961981,-118.2027391,"(34.1196198077, -118.202739132)",595,B,1,East Los Angeles APC,1,Gilbert Cedillo,41,HISTORIC HIGHLAND PARK NC,NORTHEAST,23673,365,584,,11,93
1-411043875,12/31/2016 07:38:00 PM,01/03/2017 09:38:00 AM,SR Created,BOS,Bulky Items,Closed,Mobile App,iOS,N,NC,01/03/2017 12:00:00 AM,01/03/2017 09:38:00 AM,Y,,"4522 N HOMER ST, 90031",4522,N,HOMER,ST,90031,34.09466812,-118.203583,"(34.0946681192, -118.203583024)",595,B,5,East Los Angeles APC,1,Gilbert Cedillo,42,ARROYO SECO NC,HOLLENBECK,23448,490,606,,11,92
1-411045061,12/31/2016 07:33:00 PM,01/10/2017 10:23:00 AM,SR Created,BOS,Other,Cancelled,Mobile App,Android,N,,,01/10/2017 10:23:00 AM,Y,N,"4160 W ROSEWOOD AVE, 90004",4160,W,ROSEWOOD,AVE,90004,34.0788821043,-118.295460383,"(34.0788821043, -118.295460383)",594,A,7,Central APC,13,Mitch O'Farrell,55,WILSHIRE CENTER - KOREATOWN NC,RAMPART,22721,454,455,16,8,89
1-411044962,12/31/2016 07:27:00 PM,01/03/2017 02:42:00 PM,SR Created,OCB,Graffiti Removal,Closed,Mobile App,Android,N,KYCC,01/03/2017 02:42:00 PM,01/03/2017 02:42:00 PM,Y,N,"3801 W 3RD ST, 90020",3801,W,3RD,ST,90020,34.06916092,-118.298317,"(34.069160915, -118.298317026)",633,J,1,Central APC,10,Herb J. Wesson Jr.,55,WILSHIRE CENTER - KOREATOWN NC,OLYMPIC,22721,583,1028,,12,89
1-411044885,12/31/2016 07:26:00 PM,01/03/2017 02:40:00 PM,SR Created,OCB,Graffiti Removal,Closed,Mobile App,Android,N,KYCC,01/03/2017 02:40:00 PM,01/03/2017 02:40:00 PM,Y,N,"3721 W 3RD ST, 90020",3721,W,3RD,ST,90020,34.06915742,-118.2973367,"(34.0691574187, -118.297336727)",633,J,1,Central APC,10,Herb J. Wesson Jr.,55,WILSHIRE CENTER - KOREATOWN NC,OLYMPIC,22721,583,1028,,12,89
1-411040361,12/31/2016 07:24:00 PM,01/01/2017 12:39:00 PM,SR Created,BOS,Dead Animal Removal,Closed,Self Service,,N,NC,,01/01/2017 12:39:00 PM,Y,N,"GRAND AVE AT ALPINE ST, 90012",,,,,90012,34.063516,-118.2434449,"(34.0635159984, -118.243444855)",634,G,2,Central APC,1,Gilbert Cedillo,46,HISTORIC CULTURAL NC,CENTRAL,22728,538,449,,11,28
1-411043731,12/31/2016 07:23:00 PM,01/07/2017 03:32:00 PM,SR Created,BOS,Metal/Household Appliances,Closed,Self Service,,N,EV,01/07/2017 12:00:00 AM,01/07/2017 03:32:00 PM,Y,N,"12867 N COMETA AVE, 91340",12867,N,COMETA,AVE,91340,34.30405355,-118.431423,"(34.3040535475, -118.431423045)",482,B,4,North Valley APC,7,Vacant,5,SYLMAR NC,MISSION,18912,42,285,,1,47
1-411044751,12/31/2016 07:21:00 PM,01/07/2017 01:53:00 PM,SR Created,BOS,Bulky Items,Closed,Self Service,,N,EV,01/07/2017 12:00:00 AM,01/07/2017 01:53:00 PM,Y,N,"12867 N COMETA AVE, 91340",12867,N,COMETA,AVE,91340,34.30405355,-118.431423,"(34.3040535475, -118.431423045)",482,B,4,North Valley APC,7,Vacant,5,SYLMAR NC,MISSION,18912,42,285,,1,47
1-411042191,12/31/2016 07:11:00 PM,01/06/2017 03:53:00 PM,SR Created,BOS,Bulky Items,Closed,Self Service,,Y,WLA,01/06/2017 12:00:00 AM,01/06/2017 03:53:00 PM,Y,Y,"2924 S SELBY AVE, 90064",2924,S,SELBY,AVE,90064,34.03256886,-118.4190736,"(34.0325688625, -118.419073585)",632,E,7,West Los Angeles APC,5,Paul Koretz,62,WESTSIDE NC,WEST LOS ANGELES,24029,888,1251,9,6,75
1-411040111,12/31/2016 07:00:00 PM,01/06/2017 05:22:00 PM,SR Created,OCB,Graffiti Removal,Closed,Self Service,,Y,CCAC,01/06/2017 05:22:00 PM,01/06/2017 05:22:00 PM,Y,N,"1711 W 3RD ST, 90017",1711,W,3RD,ST,90017,34.06117826,-118.2683171,"(34.0611782567, -118.268317054)",634,D,2,Central APC,13,Mitch O'Farrell,97,WESTLAKE NORTH NC,RAMPART,24352,551,942,,8,67
1-411042081,12/31/2016 07:00:00 PM,01/04/2017 03:46:00 PM,SR Created,OCB,Graffiti Removal,Cancelled,Self Service,,Y,CCAC,01/04/2017 03:46:00 PM,01/04/2017 03:46:00 PM,Y,N,"433 S UNION AVE, 90017",433,S,UNION,AVE,90017,34.05907603,-118.2689464,"(34.0590760271, -118.268946423)",634,D,3,Central APC,1,Gilbert Cedillo,97,WESTLAKE NORTH NC,RAMPART,23078,563,836,,11,67
1-411044581,12/31/2016 06:59:00 PM,01/06/2017 05:21:00 PM,SR Created,OCB,Graffiti Removal,Closed,Self Service,,Y,CCAC,01/06/2017 05:21:00 PM,01/06/2017 05:21:00 PM,Y,N,"514 S UNION DR, 90017",514,S,UNION,DR,90017,34.0576174,-118.2682549,"(34.0576174031, -118.268254903)",634,D,3,Central APC,1,Gilbert Cedillo,97,WESTLAKE NORTH NC,RAMPART,23078,564,1047,,11,67
1-411034500,12/31/2016 06:58:00 PM,01/10/2017 10:29:00 AM,SR Created,BOS,Feedback,Cancelled,Mobile App,Android,Y,,,01/10/2017 10:29:00 AM,Y,N,"3RD ST AT NORMANDIE AVE, 90020",,,,,90020,34.06900716,-118.3004006,"(34.0690071622, -118.300400617)",633,J,1,Central APC,10,Herb J. Wesson Jr.,55,WILSHIRE CENTER - KOREATOWN NC,OLYMPIC,23081,592,1028,,12,89
1-411042033,12/31/2016 06:58:00 PM,01/10/2017 10:27:00 AM,SR Created,BOS,Other,Cancelled,Mobile App,Android,Y,,,01/10/2017 10:27:00 AM,Y,N,"3RD ST AT NORMANDIE AVE, 90020",,,,,90020,34.0690071622,-118.300400617,"(34.0690071622, -118.300400617)",633,J,1,Central APC,10,Herb J. Wesson Jr.,55,WILSHIRE CENTER - KOREATOWN NC,OLYMPIC,23081,592,1028,,12,89
1-411034441,12/31/2016 06:55:00 PM,01/12/2017 07:47:00 AM,SR Created,BOS,Illegal Dumping Pickup,Closed,Mobile App,Android,Y,NC,01/06/2017 12:00:00 AM,01/12/2017 07:47:00 AM,Y,N,"NORMANDIE AVE AT 3RD ST, 90020",,,,,90020,34.06900716,-118.3004006,"(34.0690071622, -118.300400617)",633,J,1,Central APC,10,Herb J. Wesson Jr.,55,WILSHIRE CENTER - KOREATOWN NC,OLYMPIC,23081,592,1028,,12,89
1-411041771,12/31/2016 06:55:00 PM,01/06/2017 02:41:00 PM,SR Created,OCB,Graffiti Removal,Closed,Self Service,,Y,CCAC,01/06/2017 02:41:00 PM,01/06/2017 02:41:00 PM,Y,N,"1343 N GLENDALE BLVD, 90026",1343,N,GLENDALE,BLVD,90026,34.07949515,-118.2604842,"(34.0794951524, -118.260484153)",594,E,7,East Los Angeles APC,13,Mitch O'Farrell,44,GREATER ECHO PARK ELYSIAN NC,NORTHEAST,23444,469,254,,8,31
1-411041851,12/31/2016 06:55:00 PM,01/06/2017 02:42:00 PM,SR Created,OCB,Graffiti Removal,Closed,Self Service,,Y,CCAC,01/06/2017 02:42:00 PM,01/06/2017 02:42:00 PM,Y,N,"GLENDALE BLVD AT BRANDEN ST, 90026",,,,,90026,34.08786763,-118.2595862,"(34.0878676308, -118.259586245)",594,E,6,East Los Angeles APC,13,Mitch O'Farrell,44,GREATER ECHO PARK ELYSIAN NC,NORTHEAST,23444,468,542,,8,31
1-411041461,12/31/2016 06:54:00 PM,01/04/2017 04:14:00 PM,SR Created,OCB,Graffiti Removal,Closed,Self Service,,Y,CCAC,01/04/2017 04:14:00 PM,01/04/2017 04:14:00 PM,Y,N,"1154 N GLENDALE BLVD, 90026",1154,N,GLENDALE,BLVD,90026,34.07757818,-118.2605664,"(34.0775781816, -118.260566389)",594,E,7,East Los Angeles APC,13,Mitch O'Farrell,44,GREATER ECHO PARK ELYSIAN NC,RAMPART,23444,482,635,,8,31
1-411041385,12/31/2016 06:53:00 PM,01/05/2017 02:33:00 PM,SR Created,OCB,Graffiti Removal,Closed,Mobile App,Android,Y,KYCC,01/05/2017 02:33:00 PM,01/05/2017 02:33:00 PM,Y,N,"208 S NORMANDIE AVE, 90004",208,S,NORMANDIE,AVE,90004,34.07085692,-118.3002127,"(34.0708569238, -118.30021271)",633,J,1,Central APC,13,Mitch O'Farrell,55,WILSHIRE CENTER - KOREATOWN NC,OLYMPIC,22721,583,937,,8,89
1-411041201,12/31/2016 06:50:00 PM,01/06/2017 04:52:00 PM,SR Created,OCB,Graffiti Removal,Closed,Self Service,,Y,CCAC,01/06/2017 04:52:00 PM,01/06/2017 04:52:00 PM,Y,N,"555 N GLENDALE BLVD, 90026",555,N,GLENDALE,BLVD,90026,34.06930682,-118.2614073,"(34.0693068217, -118.261407289)",634,E,1,East Los Angeles APC,13,Mitch O'Farrell,44,GREATER ECHO PARK ELYSIAN NC,RAMPART,23444,552,930,,8,31
1-411039971,12/31/2016 06:50:00 PM,01/04/2017 05:26:00 PM,SR Created,OCB,Graffiti Removal,Cancelled,Self Service,,Y,OCB,01/04/2017 05:22:00 PM,01/04/2017 05:26:00 PM,Y,N,"LAVETA TER AT GLENDALE BLVD, 90026",,,,,90026,34.06560827,-118.2602981,"(34.0656082686, -118.260298063)",634,E,2,Central APC,13,Mitch O'Farrell,44,GREATER ECHO PARK ELYSIAN NC,RAMPART,23444,550,930,,8,31
1-411040734,12/31/2016 06:45:00 PM,01/09/2017 01:30:00 PM,SR Created,BOS,Illegal Dumping Pickup,Closed,Mobile App,Android,Y,NC,01/06/2017 12:00:00 AM,01/09/2017 01:30:00 PM,Y,N,"NORMANDIE AVE AT 3RD ST, 90020",,,,,90020,34.06900716,-118.3004006,"(34.0690071622, -118.300400617)",633,J,1,Central APC,10,Herb J. Wesson Jr.,55,WILSHIRE CENTER - KOREATOWN NC,OLYMPIC,23081,592,1028,,12,89
1-411039699,12/31/2016 06:43:00 PM,01/05/2017 02:34:00 PM,SR Created,OCB,Graffiti Removal,Closed,Mobile App,Android,Y,KYCC,01/05/2017 02:34:00 PM,01/05/2017 02:34:00 PM,Y,N,"NORMANDIE AVE AT 3RD ST, 90020",,,,,90020,34.06900716,-118.3004006,"(34.0690071622, -118.300400617)",633,J,1,Central APC,10,Herb J. Wesson Jr.,55,WILSHIRE CENTER - KOREATOWN NC,OLYMPIC,23081,592,1028,,12,89
1-411035341,12/31/2016 06:37:00 PM,01/01/2017 10:39:00 AM,SR Created,BOS,Dead Animal Removal,Closed,Call,,N,NC,,01/01/2017 10:39:00 AM,Y,N,"3529 N GRIFFIN AVE, 90031",3529,N,GRIFFIN,AVE,90031,34.08584117,-118.2107278,"(34.0858411727, -118.210727795)",595,A,6,East Los Angeles APC,1,Gilbert Cedillo,42,ARROYO SECO NC,HOLLENBECK,23448,491,618,,11,92
1-411039621,12/31/2016 06:33:00 PM,01/03/2017 11:41:00 AM,SR Created,BOS,Bulky Items,Closed,Mobile App,iOS,N,SLA,01/03/2017 12:00:00 AM,01/03/2017 11:41:00 AM,Y,,"1800 S OXFORD AVE, 90006",1800,S,OXFORD,AVE,90006,34.04118337,-118.3075571,"(34.0411833658, -118.307557072)",633,H,5,South Los Angeles APC,10,Herb J. Wesson Jr.,74,"UNITED NEIGHBORHOODS OF THE HISTORIC ARLINGTON HEIGHTS, WEST ADAMS, AND JEFFERSON PARK COMMUNITY",OLYMPIC,22723,674,906,,12,19
1-411040503,12/31/2016 06:31:00 PM,01/03/2017 11:38:00 AM,SR Created,BOS,Bulky Items,Closed,Mobile App,iOS,N,SLA,01/03/2017 12:00:00 AM,01/03/2017 11:38:00 AM,Y,,"1822 S OXFORD AVE, 90006",1822,S,OXFORD,AVE,90006,34.04049701,-118.3075523,"(34.0404970095, -118.307552328)",633,H,5,South Los Angeles APC,10,Herb J. Wesson Jr.,74,"UNITED NEIGHBORHOODS OF THE HISTORIC ARLINGTON HEIGHTS, WEST ADAMS, AND JEFFERSON PARK COMMUNITY",OLYMPIC,22723,674,906,,12,19
1-411034099,12/31/2016 06:24:00 PM,01/05/2017 11:00:00 AM,SR Created,BOS,Bulky Items,Closed,Mobile App,iOS,N,WV,01/05/2017 12:00:00 AM,01/05/2017 11:00:00 AM,Y,,"16518 W CHATSWORTH ST, 91344",16518,W,CHATSWORTH,ST,91344,34.26455362,-118.4919497,"(34.2645536196, -118.491949673)",501,E,3,North Valley APC,12,Mitchell Englander,118,GRANADA HILLS SOUTH NC,DEVONSHIRE,19329,85,391,,2,79
1-411032319,12/31/2016 06:18:00 PM,01/03/2017 01:58:00 PM,SR Created,BOS,Bulky Items,Closed,Mobile App,iOS,Y,NC,01/03/2017 12:00:00 AM,01/03/2017 01:58:00 PM,Y,,"3839 N PORTOLA AVE, 90032",3839,N,PORTOLA,AVE,90032,34.09009303,-118.1725449,"(34.0900930304, -118.172544851)",595,F,5,East Los Angeles APC,14,Jose Huizar,48,LA-32 NC,HOLLENBECK,23449,497,623,,9,91
1-411030251,12/31/2016 06:10:00 PM,01/05/2017 01:34:00 PM,SR Created,BOS,Bulky Items,Closed,Self Service,,N,HB,01/05/2017 12:00:00 AM,01/05/2017 01:34:00 PM,Y,N,"653 W 22ND ST, 90731",653,W,22ND,ST,90731,33.72414542,-118.2915065,"(33.7241454152, -118.291506452)",824,B,7,Harbor APC,15,Joe Buscaino,96,COASTAL SAN PEDRO NC,HARBOR,3342,981,1248,,15,33
1-411034531,12/31/2016 06:08:00 PM,01/01/2017 08:54:00 AM,SR Created,BOS,Dead Animal Removal,Closed,Call,,N,WV,,01/01/2017 08:54:00 AM,Y,N,"15477 W MOORPARK ST, 91403",15477,W,MOORPARK,ST,91403,34.15607288,-118.4710717,"(34.1560728752, -118.471071655)",561,G,4,South Valley APC,5,Paul Koretz,18,ENCINO NC,WEST VALLEY,19732,338,678,,6,62
1-411033691,12/31/2016 06:05:00 PM,01/07/2017 02:43:00 PM,SR Created,BOS,Electronic Waste,Closed,Call,,N,SLA,01/07/2017 12:00:00 AM,01/07/2017 02:43:00 PM,Y,N,"422 E 106TH ST, 90003",422,E,106TH,ST,90003,33.93999926,-118.2665139,"(33.9399992605, -118.266513895)",704,D,5,South Los Angeles APC,8,Marqueece Harris-Dawson,87,EMPOWERMENT CONGRESS SOUTHEAST AREA NDC,SOUTHEAST,22352,807,359,7,14,45
1-411029321,12/31/2016 06:03:00 PM,01/07/2017 03:56:00 PM,SR Created,BOS,Metal/Household Appliances,Closed,Call,,N,SLA,01/07/2017 12:00:00 AM,01/07/2017 03:56:00 PM,Y,N,"422 E 106TH ST, 90003",422,E,106TH,ST,90003,33.93999926,-118.2665139,"(33.9399992605, -118.266513895)",704,D,5,South Los Angeles APC,8,Marqueece Harris-Dawson,87,EMPOWERMENT CONGRESS SOUTHEAST AREA NDC,SOUTHEAST,22352,807,359,7,14,45
1-411033561,12/31/2016 06:01:00 PM,01/07/2017 07:47:00 AM,SR Created,BOS,Bulky Items,Closed,Call,,N,SLA,01/07/2017 12:00:00 AM,01/07/2017 07:47:00 AM,Y,N,"422 E 106TH ST, 90003",422,E,106TH,ST,90003,33.93999926,-118.2665139,"(33.9399992605, -118.266513895)",704,D,5,South Los Angeles APC,8,Marqueece Harris-Dawson,87,EMPOWERMENT CONGRESS SOUTHEAST AREA NDC,SOUTHEAST,22352,807,359,7,14,45
1-411029861,12/31/2016 05:54:00 PM,01/07/2017 09:19:00 AM,SR Created,BOS,Bulky Items,Closed,Call,,N,SLA,01/07/2017 12:00:00 AM,01/07/2017 09:19:00 AM,Y,N,"422 E 106TH ST, 90003",422,E,106TH,ST,90003,33.93999926,-118.2665139,"(33.9399992605, -118.266513895)",704,D,5,South Los Angeles APC,8,Marqueece Harris-Dawson,87,EMPOWERMENT CONGRESS SOUTHEAST AREA NDC,SOUTHEAST,22352,807,359,7,14,45
1-411028381,12/31/2016 05:33:00 PM,01/04/2017 12:55:00 PM,SR Created,BOS,Bulky Items,Closed,Self Service,,N,WLA,01/04/2017 12:00:00 AM,01/04/2017 12:55:00 PM,Y,N,"565 N OCAMPO DR, 90272",565,N,OCAMPO,DR,90272,34.03855169,-118.5202739,"(34.0385516867, -118.5202739)",631,B,6,West Los Angeles APC,11,Mike Bonin,,,WEST LOS ANGELES,25066,838,1388,,10,
1-411028151,12/31/2016 05:22:00 PM,01/05/2017 07:58:00 AM,SR Created,BOS,Bulky Items,Closed,Call,,N,NC,01/05/2017 12:00:00 AM,01/05/2017 07:58:00 AM,Y,N,"4326 N LATONA AVE, 90031",4326,N,LATONA,AVE,90031,34.09122146,-118.2010274,"(34.0912214622, -118.201027407)",595,B,5,East Los Angeles APC,1,Gilbert Cedillo,42,ARROYO SECO NC,HOLLENBECK,23448,490,606,,11,92
1-411028801,12/31/2016 05:22:00 PM,01/04/2017 01:03:00 PM,SR Created,OCB,Graffiti Removal,Closed,Self Service,,Y,NEGB,12/31/2016 01:01:00 PM,01/04/2017 01:03:00 PM,Y,N,"15000 W TUPPER ST, 91343",15000,W,TUPPER,ST,91343,34.23904498,-118.4589295,"(34.2390449837, -118.458929523)",501,H,6,North Valley APC,7,Vacant,112,NORTH HILLS EAST,MISSION,18914,114,415,,1,73
1-411025491,12/31/2016 05:17:00 PM,01/07/2017 07:52:00 AM,SR Created,BOS,Bulky Items,Closed,Call,,N,WV,01/07/2017 12:00:00 AM,01/07/2017 07:52:00 AM,Y,N,"23034 W ENADIA WAY, 91307",23034,W,ENADIA,WAY,91307,34.19957117,-118.6291693,"(34.1995711667, -118.629169321)",529,G,5,South Valley APC,12,Mitchell Englander,11,WEST HILLS NC,TOPANGA,4283,283,1470,,2,44
1-411026372,12/31/2016 05:09:00 PM,01/04/2017 10:51:00 AM,SR Created,OCB,Graffiti Removal,Closed,Mobile App,Android,N,HBT,01/03/2017 10:50:00 AM,01/04/2017 10:51:00 AM,Y,N,"4401 W MELROSE AVE, 90029",4401,W,MELROSE,AVE,90029,34.0836923,-118.2965128,"(34.083692298, -118.296512805)",593,J,6,Central APC,13,Mitch O'Farrell,34,EAST HOLLYWOOD NC,RAMPART,23447,437,730,16,8,58
1-411026422,12/31/2016 05:08:00 PM,01/03/2017 12:49:00 PM,SR Created,BOS,Bulky Items,Closed,Mobile App,iOS,N,WV,01/03/2017 12:00:00 AM,01/03/2017 12:49:00 PM,Y,,"7419 N RESEDA BLVD, 91335",7419,N,RESEDA,BLVD,91335,34.20535405,-118.5362913,"(34.2053540517, -118.536291321)",530,J,4,South Valley APC,3,Bob Blumenfield,15,RESEDA NC,WEST VALLEY,18909,250,278,,4,12
1-411027791,12/31/2016 05:05:00 PM,01/03/2017 08:44:00 AM,SR Created,BOS,Bulky Items,Closed,Self Service,,N,SLA,01/03/2017 12:00:00 AM,01/03/2017 08:44:00 AM,Y,N,"2934 S KENWOOD AVE, 90007",2934,S,KENWOOD,AVE,90007,34.02811502,-118.2990398,"(34.0281150239, -118.29903984)",633,J,7,South Los Angeles APC,8,Marqueece Harris-Dawson,77,EMPOWERMENT CONGRESS NORTH AREA NDC,SOUTHWEST,22724,688,910,7,14,32
1-411028551,12/31/2016 05:04:00 PM,01/03/2017 02:57:00 PM,SR Created,BOS,Metal/Household Appliances,Closed,Mobile App,iOS,N,WLA,01/03/2017 12:00:00 AM,01/03/2017 02:57:00 PM,Y,,"12736 W MITCHELL AVE, 90066",12736,W,MITCHELL,AVE,90066,33.99731647,-118.4364504,"(33.9973164678, -118.436450393)",672,C,5,West Los Angeles APC,11,Mike Bonin,67,MAR VISTA CC,PACIFIC,24031,902,1131,10,10,27
1-411025311,12/31/2016 05:03:00 PM,12/07/2017 01:45:00 PM,SR Created,OCB,Graffiti Removal,Cancelled,Self Service,,Y,GAP,12/07/2017 01:44:00 PM,12/07/2017 01:45:00 PM,Y,N,"5242 W ADAMS BLVD, 90016",5242,W,ADAMS,BLVD,90016,34.03226396,-118.3570528,"(34.0322639581, -118.357052779)",633,C,7,South Los Angeles APC,10,Herb J. Wesson Jr.,75,WEST ADAMS NC,SOUTHWEST,23077,666,986,,12,17
1-411025181,12/31/2016 05:00:00 PM,01/04/2017 11:44:00 AM,SR Created,BOS,Bulky Items,Closed,Call,,N,WV,01/04/2017 12:00:00 AM,01/04/2017 11:44:00 AM,Y,N,"19408 W CALVERT ST, 91335",19408,W,CALVERT,ST,91335,34.18250057,-118.5561478,"(34.1825005727, -118.556147799)",530,F,7,South Valley APC,3,Bob Blumenfield,17,TARZANA NC,WEST VALLEY,18909,292,313,,4,10
1-411024451,12/31/2016 04:59:00 PM,01/04/2017 03:58:00 PM,SR Created,BOS,Metal/Household Appliances,Closed,Call,,N,WV,01/04/2017 12:00:00 AM,01/04/2017 03:58:00 PM,Y,N,"19408 W CALVERT ST, 91335",19408,W,CALVERT,ST,91335,34.18250057,-118.5561478,"(34.1825005727, -118.556147799)",530,F,7,South Valley APC,3,Bob Blumenfield,17,TARZANA NC,WEST VALLEY,18909,292,313,,4,10
1-411025091,12/31/2016 04:58:00 PM,01/02/2017 07:47:00 PM,SR Created,BOS,Metal/Household Appliances,Cancelled,Call,,N,EV,01/03/2017 12:00:00 AM,01/02/2017 07:47:00 PM,Y,N,"13725 N GAVINA AVE, 91342",13725,N,GAVINA,AVE,91342,34.32186737,-118.4061914,"(34.3218673679, -118.406191367)",482,E,2,North Valley APC,7,Vacant,5,SYLMAR NC,MISSION,18912,39,368,,1,47
1-411027511,12/31/2016 04:58:00 PM,01/04/2017 09:21:00 AM,SR Created,BOS,Bulky Items,Closed,Call,,N,WV,01/04/2017 12:00:00 AM,01/04/2017 09:21:00 AM,Y,N,"19408 W CALVERT ST, 91335",19408,W,CALVERT,ST,91335,34.18250057,-118.5561478,"(34.1825005727, -118.556147799)",530,F,7,South Valley APC,3,Bob Blumenfield,17,TARZANA NC,WEST VALLEY,18909,292,313,,4,10
1-411024265,12/31/2016 04:55:00 PM,01/04/2017 11:38:00 AM,SR Created,OCB,Graffiti Removal,Closed,Mobile App,Android,N,HBT,01/03/2017 11:38:00 AM,01/04/2017 11:38:00 AM,Y,N,"5220 W SANTA MONICA BLVD, 90029",5220,W,SANTA MONICA,BLVD,90029,34.09064841,-118.3040501,"(34.0906484133, -118.304050073)",593,J,5,Central APC,13,Mitch O'Farrell,34,EAST HOLLYWOOD NC,HOLLYWOOD,23447,439,929,,8,58
1-411026074,12/31/2016 04:54:00 PM,01/04/2017 11:42:00 AM,SR Created,OCB,Graffiti Removal,Closed,Mobile App,Android,N,HBT,01/03/2017 11:41:00 AM,01/04/2017 11:42:00 AM,Y,N,"5230 W SANTA MONICA BLVD, 90029",5230,W,SANTA MONICA,BLVD,90029,34.09065121,-118.3044363,"(34.0906512149, -118.304436282)",593,J,5,Central APC,13,Mitch O'Farrell,34,EAST HOLLYWOOD NC,HOLLYWOOD,23447,439,929,,8,58
1-411023381,12/31/2016 04:53:00 PM,01/03/2017 07:29:00 AM,SR Created,OCB,Graffiti Removal,Cancelled,Self Service,,N,GAP,01/02/2017 07:27:00 AM,01/03/2017 07:29:00 AM,Y,N,"1236 W DENNI ST, 90744",1236,W,DENNI,ST,90744,33.78402083,-118.2792864,"(33.7840208322, -118.279286392)",794,C,6,Harbor APC,15,Joe Buscaino,93,WILMINGTON NC,HARBOR,3350,956,1201,,15,15
1-411023321,12/31/2016 04:52:00 PM,01/03/2017 02:28:00 PM,SR Created,BOS,Metal/Household Appliances,Closed,Call,,N,SLA,01/03/2017 12:00:00 AM,01/03/2017 02:28:00 PM,Y,N,"2175 W 26TH PL, 90018",2175,W,26TH,PL,90018,34.03185269,-118.3141251,"(34.0318526914, -118.314125094)",633,H,7,South Los Angeles APC,10,Herb J. Wesson Jr.,74,"UNITED NEIGHBORHOODS OF THE HISTORIC ARLINGTON HEIGHTS, WEST ADAMS, AND JEFFERSON PARK COMMUNITY",SOUTHWEST,23079,677,902,7,12,19
1-411024891,12/31/2016 04:50:00 PM,01/03/2017 07:23:00 AM,SR Created,OCB,Graffiti Removal,Closed,Self Service,,N,GAP,01/02/2017 07:23:00 AM,01/03/2017 07:23:00 AM,Y,N,"1205 W GRANT ST, 90744",1205,W,GRANT,ST,90744,33.78328142,-118.2784777,"(33.7832814169, -118.278477677)",794,C,6,Harbor APC,15,Joe Buscaino,93,WILMINGTON NC,HARBOR,3350,956,1201,,15,15
1-411026001,12/31/2016 04:49:00 PM,01/06/2017 12:18:00 PM,SR Created,BOS,Bulky Items,Closed,Mobile App,iOS,Y,WV,01/06/2017 12:00:00 AM,01/06/2017 12:18:00 PM,Y,,"6731 N WILBUR AVE, 91335",6731,N,WILBUR,AVE,91335,34.19276994,-118.5450545,"(34.1927699431, -118.545054454)",530,H,6,South Valley APC,3,Bob Blumenfield,15,RESEDA NC,WEST VALLEY,18909,266,309,,4,12
1-411023961,12/31/2016 04:47:00 PM,01/03/2017 07:26:00 AM,SR Created,OCB,Graffiti Removal,Closed,Self Service,,N,GAP,01/02/2017 07:26:00 AM,01/03/2017 07:26:00 AM,Y,N,"1308 W DENNI ST, 90744",1308,W,DENNI,ST,90744,33.78403974,-118.2800751,"(33.7840397412, -118.280075132)",794,C,6,Harbor APC,15,Joe Buscaino,93,WILMINGTON NC,HARBOR,3350,956,1201,,15,15
1-411024721,12/31/2016 04:47:00 PM,01/05/2017 08:55:00 AM,SR Created,BOS,Bulky Items,Closed,Self Service,,N,WV,01/05/2017 12:00:00 AM,01/05/2017 08:55:00 AM,Y,N,"18429 W PRAIRIE ST, 91325",18429,W,PRAIRIE,ST,91325,34.23921833,-118.5349416,"(34.2392183269, -118.534941643)",500,J,6,North Valley APC,12,Mitchell Englander,120,NORTHRIDGE EAST,DEVONSHIRE,18514,107,939,,2,87
1-411025751,12/31/2016 04:46:00 PM,01/13/2017 08:43:00 AM,SR Created,OCB,Graffiti Removal,Closed,Self Service,,N,GAP,01/11/2017 08:42:00 AM,01/13/2017 08:43:00 AM,Y,N,"1044 N FIGUEROA ST, 90744",1044,N,FIGUEROA,ST,90744,33.78355924,-118.2802271,"(33.7835592427, -118.28022708)",794,C,6,Harbor APC,15,Joe Buscaino,93,WILMINGTON NC,HARBOR,3350,956,1201,,15,15
1-411025671,12/31/2016 04:46:00 PM,01/02/2017 05:43:00 PM,SR Created,OCB,Graffiti Removal,Closed,Self Service,,Y,NEGB_ELA,01/02/2017 05:43:00 PM,01/02/2017 05:43:00 PM,Y,N,"5751 E BENNER ST, 90042",5751,E,BENNER,ST,90042,34.10742398,-118.1905828,"(34.1074239789, -118.190582834)",595,D,3,East Los Angeles APC,1,Gilbert Cedillo,41,HISTORIC HIGHLAND PARK NC,NORTHEAST,23673,372,1022,,11,93
1-411024571,12/31/2016 04:45:00 PM,01/25/2017 10:49:00 AM,SR Created,BSL,Single Streetlight Issue,Closed,Mobile App,iOS,N,SOUTH,01/25/2017 12:00:00 AM,01/25/2017 10:54:00 AM,Y,,"2008 W VERNON AVE, 90062",2008,W,VERNON,AVE,90062,34.00363241,-118.3164076,"(34.00363241, -118.31640757)",673,G,3,South Los Angeles APC,8,Marqueece Harris-Dawson,81,EMPOWERMENT CONGRESS CENTRAL AREA NDC,77TH STREET,24027,742,1044,7,14,35
1-411023081,12/31/2016 04:44:00 PM,01/07/2017 01:47:00 PM,SR Created,BOS,Bulky Items,Closed,Call,,N,EV,01/07/2017 12:00:00 AM,01/07/2017 01:47:00 PM,Y,N,"14828 W CHATSWORTH DR, 91345",14828,W,CHATSWORTH,DR,91345,34.26856536,-118.4557288,"(34.2685653568, -118.455728752)",501,J,2,North Valley APC,7,Vacant,101,MISSION HILLS NC,MISSION,19330,70,380,,1,4
1-411022991,12/31/2016 04:44:00 PM,01/02/2017 05:23:00 PM,SR Created,OCB,Graffiti Removal,Cancelled,Self Service,,N,NEGB_ELA,01/02/2017 05:23:00 PM,01/02/2017 05:23:00 PM,Y,N,"YOSEMITE DR AT ROSEMARY DR, 90041",,,,,90041,34.13369609,-118.2078038,"(34.1336960935, -118.207803788)",565,A,6,East Los Angeles APC,14,Jose Huizar,40,EAGLE ROCK NC,NORTHEAST,23672,358,401,,9,60
1-411017441,12/31/2016 04:42:00 PM,01/02/2017 05:41:00 PM,SR Created,OCB,Graffiti Removal,Cancelled,Self Service,,Y,NEGB_ELA,01/02/2017 05:41:00 PM,01/02/2017 05:41:00 PM,Y,N,"5947 E BENNER ST, 90042",5947,E,BENNER,ST,90042,34.10800084,-118.1876117,"(34.1080008437, -118.187611662)",595,D,3,East Los Angeles APC,1,Gilbert Cedillo,41,HISTORIC HIGHLAND PARK NC,NORTHEAST,23673,372,1022,,11,93
1-411018351,12/31/2016 04:40:00 PM,01/03/2017 01:21:00 PM,SR Created,OCB,Graffiti Removal,Closed,Self Service,,Y,PGS,01/02/2017 01:29:00 PM,01/03/2017 01:21:00 PM,Y,N,"MANNING AVE AT OLYMPIC BLVD, 90025",,,,,90025,34.04706014,-118.4264374,"(34.0470601449, -118.426437409)",632,D,5,West Los Angeles APC,5,Paul Koretz,62,WESTSIDE NC,WEST LOS ANGELES,24029,859,743,9,6,75
1-411017241,12/31/2016 04:39:00 PM,01/05/2017 06:43:00 PM,SR Created,OCB,Graffiti Removal,Closed,Self Service,,N,WVA,01/05/2017 09:35:00 AM,01/05/2017 06:43:00 PM,Y,N,"9534 N RESEDA BLVD, 91324",9534,N,RESEDA,BLVD,91324,34.2438842,-118.5359109,"(34.2438841986, -118.535910889)",500,J,6,North Valley APC,12,Mitchell Englander,120,NORTHRIDGE EAST,DEVONSHIRE,18514,107,250,,2,87
1-411022331,12/31/2016 04:36:00 PM,01/03/2017 05:56:00 PM,SR Created,OCB,Graffiti Removal,Closed,Self Service,,N,WVA,01/03/2017 09:17:00 AM,01/03/2017 05:56:00 PM,Y,N,"9150 N RESEDA BLVD, 91324",9150,N,RESEDA,BLVD,91324,34.23634807,-118.5359243,"(34.2363480719, -118.535924297)",500,J,7,North Valley APC,12,Mitchell Englander,120,NORTHRIDGE EAST,DEVONSHIRE,18514,108,939,,2,87
1-411018161,12/31/2016 04:35:00 PM,01/22/2017 11:28:00 PM,SR Created,BSL,Single Streetlight Issue,Closed,Self Service,,N,NORTH,01/09/2017 12:00:00 AM,01/22/2017 11:28:00 PM,Y,Y,"14857 W GREENLEAF ST, 91403",14857,W,GREENLEAF,ST,91403,34.14983964,-118.4576728,"(34.14983964, -118.457672819999)",561,J,5,South Valley APC,4,David Ryu,26,SHERMAN OAKS NC,VAN NUYS,19732,335,565,,7,83
1-411017121,12/31/2016 04:32:00 PM,01/03/2017 05:55:00 PM,SR Created,OCB,Graffiti Removal,Closed,Self Service,,N,WVA,01/03/2017 08:55:00 AM,01/03/2017 05:55:00 PM,Y,N,"LASSEN ST AT WHITE OAK AVE, 91325",,,,,91325,34.25035915,-118.5198839,"(34.2503591493, -118.519883945)",501,A,5,North Valley APC,12,Mitchell Englander,120,NORTHRIDGE EAST,DEVONSHIRE,18514,106,497,,2,87
1-411022171,12/31/2016 04:30:00 PM,01/05/2017 06:40:00 PM,SR Created,OCB,Graffiti Removal,Cancelled,Self Service,,N,WVA,01/05/2017 11:55:00 AM,01/05/2017 06:40:00 PM,Y,N,"9846 N WHITE OAK AVE, 91325",9846,N,WHITE OAK,AVE,91325,34.24988064,-118.5197024,"(34.2498806434, -118.519702416)",501,B,5,North Valley APC,12,Mitchell Englander,120,NORTHRIDGE EAST,DEVONSHIRE,18514,104,1535,,2,87
1-411017831,12/31/2016 04:28:00 PM,12/31/2016 04:29:00 PM,SR Created,BOS,Bulky Items,Closed,Call,,Y,EV,01/06/2017 12:00:00 AM,12/31/2016 04:29:00 PM,Y,N,"14225 W SYLVAN ST, 91401",14225,W,SYLVAN,ST,91401,34.18478312,-118.4431022,"(34.184783119, -118.443102203)",532,A,7,South Valley APC,6,Nury Martinez,20,VAN NUYS NC,VAN NUYS,19729,237,1338,,3,18
1-411016481,12/31/2016 04:28:00 PM,01/04/2017 11:53:00 AM,SR Created,BOS,Bulky Items,Closed,Call,,N,WV,01/04/2017 12:00:00 AM,01/04/2017 11:53:00 AM,Y,N,"10750 N MELVIN AVE, 91326",10750,N,MELVIN,AVE,91326,34.26611177,-118.5599285,"(34.2661117732, -118.559928545)",500,F,3,North Valley APC,12,Mitchell Englander,113,NORTHRIDGE WEST,DEVONSHIRE,18905,87,225,,2,77
1-411021871,12/31/2016 04:26:00 PM,01/01/2017 07:21:00 AM,SR Created,BOS,Dead Animal Removal,Closed,Call,,N,WLA,,01/01/2017 07:21:00 AM,Y,N,"SAWTELLE BLVD AT GRAHAM PL, 90064",,,,,90064,34.03048136,-118.4348243,"(34.0304813551, -118.434824318)",632,C,7,West Los Angeles APC,11,Mike Bonin,67,MAR VISTA CC,PACIFIC,24029,890,839,9,10,27
1-411016811,12/31/2016 04:26:00 PM,12/31/2016 04:30:00 PM,SR Created,BOS,Bulky Items,Closed,Call,,Y,EV,01/06/2017 12:00:00 AM,12/31/2016 04:30:00 PM,Y,N,"14233 W SYLVAN ST, 91401",14233,W,SYLVAN,ST,91401,34.18478382,-118.4433138,"(34.1847838222, -118.443313823)",532,A,7,South Valley APC,6,Nury Martinez,20,VAN NUYS NC,VAN NUYS,19729,237,1338,,3,18
1-411016301,12/31/2016 04:26:00 PM,02/06/2017 10:59:00 AM,SR Created,BSL,Single Streetlight Issue,Closed,Self Service,,N,CENTRAL,02/04/2017 12:00:00 AM,02/15/2017 10:10:00 PM,Y,Y,"114 S MAIN ST, 90012",114,S,MAIN,ST,90012,34.05176969,-118.2436986,"(34.05176969, -118.243698639999)",634,G,4,Central APC,14,Jose Huizar,52,DOWNTOWN LOS ANGELES,CENTRAL,22728,543,1502,,9,76
1-411021761,12/31/2016 04:25:00 PM,12/31/2016 04:31:00 PM,SR Created,BOS,Bulky Items,Closed,Call,,Y,EV,01/06/2017 12:00:00 AM,12/31/2016 04:31:00 PM,Y,N,"14223 W SYLVAN ST, 91401",14223,W,SYLVAN,ST,91401,34.18478456,-118.4429841,"(34.1847845625, -118.442984054)",532,A,7,South Valley APC,6,Nury Martinez,20,VAN NUYS NC,VAN NUYS,19729,237,1338,,3,18
1-411021516,12/31/2016 04:21:00 PM,01/04/2017 11:40:00 AM,SR Created,OCB,Graffiti Removal,Closed,Mobile App,Android,N,HBT,01/03/2017 11:39:00 AM,01/04/2017 11:40:00 AM,Y,N,"4959 W SANTA MONICA BLVD, 90029",4959,W,SANTA MONICA,BLVD,90029,34.09096553,-118.2978841,"(34.0909655328, -118.297884119)",593,J,5,Central APC,13,Mitch O'Farrell,34,EAST HOLLYWOOD NC,NORTHEAST,23447,432,460,,8,58
1-411013340,12/31/2016 04:21:00 PM,01/06/2017 01:15:00 PM,SR Created,BOS,Bulky Items,Closed,Mobile App,Android,N,NC,01/06/2017 12:00:00 AM,01/06/2017 01:15:00 PM,Y,,"620 N HELIOTROPE DR, 90004",620,N,HELIOTROPE,DR,90004,34.08145329,-118.2951711,"(34.0814532879, -118.295171074)",594,A,7,Central APC,13,Mitch O'Farrell,55,WILSHIRE CENTER - KOREATOWN NC,RAMPART,22721,453,507,16,8,89
1-411016571,12/31/2016 04:20:00 PM,12/31/2016 04:40:00 PM,SR Created,BOS,Bulky Items,Closed,Call,,Y,EV,01/06/2017 12:00:00 AM,12/31/2016 04:40:00 PM,Y,N,"14648 W SYLVAN ST, 91411",14648,W,SYLVAN,ST,91411,34.1844746,-118.4525737,"(34.1844745981, -118.452573682)",531,J,7,South Valley APC,6,Nury Martinez,20,VAN NUYS NC,VAN NUYS,19735,240,1339,,3,18
1-411015151,12/31/2016 04:16:00 PM,01/03/2017 08:39:00 AM,SR Created,BOS,Metal/Household Appliances,Closed,Call,,N,WV,01/03/2017 12:00:00 AM,01/03/2017 08:39:00 AM,Y,N,"8817 N DARBY AVE, 91325",8817,N,DARBY,AVE,91325,34.23127803,-118.5337518,"(34.2312780258, -118.533751844)",530,J,1,North Valley APC,12,Mitchell Englander,124,NORTHRIDGE SOUTH NC,DEVONSHIRE,18514,108,1539,,2,65
1-411013261,12/31/2016 04:16:00 PM,01/10/2017 02:05:00 PM,SR Created,BOS,Bulky Items,Closed,Call,,N,EV,01/10/2017 12:00:00 AM,01/10/2017 02:05:00 PM,Y,N,"5329 N VANTAGE AVE, 91607",5329,N,VANTAGE,AVE,91607,34.16765379,-118.3983251,"(34.167653789, -118.398325056)",562,G,2,South Valley APC,2,Paul Krekorian,25,NC VALLEY VILLAGE,NORTH HOLLYWOOD,8890,205,637,17,5,39
1-411014091,12/31/2016 04:14:00 PM,01/03/2017 10:14:00 AM,SR Created,BOS,Bulky Items,Closed,Call,,N,WV,01/03/2017 12:00:00 AM,01/03/2017 10:14:00 AM,Y,N,"8817 N DARBY AVE, 91325",8817,N,DARBY,AVE,91325,34.23127803,-118.5337518,"(34.2312780258, -118.533751844)",530,J,1,North Valley APC,12,Mitchell Englander,124,NORTHRIDGE SOUTH NC,DEVONSHIRE,18514,108,1539,,2,65
1-411014961,12/31/2016 04:14:00 PM,12/31/2016 04:15:00 PM,SR Created,BOS,Bulky Items,Closed,Call,,Y,EV,01/06/2017 12:00:00 AM,12/31/2016 04:15:00 PM,Y,N,"14655 W SYLVAN ST, 91411",14655,W,SYLVAN,ST,91411,34.18481219,-118.4528014,"(34.1848121943, -118.452801359)",531,J,7,South Valley APC,6,Nury Martinez,20,VAN NUYS NC,VAN NUYS,19735,240,1339,,3,18
1-411014021,12/31/2016 04:14:00 PM,01/04/2017 08:14:00 AM,SR Created,BOS,Bulky Items,Closed,Call,,N,NC,01/04/2017 12:00:00 AM,01/04/2017 08:14:00 AM,Y,N,"6212 E HILLANDALE DR, 90042",6212,E,HILLANDALE,DR,90042,34.12656109,-118.1837604,"(34.126561091, -118.183760422)",565,D,7,East Los Angeles APC,14,Jose Huizar,41,HISTORIC HIGHLAND PARK NC,NORTHEAST,23673,359,437,,9,93
1-411013881,12/31/2016 04:11:00 PM,01/05/2017 10:24:00 AM,SR Created,BOS,Bulky Items,Closed,Self Service,,N,NC,01/05/2017 12:00:00 AM,01/05/2017 10:24:00 AM,Y,N,"1818 W SANTA YNEZ ST, 90026",1818,W,SANTA YNEZ,ST,90026,34.07430983,-118.2624612,"(34.0743098254, -118.262461204)",634,D,1,East Los Angeles APC,13,Mitch O'Farrell,44,GREATER ECHO PARK ELYSIAN NC,RAMPART,23444,471,635,,8,31
1-411015601,12/31/2016 04:09:00 PM,12/31/2016 04:16:00 PM,SR Created,BOS,Bulky Items,Closed,Call,,Y,EV,01/06/2017 12:00:00 AM,12/31/2016 04:16:00 PM,Y,N,"14733 W SYLVAN ST, 91411",14733,W,SYLVAN,ST,91411,34.18480915,-118.4542728,"(34.1848091531, -118.454272828)",531,J,7,South Valley APC,6,Nury Martinez,20,VAN NUYS NC,VAN NUYS,19735,239,1339,,3,18
1-411013686,12/31/2016 04:08:00 PM,01/06/2017 10:04:00 AM,SR Created,OCB,Graffiti Removal,Cancelled,Mobile App,Android,Y,GAPBH,01/02/2017 10:04:00 AM,01/06/2017 10:04:00 AM,Y,N,"JUDSON ST AT CORNWELL ST, 90033",,,,,90033,34.0522798,-118.2068115,"(34.0522798005, -118.206811505)",635,B,4,East Los Angeles APC,14,Jose Huizar,50,BOYLE HEIGHTS NC,HOLLENBECK,23450,512,509,,9,38
1-411010481,12/31/2016 04:07:00 PM,12/31/2016 04:16:00 PM,SR Created,BOS,Bulky Items,Closed,Call,,Y,EV,01/06/2017 12:00:00 AM,12/31/2016 04:16:00 PM,Y,N,"14822 W SYLVAN ST, 91411",14822,W,SYLVAN,ST,91411,34.18446327,-118.4562586,"(34.1844632697, -118.45625861)",531,J,7,South Valley APC,6,Nury Martinez,20,VAN NUYS NC,VAN NUYS,19735,239,1339,,3,18
1-411014591,12/31/2016 04:03:00 PM,12/31/2016 04:17:00 PM,SR Created,BOS,Bulky Items,Closed,Call,,Y,EV,01/06/2017 12:00:00 AM,12/31/2016 04:17:00 PM,Y,N,"14839 W SYLVAN ST, 91411",14839,W,SYLVAN,ST,91411,34.18480259,-118.4567426,"(34.1848025923, -118.456742604)",531,J,7,South Valley APC,6,Nury Martinez,20,VAN NUYS NC,VAN NUYS,19735,239,1339,,3,18
1-411014511,12/31/2016 04:02:00 PM,12/31/2016 04:17:00 PM,SR Created,BOS,Bulky Items,Closed,Call,,Y,EV,01/06/2017 12:00:00 AM,12/31/2016 04:17:00 PM,Y,N,"14839 W SYLVAN ST, 91411",14839,W,SYLVAN,ST,91411,34.18480259,-118.4567426,"(34.1848025923, -118.456742604)",531,J,7,South Valley APC,6,Nury Martinez,20,VAN NUYS NC,VAN NUYS,19735,239,1339,,3,18
1-411011624,12/31/2016 03:58:00 PM,01/07/2017 11:39:00 AM,SR Created,BOS,Bulky Items,Closed,Mobile App,Android,N,NC,01/07/2017 12:00:00 AM,01/07/2017 11:39:00 AM,Y,,"1351 N ORANGE DR, 90028",1351,N,ORANGE,DR,90028,34.09572009,-118.3417353,"(34.0957200889, -118.341735298)",593,D,5,Central APC,4,David Ryu,32,CENTRAL HOLLYWOOD NC,HOLLYWOOD,23446,414,974,,7,34
1-411004611,12/31/2016 03:56:00 PM,01/10/2017 04:09:00 PM,SR Created,BOS,Illegal Dumping Pickup,Closed,Self Service,,N,NC,01/10/2017 12:00:00 AM,01/10/2017 04:09:00 PM,Y,N,"AVENUE 43 AT CARLOTA BLVD, 90031",,,,,90031,34.09344223,-118.2066508,"(34.0934422329, -118.206650809)",595,B,5,East Los Angeles APC,1,Gilbert Cedillo,42,ARROYO SECO NC,NORTHEAST,23448,491,602,,11,92
1-411000401,12/31/2016 03:51:00 PM,01/04/2017 02:43:00 PM,SR Created,BOS,Bulky Items,Closed,Call,,N,WLA,01/04/2017 12:00:00 AM,01/04/2017 02:43:00 PM,Y,N,"633 S BARRINGTON AVE, 90049",633,S,BARRINGTON,AVE,90049,34.05640025,-118.468055,"(34.0564002504, -118.468055007)",631,H,3,West Los Angeles APC,11,Mike Bonin,,,WEST LOS ANGELES,23680,841,755,9,10,
1-411003211,12/31/2016 03:50:00 PM,01/05/2017 08:04:00 AM,SR Created,BOS,Metal/Household Appliances,Closed,Self Service,,N,NC,01/05/2017 12:00:00 AM,01/05/2017 08:04:00 AM,Y,N,"2242 W MARICOPA DR, 90065",2242,W,MARICOPA,DR,90065,34.1109216,-118.2248739,"(34.1109216041, -118.224873907)",594,J,2,East Los Angeles APC,1,Gilbert Cedillo,39,GLASSELL PARK NC,NORTHEAST,24030,387,1431,13,11,56
1-411003091,12/31/2016 03:50:00 PM,01/01/2017 01:15:00 PM,SR Created,BOS,Dead Animal Removal,Closed,Call,,N,SLA,,01/01/2017 01:15:00 PM,Y,N,"1724 W 42ND PL, 90062",1724,W,42ND,PL,90062,34.00625303,-118.3098975,"(34.00625303, -118.309897467)",673,H,3,South Los Angeles APC,8,Marqueece Harris-Dawson,81,EMPOWERMENT CONGRESS CENTRAL AREA NDC,SOUTHWEST,24027,732,1023,7,14,35
1-411001411,12/31/2016 03:50:00 PM,01/04/2017 11:43:00 AM,SR Created,BOS,Bulky Items,Closed,Call,,N,WV,01/04/2017 12:00:00 AM,01/04/2017 11:43:00 AM,Y,N,"8463 S DE SOTO AVE, 91304",8463,S,DE SOTO,AVE,91304,34.22402314,-118.5889044,"(34.2240231369, -118.588904449)",530,C,2,North Valley APC,3,Bob Blumenfield,13,CANOGA PARK NC,TOPANGA,4279,94,1457,,4,37
1-411001251,12/31/2016 03:49:00 PM,01/04/2017 02:56:00 PM,SR Created,BOS,Electronic Waste,Closed,Call,,N,WLA,01/04/2017 12:00:00 AM,01/04/2017 02:56:00 PM,Y,N,"633 S BARRINGTON AVE, 90049",633,S,BARRINGTON,AVE,90049,34.05640025,-118.468055,"(34.0564002504, -118.468055007)",631,H,3,West Los Angeles APC,11,Mike Bonin,,,WEST LOS ANGELES,23680,841,755,9,10,
1-411000141,12/31/2016 03:45:00 PM,01/03/2017 11:51:00 AM,SR Created,BOS,Bulky Items,Closed,Call,,Y,WV,01/03/2017 12:00:00 AM,01/03/2017 11:51:00 AM,Y,N,"6849 N BECKFORD AVE, 91335",6849,N,BECKFORD,AVE,91335,34.19523555,-118.551592,"(34.1952355503, -118.551591985)",530,G,6,South Valley APC,3,Bob Blumenfield,15,RESEDA NC,WEST VALLEY,18909,265,310,,4,12
1-410999401,12/31/2016 03:45:00 PM,01/04/2017 09:51:00 AM,SR Created,BOS,Bulky Items,Closed,Call,,Y,WV,01/04/2017 12:00:00 AM,01/04/2017 09:51:00 AM,Y,N,"10030 N OWENSMOUTH AVE, 91311",10030,N,OWENSMOUTH,AVE,91311,34.25284258,-118.6015787,"(34.2528425781, -118.601578729)",500,A,5,North Valley APC,12,Mitchell Englander,99,CHATSWORTH NC,DEVONSHIRE,4284,90,231,,2,43
1-411002781,12/31/2016 03:44:00 PM,01/06/2017 12:32:00 PM,SR Created,OCB,Graffiti Removal,Closed,Mobile App,iOS,N,CRCD,01/06/2017 12:32:00 PM,01/06/2017 12:32:00 PM,Y,N,"24TH ST AT MAIN ST, 90011",,,,,90011,34.02657586,-118.2676039,"(34.0265758636, -118.267603943)",634,D,7,South Los Angeles APC,9,Curren D. Price Jr.,78,SOUTH CENTRAL NC,NEWTON,22724,694,660,7,13,6
1-411000021,12/31/2016 03:43:00 PM,01/04/2017 08:55:00 AM,SR Created,BOS,Bulky Items,Closed,Self Service,,Y,NC,01/04/2017 12:00:00 AM,01/04/2017 08:55:00 AM,Y,N,"1505 W COLORADO BLVD, 90041",1505,W,COLORADO,BLVD,90041,34.13942508,-118.1984705,"(34.1394250819, -118.198470513)",565,C,5,East Los Angeles APC,14,Jose Huizar,40,EAGLE ROCK NC,NORTHEAST,23672,354,1438,30,9,60
1-410999201,12/31/2016 03:41:00 PM,01/03/2017 09:44:00 AM,SR Created,BOS,Bulky Items,Closed,Call,,N,WV,01/03/2017 12:00:00 AM,01/03/2017 09:44:00 AM,Y,N,"8039 N RESEDA BLVD, 91335",8039,N,RESEDA,BLVD,91335,34.21655505,-118.5363219,"(34.2165550505, -118.536321934)",530,J,3,South Valley APC,12,Mitchell Englander,15,RESEDA NC,WEST VALLEY,18909,249,274,,2,12
1-411002541,12/31/2016 03:39:00 PM,01/07/2017 09:57:00 AM,SR Created,BOS,Bulky Items,Closed,Call,,Y,NC,01/07/2017 12:00:00 AM,01/07/2017 09:57:00 AM,Y,N,"2005 N ARGYLE AVE, 90068",2005,N,ARGYLE,AVE,90068,34.10716656,-118.3254844,"(34.1071665617, -118.325484416)",593,F,3,Central APC,4,David Ryu,30,HOLLYWOOD UNITED NC,HOLLYWOOD,24033,405,371,,7,64
1-410999831,12/31/2016 03:38:00 PM,01/06/2017 01:00:00 PM,SR Created,BOS,Bulky Items,Closed,Mobile App,Android,N,WV,01/06/2017 12:00:00 AM,01/06/2017 01:00:00 PM,Y,,"20452 W CALIFA ST, 91367",20452,W,CALIFA,ST,91367,34.17623728,-118.5792834,"(34.1762372836, -118.579283404)",560,D,1,South Valley APC,3,Bob Blumenfield,16,WOODLAND HILLS-WARNER CENTER NC,TOPANGA,19347,305,1556,,4,49
1-411000891,12/31/2016 03:37:00 PM,01/03/2017 02:10:00 PM,SR Created,BOS,Bulky Items,Closed,Call,,N,EV,01/03/2017 12:00:00 AM,01/03/2017 02:10:00 PM,Y,N,"11300 W FOOTHILL BLVD, 91342",11300,W,FOOTHILL,BLVD,91342,34.27557638,-118.3767817,"(34.275576381, -118.376781747)",502,J,1,North Valley APC,7,Vacant,9,FOOTHILL TRAILS DISTRICT NC,FOOTHILL,18912,19,1087,8,1,9
1-410998271,12/31/2016 03:36:00 PM,12/31/2016 03:37:00 PM,SR Created,BOS,Bulky Items,Closed,Call,,Y,WLA,01/07/2017 12:00:00 AM,12/31/2016 03:37:00 PM,Y,N,"3607 S MOTOR AVE, 90034",3607,S,MOTOR,AVE,90034,34.0246471,-118.4074245,"(34.0246470976, -118.407424516)",672,F,1,West Los Angeles APC,5,Paul Koretz,115,PALMS NC,PACIFIC,23451,880,786,9,6,74
1-410998201,12/31/2016 03:35:00 PM,01/05/2017 08:37:00 AM,SR Created,BOS,Bulky Items,Closed,Self Service,,Y,EV,01/05/2017 12:00:00 AM,01/05/2017 08:37:00 AM,Y,N,"11220 W MOORPARK ST, 91602",11220,W,MOORPARK,ST,91602,34.15021816,-118.3753459,"(34.1502181573, -118.375345921)",562,J,4,South Valley APC,2,Paul Krekorian,27,STUDIO CITY NC,NORTH HOLLYWOOD,8489,343,1335,,5,84
1-411000671,12/31/2016 03:35:00 PM,01/07/2017 09:27:00 AM,SR Created,BOS,Bulky Items,Closed,Call,,Y,NC,01/07/2017 12:00:00 AM,01/07/2017 09:27:00 AM,Y,N,"2005 N ARGYLE AVE, 90068",2005,N,ARGYLE,AVE,90068,34.10716656,-118.3254844,"(34.1071665617, -118.325484416)",593,F,3,Central APC,4,David Ryu,30,HOLLYWOOD UNITED NC,HOLLYWOOD,24033,405,371,,7,64
1-411000531,12/31/2016 03:33:00 PM,01/03/2017 10:25:00 AM,SR Created,BOS,Bulky Items,Closed,Self Service,,N,WLA,01/03/2017 12:00:00 AM,01/03/2017 10:25:00 AM,Y,N,"12110 W JUNIETTE ST, 90230",12110,W,JUNIETTE,ST,90230,33.98285771,-118.4080799,"(33.9828577068, -118.408079889)",672,F,7,West Los Angeles APC,11,Mike Bonin,70,DEL REY NC,PACIFIC,24678,924,1139,10,10,85
1-410991476,12/31/2016 03:33:00 PM,01/11/2017 10:37:00 AM,SR Created,OCB,Graffiti Removal,Closed,Mobile App,iOS,N,GAPBH,01/05/2017 10:37:00 AM,01/11/2017 10:37:00 AM,Y,N,"1213 S SANTA FE AVE, 90021",1213,S,SANTA FE,AVE,90021,34.02911945,-118.2302089,"(34.0291194525, -118.230208886)",634,H,7,Central APC,14,Jose Huizar,52,DOWNTOWN LOS ANGELES,NEWTON,23082,533,1287,,9,76
1-410991311,12/31/2016 03:31:00 PM,01/05/2017 09:22:00 AM,SR Created,BOS,Bulky Items,Closed,Self Service,,N,EV,01/05/2017 12:00:00 AM,01/05/2017 09:22:00 AM,Y,N,"4845 N WHITSETT AVE, 91607",4845,N,WHITSETT,AVE,91607,34.15893848,-118.4054446,"(34.1589384759, -118.405444559)",562,F,3,South Valley APC,2,Paul Krekorian,25,NC VALLEY VILLAGE,NORTH HOLLYWOOD,8890,191,636,17,5,39
1-410991391,12/31/2016 03:31:00 PM,01/04/2017 09:52:00 AM,SR Created,BOS,Bulky Items,Closed,Self Service,,Y,WV,01/04/2017 12:00:00 AM,01/04/2017 09:52:00 AM,Y,N,"10234 N JORDAN AVE, 91311",10234,N,JORDAN,AVE,91311,34.25651656,-118.6037532,"(34.2565165641, -118.603753219)",500,A,4,North Valley APC,12,Mitchell Englander,99,CHATSWORTH NC,DEVONSHIRE,4284,90,231,,2,43
1-410998721,12/31/2016 03:30:00 PM,01/03/2017 12:55:00 PM,SR Created,BOS,Bulky Items,Closed,Self Service,,N,WLA,01/03/2017 12:00:00 AM,01/03/2017 12:55:00 PM,Y,N,"7848 W 80TH ST, 90293",7848,W,80TH,ST,90293,33.96234752,-118.4340889,"(33.9623475236, -118.43408885)",702,C,2,West Los Angeles APC,11,Mike Bonin,71,NC WESTCHESTER/PLAYA,PACIFIC,25075,929,1142,10,10,16
1-410997441,12/31/2016 03:29:00 PM,01/01/2017 11:24:00 AM,SR Created,BOS,Dead Animal Removal,Closed,Call,,N,HB,,01/01/2017 11:24:00 AM,Y,N,"610 W 97TH ST, 90044",610,W,97TH,ST,90044,33.94813635,-118.2850061,"(33.9481363528, -118.28500607)",704,B,4,South Los Angeles APC,8,Marqueece Harris-Dawson,87,EMPOWERMENT CONGRESS SOUTHEAST AREA NDC,SOUTHEAST,23675,802,1250,7,14,45
1-410991171,12/31/2016 03:28:00 PM,01/04/2017 09:16:00 AM,SR Created,OCB,Graffiti Removal,Closed,Mobile App,iOS,N,HBT,01/03/2017 09:15:00 AM,01/04/2017 09:16:00 AM,Y,N,"2860 W ROWENA AVE, 90039",2860,W,ROWENA,AVE,90039,34.10770428,-118.2665502,"(34.1077042819, -118.26655021)",594,D,3,East Los Angeles APC,4,David Ryu,38,SILVER LAKE NC,NORTHEAST,23670,463,1057,,7,90
1-410997881,12/31/2016 03:28:00 PM,01/07/2017 02:34:00 PM,SR Created,BOS,Bulky Items,Closed,Self Service,,N,HB,01/07/2017 12:00:00 AM,01/07/2017 02:34:00 PM,Y,N,"752 W 4TH ST, 90731",752,W,4TH,ST,90731,33.74068896,-118.2934222,"(33.7406889583, -118.29342216)",824,B,5,Harbor APC,15,Joe Buscaino,95,CENTRAL SAN PEDRO NC,HARBOR,3342,975,1205,,15,36
1-410993385,12/31/2016 03:27:00 PM,05/05/2017 09:34:00 AM,SR Created,OCB,Graffiti Removal,Closed,Driver Self Report,,N,HBT,12/28/2016 12:00:00 AM,05/05/2017 09:34:00 AM,Y,,"1218 N SILVER LAKE BLVD, 90026",,N,SILVER LAKE,BLVD,90026,,,,594,C,6,East Los Angeles APC,13,Mitch O'Farrell,38,SILVER LAKE NC,NORTHEAST,,,,,,
1-410993464,12/31/2016 03:27:00 PM,12/31/2016 03:27:00 PM,SR Created,OCB,Graffiti Removal,Closed,Driver Self Report,,N,HBT,12/28/2016 12:00:00 AM,12/31/2016 03:27:00 PM,Y,,"1313 N SILVER LAKE BLVD, 90026",1313,N,SILVER LAKE,BLVD,90026,,,,594,C,6,East Los Angeles APC,13,Mitch O'Farrell,38,SILVER LAKE NC,NORTHEAST,,,,,,
1-410993413,12/31/2016 03:27:00 PM,05/05/2017 09:24:00 AM,SR Created,OCB,Graffiti Removal,Closed,Driver Self Report,,N,HBT,12/28/2016 12:00:00 AM,05/05/2017 09:24:00 AM,Y,,"1301 N SILVER LAKE BLVD, 90026",,N,SILVER LAKE,BLVD,90026,,,,594,C,6,East Los Angeles APC,13,Mitch O'Farrell,38,SILVER LAKE NC,NORTHEAST,,,,,,
1-410998501,12/31/2016 03:27:00 PM,12/31/2016 03:27:00 PM,SR Created,OCB,Graffiti Removal,Closed,Driver Self Report,,N,HBT,12/28/2016 12:00:00 AM,12/31/2016 03:27:00 PM,Y,,"1339 N SILVER LAKE BLVD, 90026",1339,N,SILVER LAKE,BLVD,90026,,,,594,C,6,East Los Angeles APC,13,Mitch O'Farrell,38,SILVER LAKE NC,NORTHEAST,,,,,,
1-410998538,12/31/2016 03:27:00 PM,12/31/2016 03:27:00 PM,SR Created,OCB,Graffiti Removal,Closed,Driver Self Report,,N,HBT,12/28/2016 12:00:00 AM,12/31/2016 03:27:00 PM,Y,,"1107 N SILVER LAKE BLVD, 90026",1107,N,SILVER LAKE,BLVD,90026,,,,594,C,6,East Los Angeles APC,13,Mitch O'Farrell,38,SILVER LAKE NC,NORTHEAST,,,,,,
1-410993371,12/31/2016 03:27:00 PM,05/05/2017 09:33:00 AM,SR Created,OCB,Graffiti Removal,Closed,Driver Self Report,,N,HBT,12/28/2016 12:00:00 AM,05/05/2017 09:33:00 AM,Y,,"1218 N SILVER LAKE BLVD, 90026",,N,SILVER LAKE,BLVD,90026,,,,594,C,6,East Los Angeles APC,13,Mitch O'Farrell,38,SILVER LAKE NC,NORTHEAST,,,,,,
1-410993399,12/31/2016 03:27:00 PM,05/05/2017 09:25:00 AM,SR Created,OCB,Graffiti Removal,Closed,Driver Self Report,,N,HBT,12/28/2016 12:00:00 AM,05/05/2017 09:25:00 AM,Y,,"1301 N SILVER LAKE BLVD, 90026",,N,SILVER LAKE,BLVD,90026,,,,594,C,6,East Los Angeles APC,13,Mitch O'Farrell,38,SILVER LAKE NC,NORTHEAST,,,,,,
1-410993427,12/31/2016 03:27:00 PM,12/31/2016 03:27:00 PM,SR Created,OCB,Graffiti Removal,Closed,Driver Self Report,,N,HBT,12/28/2016 12:00:00 AM,12/31/2016 03:27:00 PM,Y,,"1319 N SILVER LAKE BLVD, 90026",1319,N,SILVER LAKE,BLVD,90026,,,,594,C,6,East Los Angeles APC,13,Mitch O'Farrell,38,SILVER LAKE NC,NORTHEAST,,,,,,
1-410998575,12/31/2016 03:27:00 PM,05/05/2017 09:20:00 AM,SR Created,OCB,Graffiti Removal,Closed,Driver Self Report,,N,HBT,12/28/2016 12:00:00 AM,05/05/2017 09:20:00 AM,Y,,"3368 N SILVER LAKE BLVD, 90039",,N,SILVER LAKE,BLVD,90039,,,,594,E,2,East Los Angeles APC,13,Mitch O'Farrell,37,ATWATER VILLAGE NC,NORTHEAST,,,,,,
1-410990991,12/31/2016 03:24:00 PM,01/03/2017 07:28:00 AM,SR Created,OCB,Graffiti Removal,Closed,Call,,Y,LACC,01/03/2017 07:26:00 AM,01/03/2017 07:28:00 AM,Y,N,"3612 S 11TH AVE, 90018",3612,S,11TH,AVE,90018,34.02254428,-118.329438,"(34.0225442756, -118.329437989)",673,F,1,South Los Angeles APC,10,Herb J. Wesson Jr.,74,"UNITED NEIGHBORHOODS OF THE HISTORIC ARLINGTON HEIGHTS, WEST ADAMS, AND JEFFERSON PARK COMMUNITY",SOUTHWEST,23079,662,920,7,12,19
1-410990931,12/31/2016 03:23:00 PM,01/03/2017 03:37:00 PM,SR Created,BOS,Metal/Household Appliances,Closed,Call,,N,SLA,01/03/2017 12:00:00 AM,01/03/2017 03:37:00 PM,Y,N,"2612 S CATALINA ST, 90007",2612,S,CATALINA,ST,90007,34.03231939,-118.2941587,"(34.0323193852, -118.294158659)",634,A,6,South Los Angeles APC,8,Marqueece Harris-Dawson,77,EMPOWERMENT CONGRESS NORTH AREA NDC,SOUTHWEST,22724,683,651,7,14,32
1-410993131,12/31/2016 03:23:00 PM,01/06/2017 08:46:00 AM,SR Created,BOS,Illegal Dumping Pickup,Closed,Self Service,,N,WV,01/06/2017 12:00:00 AM,01/06/2017 08:46:00 AM,Y,N,"OXNARD ST AT ZELZAH AVE, 91316",,,,,91316,34.18023017,-118.5229999,"(34.1802301681, -118.52299985)",561,A,1,South Valley APC,5,Paul Koretz,18,ENCINO NC,WEST VALLEY,4286,316,339,,6,62
1-410988032,12/31/2016 03:23:00 PM,01/04/2017 05:34:00 PM,SR Created,OCB,Graffiti Removal,Closed,Mobile App,iOS,N,CCAC,01/04/2017 05:34:00 PM,01/04/2017 05:34:00 PM,Y,N,"730 N ALVARADO ST, 90026",730,N,ALVARADO,ST,90026,34.07445328,-118.265189,"(34.0744532812, -118.265188986)",634,D,1,East Los Angeles APC,13,Mitch O'Farrell,44,GREATER ECHO PARK ELYSIAN NC,RAMPART,23444,471,635,,8,31
1-410988331,12/31/2016 03:22:00 PM,01/03/2017 08:08:00 AM,SR Created,BOS,Bulky Items,Closed,Call,,N,SLA,01/03/2017 12:00:00 AM,01/03/2017 08:08:00 AM,Y,N,"2612 S CATALINA ST, 90007",2612,S,CATALINA,ST,90007,34.03231939,-118.2941587,"(34.0323193852, -118.294158659)",634,A,6,South Los Angeles APC,8,Marqueece Harris-Dawson,77,EMPOWERMENT CONGRESS NORTH AREA NDC,SOUTHWEST,22724,683,651,7,14,32
1-410997037,12/31/2016 03:21:00 PM,01/16/2017 01:54:00 PM,SR Created,OCB,Graffiti Removal,Closed,Driver Self Report,,N,HBT,12/31/2016 12:00:00 AM,01/16/2017 01:54:00 PM,Y,,"4100 W BEVERLY BLVD, 90004",,W,BEVERLY,BLVD,90004,,,,593,J,7,Central APC,13,Mitch O'Farrell,55,WILSHIRE CENTER - KOREATOWN NC,OLYMPIC,,,,,,
1-410990751,12/31/2016 03:21:00 PM,01/06/2017 08:46:00 AM,SR Created,BOS,Bulky Items,Closed,Self Service,,N,WV,01/06/2017 12:00:00 AM,01/06/2017 08:46:00 AM,Y,N,"5966 N ALONZO AVE, 91316",5966,N,ALONZO,AVE,91316,34.17947204,-118.5220108,"(34.1794720365, -118.522010792)",561,A,1,South Valley APC,5,Paul Koretz,18,ENCINO NC,WEST VALLEY,4286,316,339,,6,62
1-410997051,12/31/2016 03:21:00 PM,12/31/2016 03:21:00 PM,SR Created,OCB,Graffiti Removal,Closed,Driver Self Report,,N,HBT,12/31/2016 12:00:00 AM,12/31/2016 03:21:00 PM,Y,,"4451 W BEVERLY BLVD, 90004",4451,W,BEVERLY,BLVD,90004,,,,593,H,7,Central APC,13,Mitch O'Farrell,55,WILSHIRE CENTER - KOREATOWN NC,OLYMPIC,,,,,,
1-410996999,12/31/2016 03:21:00 PM,12/31/2016 03:21:00 PM,SR Created,OCB,Graffiti Removal,Closed,Driver Self Report,,N,HBT,12/31/2016 12:00:00 AM,12/31/2016 03:21:00 PM,Y,,"4107 W BEVERLY BLVD, 90004",4107,W,BEVERLY,BLVD,90004,,,,593,J,7,Central APC,13,Mitch O'Farrell,55,WILSHIRE CENTER - KOREATOWN NC,RAMPART,,,,,,
1-410996961,12/31/2016 03:21:00 PM,12/31/2016 03:21:00 PM,SR Created,OCB,Graffiti Removal,Closed,Driver Self Report,,N,HBT,12/31/2016 12:00:00 AM,12/31/2016 03:21:00 PM,Y,,"3679 W BEVERLY BLVD, 90004",3679,W,BEVERLY,BLVD,90004,,,,594,A,7,Central APC,13,Mitch O'Farrell,53,RAMPART VILLAGE NC,RAMPART,,,,,,
1-410996651,12/31/2016 03:17:00 PM,12/31/2016 03:17:00 PM,SR Created,OCB,Graffiti Removal,Closed,Driver Self Report,,N,HBT,12/28/2016 12:00:00 AM,12/31/2016 03:17:00 PM,Y,,"1609 N NORMANDIE AVE, 90027",1609,N,NORMANDIE,AVE,90027,,,,593,J,4,Central APC,13,Mitch O'Farrell,34,EAST HOLLYWOOD NC,HOLLYWOOD,,,,,,
1-410986154,12/31/2016 03:16:00 PM,12/31/2016 03:16:00 PM,SR Created,OCB,Graffiti Removal,Closed,Driver Self Report,,N,HBT,12/28/2016 12:00:00 AM,12/31/2016 03:16:00 PM,Y,,"1325 N HIGHLAND AVE, 90028",1325,N,HIGHLAND,AVE,90028,,,,593,E,5,Central APC,4,David Ryu,32,CENTRAL HOLLYWOOD NC,HOLLYWOOD,,,,,,
1-410986341,12/31/2016 03:16:00 PM,12/31/2016 03:16:00 PM,SR Created,OCB,Graffiti Removal,Closed,Driver Self Report,,N,HBT,12/28/2016 12:00:00 AM,12/31/2016 03:16:00 PM,Y,,"860 N HIGHLAND AVE, 90038",860,N,HIGHLAND,AVE,90038,,,,593,E,6,Central APC,4,David Ryu,119,GREATER WILSHIRE NC,WILSHIRE,,,,,,
1-410986192,12/31/2016 03:16:00 PM,12/31/2016 03:16:00 PM,SR Created,OCB,Graffiti Removal,Closed,Driver Self Report,,N,HBT,12/28/2016 12:00:00 AM,12/31/2016 03:16:00 PM,Y,,"1333 N HIGHLAND AVE, 90028",1333,N,HIGHLAND,AVE,90028,,,,593,E,5,Central APC,4,David Ryu,32,CENTRAL HOLLYWOOD NC,HOLLYWOOD,,,,,,
1-410986303,12/31/2016 03:16:00 PM,12/31/2016 03:16:00 PM,SR Created,OCB,Graffiti Removal,Closed,Driver Self Report,,N,HBT,12/28/2016 12:00:00 AM,12/31/2016 03:16:00 PM,Y,,"860 N HIGHLAND AVE, 90038",860,N,HIGHLAND,AVE,90038,,,,593,E,6,Central APC,4,David Ryu,119,GREATER WILSHIRE NC,WILSHIRE,,,,,,
1-410986417,12/31/2016 03:16:00 PM,12/31/2016 03:16:00 PM,SR Created,OCB,Graffiti Removal,Closed,Driver Self Report,,N,HBT,12/28/2016 12:00:00 AM,12/31/2016 03:16:00 PM,Y,,"710 N HELIOTROPE DR, 90029",710,N,HELIOTROPE,DR,90029,,,,594,A,6,Central APC,13,Mitch O'Farrell,34,EAST HOLLYWOOD NC,RAMPART,,,,,,
1-410986454,12/31/2016 03:16:00 PM,12/31/2016 03:16:00 PM,SR Created,OCB,Graffiti Removal,Closed,Driver Self Report,,N,KYCC,12/28/2016 12:00:00 AM,12/31/2016 03:16:00 PM,Y,,"277 N WILTON PL, 90004",277,N,WILTON,PL,90004,,,,633,G,1,Central APC,4,David Ryu,119,GREATER WILSHIRE NC,OLYMPIC,,,,,,
1-410986379,12/31/2016 03:16:00 PM,12/31/2016 03:16:00 PM,SR Created,OCB,Graffiti Removal,Closed,Driver Self Report,,N,HBT,12/28/2016 12:00:00 AM,12/31/2016 03:16:00 PM,Y,,"4351 W MELROSE AVE, 90029",4351,W,MELROSE,AVE,90029,,,,594,A,6,Central APC,13,Mitch O'Farrell,34,EAST HOLLYWOOD NC,RAMPART,,,,,,
1-410986229,12/31/2016 03:16:00 PM,12/31/2016 03:16:00 PM,SR Created,OCB,Graffiti Removal,Closed,Driver Self Report,,N,HBT,12/28/2016 12:00:00 AM,12/31/2016 03:16:00 PM,Y,,"1126 N CITRUS AVE, 90038",1126,N,CITRUS,AVE,90038,,,,593,D,5,Central APC,4,David Ryu,32,CENTRAL HOLLYWOOD NC,HOLLYWOOD,,,,,,
1-410986041,12/31/2016 03:16:00 PM,12/31/2016 03:16:00 PM,SR Created,OCB,Graffiti Removal,Closed,Driver Self Report,,N,HBT,12/28/2016 12:00:00 AM,12/31/2016 03:16:00 PM,Y,,"6300 W SANTA MONICA BLVD, 90038",6300,W,SANTA MONICA,BLVD,90038,,,,593,F,5,Central APC,13,Mitch O'Farrell,32,CENTRAL HOLLYWOOD NC,HOLLYWOOD,,,,,,
1-410986266,12/31/2016 03:16:00 PM,12/31/2016 03:16:00 PM,SR Created,OCB,Graffiti Removal,Closed,Driver Self Report,,N,HBT,12/28/2016 12:00:00 AM,12/31/2016 03:16:00 PM,Y,,"6769 W LEXINGTON AVE, 90038",6769,W,LEXINGTON,AVE,90038,,,,593,E,5,Central APC,4,David Ryu,32,CENTRAL HOLLYWOOD NC,HOLLYWOOD,,,,,,
1-410986117,12/31/2016 03:16:00 PM,12/31/2016 03:16:00 PM,SR Created,OCB,Graffiti Removal,Closed,Driver Self Report,,N,HBT,12/28/2016 12:00:00 AM,12/31/2016 03:16:00 PM,Y,,"6200 W ROMAINE ST, 90038",6200,W,ROMAINE,ST,90038,,,,593,F,6,Central APC,13,Mitch O'Farrell,32,CENTRAL HOLLYWOOD NC,HOLLYWOOD,,,,,,
1-410986079,12/31/2016 03:16:00 PM,12/31/2016 03:16:00 PM,SR Created,OCB,Graffiti Removal,Closed,Driver Self Report,,N,HBT,12/28/2016 12:00:00 AM,12/31/2016 03:16:00 PM,Y,,"6310 W SANTA MONICA BLVD, 90038",6310,W,SANTA MONICA,BLVD,90038,,,,593,F,5,Central APC,13,Mitch O'Farrell,32,CENTRAL HOLLYWOOD NC,HOLLYWOOD,,,,,,
1-410987481,12/31/2016 03:15:00 PM,01/03/2017 02:23:00 PM,SR Created,BOS,Illegal Dumping Pickup,Closed,Mobile App,iOS,N,HB,01/03/2017 12:00:00 AM,01/03/2017 02:23:00 PM,Y,,"12028 S FIGUEROA ST, 90061",12028,S,FIGUEROA,ST,90061,33.92295729,-118.2825387,"(33.922957293, -118.28253871)",734,B,1,Harbor APC,15,Joe Buscaino,90,HARBOR GATEWAY NORTH NC,SOUTHEAST,24355,938,803,7,15,53
1-410987867,12/31/2016 03:15:00 PM,03/02/2017 10:40:00 AM,SR Created,BOS,Homeless Encampment,Closed,Mobile App,Android,Y,NC,01/18/2017 12:00:00 AM,03/02/2017 10:40:00 AM,Y,,"435 S HOOVER ST, 90020",435,S,HOOVER,ST,90020,34.06554281,-118.2844784,"(34.065542812, -118.284478413)",634,B,2,Central APC,13,Mitch O'Farrell,53,RAMPART VILLAGE NC,OLYMPIC,23081,578,1317,,8,80
1-410987274,12/31/2016 03:15:00 PM,01/03/2017 01:35:00 PM,SR Created,BOS,Bulky Items,Closed,Mobile App,iOS,N,WLA,01/03/2017 12:00:00 AM,01/03/2017 01:35:00 PM,Y,,"12103 W PACIFIC AVE, 90066",12103,W,PACIFIC,AVE,90066,34.00472047,-118.4293452,"(34.0047204735, -118.429345226)",672,C,4,West Los Angeles APC,11,Mike Bonin,67,MAR VISTA CC,PACIFIC,24031,904,700,10,10,27
1-410987311,12/31/2016 03:14:00 PM,12/31/2016 03:15:00 PM,SR Created,BOS,Bulky Items,Closed,Call,,Y,WLA,01/07/2017 12:00:00 AM,12/31/2016 03:15:00 PM,Y,N,"3740 S JASMINE AVE, 90034",3740,S,JASMINE,AVE,90034,34.02271272,-118.4025689,"(34.0227127236, -118.402568946)",672,F,1,West Los Angeles APC,5,Paul Koretz,115,PALMS NC,PACIFIC,23451,882,981,9,6,74
1-410985623,12/31/2016 03:13:00 PM,01/06/2017 12:33:00 PM,SR Created,OCB,Graffiti Removal,Cancelled,Mobile App,iOS,N,WVA,01/06/2017 10:10:00 AM,01/06/2017 12:33:00 PM,Y,N,"8120 N FAIRCHILD AVE, 91306",8120,N,FAIRCHILD,AVE,91306,34.21754602,-118.587621,"(34.217546018, -118.587621006)",530,C,2,South Valley APC,3,Bob Blumenfield,14,WINNETKA NC,TOPANGA,4282,276,269,,4,66
1-410987726,12/31/2016 03:13:00 PM,01/05/2017 02:20:00 PM,SR Created,OCB,Graffiti Removal,Closed,Mobile App,iOS,N,GAPBH,01/02/2017 02:21:00 PM,01/05/2017 02:20:00 PM,Y,N,"3025 E CESAR E CHAVEZ AVE, 90063",3025,E,CESAR E CHAVEZ,AVE,90063,34.04330135,-118.1994364,"(34.0433013511, -118.199436389)",635,C,5,East Los Angeles APC,14,Jose Huizar,50,BOYLE HEIGHTS NC,HOLLENBECK,24028,515,946,,9,38
1-410986836,12/31/2016 03:13:00 PM,01/03/2017 01:23:00 PM,SR Created,OCB,Graffiti Removal,Closed,Mobile App,iOS,N,PGS,01/02/2017 07:20:00 AM,01/03/2017 01:23:00 PM,Y,N,"12106 W VENICE BLVD, 90066",12106,W,VENICE,BLVD,90066,34.00533742,-118.4300112,"(34.005337418, -118.430011188)",672,C,3,West Los Angeles APC,11,Mike Bonin,67,MAR VISTA CC,PACIFIC,24031,904,700,10,10,27
1-410985471,12/31/2016 03:13:00 PM,01/04/2017 01:35:00 PM,SR Created,BOS,Bulky Items,Closed,Call,,Y,EV,01/04/2017 12:00:00 AM,01/04/2017 01:35:00 PM,Y,N,"6827 N LAUREL CANYON BLVD, 91605",6827,N,LAUREL CANYON,BLVD,91605,34.19445644,-118.3966711,"(34.1944564355, -118.396671118)",532,G,5,South Valley APC,2,Paul Krekorian,23,NORTH HOLLYWOOD NORTHEAST NC,NORTH HOLLYWOOD,8888,178,495,,5,14
1-410985321,12/31/2016 03:12:00 PM,01/04/2017 08:36:00 AM,SR Created,BOS,Bulky Items,Closed,Call,,Y,EV,01/04/2017 12:00:00 AM,01/04/2017 08:36:00 AM,Y,N,"6827 N LAUREL CANYON BLVD, 91605",6827,N,LAUREL CANYON,BLVD,91605,34.19482477,-118.3967553,"(34.1948247728, -118.396755266)",532,G,5,South Valley APC,2,Paul Krekorian,23,NORTH HOLLYWOOD NORTHEAST NC,NORTH HOLLYWOOD,8888,178,495,,5,14
1-410987611,12/31/2016 03:11:00 PM,01/07/2017 03:10:00 PM,SR Created,BOS,Metal/Household Appliances,Closed,Call,,N,WLA,01/07/2017 12:00:00 AM,01/07/2017 03:10:00 PM,Y,N,"3524 S MILITARY AVE, 90034",3524,S,MILITARY,AVE,90034,34.02005547,-118.4185496,"(34.0200554652, -118.418549556)",672,E,1,West Los Angeles APC,5,Paul Koretz,67,MAR VISTA CC,PACIFIC,23451,896,1239,9,6,27
1-410987521,12/31/2016 03:11:00 PM,01/07/2017 01:32:00 PM,SR Created,BOS,Bulky Items,Closed,Call,,N,WLA,01/07/2017 12:00:00 AM,01/07/2017 01:32:00 PM,Y,N,"3524 S MILITARY AVE, 90034",3524,S,MILITARY,AVE,90034,34.02005547,-118.4185496,"(34.0200554652, -118.418549556)",672,E,1,West Los Angeles APC,5,Paul Koretz,67,MAR VISTA CC,PACIFIC,23451,896,1239,9,6,27
1-410984431,12/31/2016 03:09:00 PM,01/09/2017 12:19:00 PM,SR Created,BOS,Bulky Items,Closed,Self Service,,N,NC,01/09/2017 12:00:00 AM,01/09/2017 12:19:00 PM,Y,N,"1149 N MANZANITA ST, 90029",1149,N,MANZANITA,ST,90029,34.09447695,-118.2804552,"(34.0944769479, -118.280455231)",594,B,5,East Los Angeles APC,13,Mitch O'Farrell,38,SILVER LAKE NC,NORTHEAST,23447,467,620,,8,90
1-410983125,12/31/2016 03:09:00 PM,01/06/2017 09:57:00 AM,SR Created,BOS,Bulky Items,Closed,Mobile App,iOS,N,NC,01/06/2017 12:00:00 AM,01/06/2017 09:57:00 AM,Y,,"4400 W BURNS AVE, 90029",4400,W,BURNS,AVE,90029,34.08755483,-118.2895231,"(34.087554832, -118.289523095)",594,A,6,Central APC,13,Mitch O'Farrell,34,EAST HOLLYWOOD NC,RAMPART,23447,435,631,16,8,58
1-410984281,12/31/2016 03:08:00 PM,12/31/2016 04:01:00 PM,SR Created,BOS,Bulky Items,Closed,Driver Self Report,,Y,NC,01/06/2017 12:00:00 AM,12/31/2016 04:01:00 PM,Y,N,"125 S ALEXANDRIA AVE, 90004",125,S,ALEXANDRIA,AVE,90004,34.07192466,-118.2985833,"(34.0719246612, -118.298583327)",633,J,1,Central APC,13,Mitch O'Farrell,55,WILSHIRE CENTER - KOREATOWN NC,OLYMPIC,22721,583,937,,8,89
1-410981683,12/31/2016 03:06:00 PM,01/14/2017 08:47:00 AM,SR Created,OCB,Graffiti Removal,Closed,Mobile App,iOS,N,GAP,01/13/2017 08:46:00 AM,01/14/2017 08:47:00 AM,Y,N,"12028 S FIGUEROA ST, 90061",12028,S,FIGUEROA,ST,90061,33.92295729,-118.2825387,"(33.922957293, -118.28253871)",734,B,1,Harbor APC,15,Joe Buscaino,90,HARBOR GATEWAY NORTH NC,SOUTHEAST,24355,938,803,7,15,53
1-410983901,12/31/2016 03:06:00 PM,01/11/2017 04:29:00 PM,SR Created,BOS,Electronic Waste,Cancelled,Call,,N,NC,01/12/2017 12:00:00 AM,01/11/2017 04:29:00 PM,Y,N,"3733 W TRACY ST, 90027",3733,W,TRACY,ST,90027,34.10490339,-118.2741933,"(34.1049033941, -118.274193291)",594,C,3,Central APC,4,David Ryu,36,LOS FELIZ NC,NORTHEAST,23445,464,1312,,7,3
1-410983011,12/31/2016 03:05:00 PM,01/03/2017 12:37:00 PM,SR Created,BOS,Bulky Items,Closed,Call,,Y,NC,01/03/2017 12:00:00 AM,01/03/2017 12:37:00 PM,Y,N,"4944 E GAMBIER ST, 90032",4944,E,GAMBIER,ST,90032,34.08094348,-118.1753638,"(34.0809434815, -118.175363783)",595,E,7,East Los Angeles APC,14,Jose Huizar,48,LA-32 NC,HOLLENBECK,23449,504,775,,9,91
1-410981841,12/31/2016 03:04:00 PM,12/31/2016 04:01:00 PM,SR Created,BOS,Bulky Items,Closed,Driver Self Report,,Y,NC,01/05/2017 12:00:00 AM,12/31/2016 04:01:00 PM,Y,N,"1275 W INNES AVE, 90026",1275,W,INNES,AVE,90026,34.07144526,-118.2500572,"(34.0714452646, -118.250057151)",634,F,1,East Los Angeles APC,1,Gilbert Cedillo,44,GREATER ECHO PARK ELYSIAN NC,CENTRAL,23444,484,1010,,11,31
1-410981063,12/31/2016 03:03:00 PM,05/08/2017 02:19:00 PM,SR Created,OCB,Graffiti Removal,Closed,Driver Self Report,,N,HBT,12/20/2016 12:00:00 AM,05/08/2017 02:19:00 PM,Y,,"7079 W SUNSET BLVD, 90028",,W,SUNSET,BLVD,90028,,,,593,D,4,Central APC,13,Mitch O'Farrell,32,CENTRAL HOLLYWOOD NC,HOLLYWOOD,,,,,,
1-410980798,12/31/2016 03:03:00 PM,12/31/2016 03:03:00 PM,SR Created,OCB,Graffiti Removal,Closed,Driver Self Report,,N,HBT,12/20/2016 12:00:00 AM,12/31/2016 03:03:00 PM,Y,,"HOLLYWOOD BLVD AT VERMONT AVE, 90027",,,,,90027,,,,594,A,4,Central APC,13,Mitch O'Farrell,36,LOS FELIZ NC,NORTHEAST,,,,,,
1-410981005,12/31/2016 03:03:00 PM,05/08/2017 02:18:00 PM,SR Created,OCB,Graffiti Removal,Closed,Driver Self Report,,N,HBT,12/20/2016 12:00:00 AM,05/08/2017 02:18:00 PM,Y,,"6700 W SUNSET BLVD, 90028",,W,SUNSET,BLVD,90028,,,,593,E,5,Central APC,13,Mitch O'Farrell,32,CENTRAL HOLLYWOOD NC,HOLLYWOOD,,,,,,
1-410980836,12/31/2016 03:03:00 PM,12/31/2016 03:03:00 PM,SR Created,OCB,Graffiti Removal,Closed,Driver Self Report,,N,HBT,12/20/2016 12:00:00 AM,12/31/2016 03:03:00 PM,Y,,"HOLLYWOOD BLVD AT VERMONT AVE, 90027",,,,,90027,,,,594,A,4,Central APC,13,Mitch O'Farrell,36,LOS FELIZ NC,NORTHEAST,,,,,,
1-410981019,12/31/2016 03:03:00 PM,05/08/2017 02:28:00 PM,SR Created,OCB,Graffiti Removal,Closed,Driver Self Report,,N,PGS,12/20/2016 12:00:00 AM,05/08/2017 02:28:00 PM,Y,,"7101 W SUNSET BLVD, 90046",,W,SUNSET,BLVD,90046,,,,593,D,4,Central APC,4,David Ryu,29,HOLLYWOOD HILLS WEST NC,HOLLYWOOD,,,,,,
1-410980948,12/31/2016 03:03:00 PM,05/05/2017 12:45:00 PM,SR Created,OCB,Graffiti Removal,Closed,Driver Self Report,,N,HBT,12/20/2016 12:00:00 AM,05/05/2017 12:45:00 PM,Y,,"6707 W SUNSET BLVD, 90028",,W,SUNSET,BLVD,90028,,,,593,E,4,Central APC,13,Mitch O'Farrell,32,CENTRAL HOLLYWOOD NC,HOLLYWOOD,,,,,,
1-410980962,12/31/2016 03:03:00 PM,05/08/2017 02:18:00 PM,SR Created,OCB,Graffiti Removal,Closed,Driver Self Report,,N,HBT,12/20/2016 12:00:00 AM,05/08/2017 02:18:00 PM,Y,,"6700 W SUNSET BLVD, 90028",,W,SUNSET,BLVD,90028,,,,593,E,5,Central APC,13,Mitch O'Farrell,32,CENTRAL HOLLYWOOD NC,HOLLYWOOD,,,,,,
1-410981119,12/31/2016 03:03:00 PM,05/08/2017 01:44:00 PM,SR Created,OCB,Graffiti Removal,Closed,Driver Self Report,,N,HBT,12/20/2016 12:00:00 AM,05/08/2017 01:44:00 PM,Y,,"1500 N WESTERN AVE, 90027",,N,WESTERN,AVE,90027,,,,593,H,4,Central APC,13,Mitch O'Farrell,34,EAST HOLLYWOOD NC,HOLLYWOOD,,,,,,
1-410981033,12/31/2016 03:03:00 PM,05/08/2017 02:31:00 PM,SR Created,OCB,Graffiti Removal,Closed,Driver Self Report,,N,HBT,12/20/2016 12:00:00 AM,05/08/2017 02:31:00 PM,Y,,"7070 W SUNSET BLVD, 90028",,W,SUNSET,BLVD,90028,,,,593,D,5,Central APC,4,David Ryu,32,CENTRAL HOLLYWOOD NC,HOLLYWOOD,,,,,,
1-410981105,12/31/2016 03:03:00 PM,02/11/2017 09:06:00 AM,SR Created,OCB,Graffiti Removal,Closed,Driver Self Report,,N,HBT,12/20/2016 12:00:00 AM,02/11/2017 09:06:00 AM,Y,,"LAS PALMAS AVE AT SUNSET BLVD, 90028",,,,,90028,,,,593,E,5,Central APC,13,Mitch O'Farrell,32,CENTRAL HOLLYWOOD NC,HOLLYWOOD,,,,,,
1-410983651,12/31/2016 03:03:00 PM,12/31/2016 03:07:00 PM,SR Created,BOS,Bulky Items,Closed,Call,,Y,WLA,01/07/2017 12:00:00 AM,12/31/2016 03:07:00 PM,Y,N,"3753 S CLARINGTON AVE, 90034",3753,S,CLARINGTON,AVE,90034,34.02347061,-118.4012395,"(34.0234706149, -118.401239547)",672,G,1,West Los Angeles APC,5,Paul Koretz,115,PALMS NC,PACIFIC,23451,882,981,9,6,74
1-410980761,12/31/2016 03:03:00 PM,12/31/2016 03:03:00 PM,SR Created,OCB,Graffiti Removal,Closed,Driver Self Report,,N,HBT,12/20/2016 12:00:00 AM,12/31/2016 03:03:00 PM,Y,,"HOLLYWOOD BLVD AT VERMONT AVE, 90027",,,,,90027,,,,594,A,4,Central APC,13,Mitch O'Farrell,36,LOS FELIZ NC,NORTHEAST,,,,,,
1-410980873,12/31/2016 03:03:00 PM,12/31/2016 03:03:00 PM,SR Created,OCB,Graffiti Removal,Closed,Driver Self Report,,N,HBT,12/20/2016 12:00:00 AM,12/31/2016 03:03:00 PM,Y,,"5639 W SUNSET BLVD, 90028",5639,W,SUNSET,BLVD,90028,,,,593,H,4,Central APC,13,Mitch O'Farrell,33,HOLLYWOOD STUDIO DISTRICT NC,HOLLYWOOD,,,,,,
1-410980976,12/31/2016 03:03:00 PM,05/08/2017 01:45:00 PM,SR Created,OCB,Graffiti Removal,Closed,Driver Self Report,,N,HBT,12/20/2016 12:00:00 AM,05/08/2017 01:45:00 PM,Y,,"6687 W SUNSET BLVD, 90028",,W,SUNSET,BLVD,90028,,,,593,E,4,Central APC,13,Mitch O'Farrell,32,CENTRAL HOLLYWOOD NC,HOLLYWOOD,,,,,,
1-410980911,12/31/2016 03:03:00 PM,12/31/2016 03:03:00 PM,SR Created,OCB,Graffiti Removal,Closed,Driver Self Report,,N,HBT,12/20/2016 12:00:00 AM,12/31/2016 03:03:00 PM,Y,,"6690 W SUNSET BLVD, 90028",6690,W,SUNSET,BLVD,90028,,,,593,E,5,Central APC,13,Mitch O'Farrell,32,CENTRAL HOLLYWOOD NC,HOLLYWOOD,,,,,,
1-410980990,12/31/2016 03:03:00 PM,05/08/2017 01:46:00 PM,SR Created,OCB,Graffiti Removal,Closed,Driver Self Report,,N,HBT,12/20/2016 12:00:00 AM,05/08/2017 01:46:00 PM,Y,,"6687 W SUNSET BLVD, 90028",,W,SUNSET,BLVD,90028,,,,593,E,4,Central APC,13,Mitch O'Farrell,32,CENTRAL HOLLYWOOD NC,HOLLYWOOD,,,,,,
1-410981361,12/31/2016 03:03:00 PM,01/03/2017 02:39:00 PM,SR Created,BOS,Metal/Household Appliances,Closed,Call,,N,NC,01/03/2017 12:00:00 AM,01/03/2017 02:39:00 PM,Y,N,"4338 N MAYCREST AVE, 90032",4338,N,MAYCREST,AVE,90032,34.09523699,-118.1612092,"(34.095236986, -118.161209195)",595,G,5,East Los Angeles APC,14,Jose Huizar,48,LA-32 NC,HOLLENBECK,23449,496,514,,9,91
1-410981047,12/31/2016 03:03:00 PM,05/08/2017 01:50:00 PM,SR Created,OCB,Graffiti Removal,Closed,Driver Self Report,,N,HBT,12/20/2016 12:00:00 AM,05/08/2017 01:50:00 PM,Y,,"7079 W SUNSET BLVD, 90028",,W,SUNSET,BLVD,90028,,,,593,D,4,Central APC,13,Mitch O'Farrell,32,CENTRAL HOLLYWOOD NC,HOLLYWOOD,,,,,,
1-410981133,12/31/2016 03:03:00 PM,12/31/2016 03:03:00 PM,SR Created,OCB,Graffiti Removal,Closed,Driver Self Report,,N,HBT,12/20/2016 12:00:00 AM,12/31/2016 03:03:00 PM,Y,,"SUNSET BLVD AT KENMORE AVE, 90027",,,,,90027,,,,593,J,4,Central APC,13,Mitch O'Farrell,34,EAST HOLLYWOOD NC,NORTHEAST,,,,,,
1-410981077,12/31/2016 03:03:00 PM,02/11/2017 09:56:00 AM,SR Created,OCB,Graffiti Removal,Closed,Driver Self Report,,N,HBT,12/20/2016 12:00:00 AM,02/11/2017 09:56:00 AM,Y,,"6816 W SUNSET BLVD, 90028",,W,SUNSET,BLVD,90028,,,,593,E,5,Central APC,4,David Ryu,32,CENTRAL HOLLYWOOD NC,HOLLYWOOD,,,,,,
1-410981091,12/31/2016 03:03:00 PM,05/08/2017 02:17:00 PM,SR Created,OCB,Graffiti Removal,Closed,Driver Self Report,,N,HBT,12/20/2016 12:00:00 AM,05/08/2017 02:17:00 PM,Y,,"6700 W SUNSET BLVD, 90028",,W,SUNSET,BLVD,90028,,,,593,E,5,Central APC,13,Mitch O'Farrell,32,CENTRAL HOLLYWOOD NC,HOLLYWOOD,,,,,,
1-410981641,12/31/2016 03:02:00 PM,12/31/2016 03:24:00 PM,SR Created,ITA,Other,Closed,Mobile App,iOS,N,,,12/31/2016 03:24:00 PM,Y,N,"10350 W SANTA MONICA BLVD, 90025",10350,W,SANTA MONICA,BLVD,90025,34.0579703127,-118.422772945,"(34.0579703127, -118.422772945)",632,D,3,West Los Angeles APC,5,Paul Koretz,62,WESTSIDE NC,WEST LOS ANGELES,23443,859,739,9,6,75
1-410980171,12/31/2016 03:01:00 PM,01/03/2017 12:01:00 PM,SR Created,BOS,Bulky Items,Closed,Call,,N,NC,01/03/2017 12:00:00 AM,01/03/2017 12:01:00 PM,Y,N,"4338 N MAYCREST AVE, 90032",4338,N,MAYCREST,AVE,90032,34.09523699,-118.1612092,"(34.095236986, -118.161209195)",595,G,5,East Los Angeles APC,14,Jose Huizar,48,LA-32 NC,HOLLENBECK,23449,496,514,,9,91
1-410982631,12/31/2016 03:01:00 PM,12/31/2016 04:01:00 PM,SR Created,BOS,Bulky Items,Closed,Driver Self Report,,Y,NC,01/05/2017 12:00:00 AM,12/31/2016 04:01:00 PM,Y,N,"1025 N MARVIEW AVE, 90012",1025,N,MARVIEW,AVE,90012,34.07053795,-118.2473232,"(34.0705379546, -118.247323203)",634,F,1,East Los Angeles APC,1,Gilbert Cedillo,46,HISTORIC CULTURAL NC,CENTRAL,23444,484,1010,,11,28
1-410976491,12/31/2016 03:00:00 PM,01/03/2017 08:55:00 AM,SR Created,BOS,Illegal Dumping Pickup,Closed,Self Service,,Y,EV,01/03/2017 12:00:00 AM,01/03/2017 08:55:00 AM,Y,N,"14152 W FOOTHILL BLVD, 91342",14152,W,FOOTHILL,BLVD,91342,34.31623926,-118.4421305,"(34.316239261, -118.442130544)",482,A,3,North Valley APC,7,Vacant,5,SYLMAR NC,MISSION,18912,44,1529,,1,47
1-410978251,12/31/2016 02:59:00 PM,01/03/2017 08:55:00 AM,SR Created,BOS,Bulky Items,Closed,Self Service,,Y,EV,01/03/2017 12:00:00 AM,01/03/2017 08:55:00 AM,Y,N,"14152 W FOOTHILL BLVD, 91342",14152,W,FOOTHILL,BLVD,91342,34.31623926,-118.4421305,"(34.316239261, -118.442130544)",482,A,3,North Valley APC,7,Vacant,5,SYLMAR NC,MISSION,18912,44,1529,,1,47
1-410976281,12/31/2016 02:58:00 PM,12/31/2016 04:01:00 PM,SR Created,BOS,Bulky Items,Closed,Driver Self Report,,Y,NC,01/05/2017 12:00:00 AM,12/31/2016 04:01:00 PM,Y,N,"930 N MARVIEW AVE, 90012",930,N,MARVIEW,AVE,90012,34.0681883,-118.248337,"(34.0681882968, -118.248336995)",634,F,1,Central APC,1,Gilbert Cedillo,46,HISTORIC CULTURAL NC,CENTRAL,22728,484,1368,,11,28
1-410976341,12/31/2016 02:58:00 PM,01/03/2017 03:10:00 PM,SR Created,BOS,Electronic Waste,Closed,Call,,Y,EV,01/03/2017 12:00:00 AM,01/03/2017 03:10:00 PM,Y,N,"14235 W BERG ST, 91342",14235,W,BERG,ST,91342,34.30613377,-118.4434612,"(34.306133769, -118.443461179)",482,A,4,North Valley APC,7,Vacant,5,SYLMAR NC,MISSION,18912,43,1401,,1,47
1-410978001,12/31/2016 02:57:00 PM,01/03/2017 07:21:00 AM,SR Created,BOS,Bulky Items,Closed,Call,,N,SLA,01/03/2017 12:00:00 AM,01/03/2017 07:21:00 AM,Y,N,"1515 S HIGHLAND AVE, 90019",1515,S,HIGHLAND,AVE,90019,34.04657291,-118.3441535,"(34.0465729145, -118.344153522)",633,D,5,Central APC,10,Herb J. Wesson Jr.,73,MID CITY NC,WILSHIRE,23080,647,1352,,12,
1-410976161,12/31/2016 02:57:00 PM,01/03/2017 02:04:00 PM,SR Created,BOS,Bulky Items,Closed,Call,,Y,EV,01/03/2017 12:00:00 AM,01/03/2017 02:04:00 PM,Y,N,"14235 W BERG ST, 91342",14235,W,BERG,ST,91342,34.30613377,-118.4434612,"(34.306133769, -118.443461179)",482,A,4,North Valley APC,7,Vacant,5,SYLMAR NC,MISSION,18912,43,1401,,1,47
1-410979691,12/31/2016 02:56:00 PM,12/31/2016 04:01:00 PM,SR Created,BOS,Bulky Items,Closed,Driver Self Report,,Y,NC,01/05/2017 12:00:00 AM,12/31/2016 04:01:00 PM,Y,N,"956 N EVERETT ST, 90026",956,N,EVERETT,ST,90026,34.06880264,-118.2489673,"(34.0688026357, -118.248967327)",634,F,1,East Los Angeles APC,1,Gilbert Cedillo,46,HISTORIC CULTURAL NC,CENTRAL,23444,484,1010,,11,28
1-410977771,12/31/2016 02:55:00 PM,01/07/2017 02:56:00 PM,SR Created,BOS,Metal/Household Appliances,Closed,Call,,N,SLA,01/07/2017 12:00:00 AM,01/07/2017 02:56:00 PM,Y,N,"609 W 106TH ST, 90044",609,W,106TH,ST,90044,33.9400106,-118.285298,"(33.9400106025, -118.285298043)",704,B,5,South Los Angeles APC,8,Marqueece Harris-Dawson,87,EMPOWERMENT CONGRESS SOUTHEAST AREA NDC,SOUTHEAST,23675,813,1171,7,14,45
1-410976031,12/31/2016 02:54:00 PM,01/03/2017 01:47:00 PM,SR Created,BOS,Bulky Items,Closed,Call,,N,EV,01/03/2017 12:00:00 AM,01/03/2017 01:47:00 PM,Y,N,"10536 N HILLHAVEN AVE, 91042",10536,N,HILLHAVEN,AVE,91042,34.26045823,-118.2900513,"(34.2604582318, -118.290051322)",504,A,3,North Valley APC,7,Vacant,10,SUNLAND-TUJUNGA NC,FOOTHILL,3222,1,533,,1,7
1-410975951,12/31/2016 02:54:00 PM,01/03/2017 09:53:00 AM,SR Created,BOS,Bulky Items,Closed,Call,,N,SLA,01/03/2017 12:00:00 AM,01/03/2017 09:53:00 AM,Y,N,"1537 S 6TH AVE, 90019",1537,S,6TH,AVE,90019,34.04425657,-118.3238768,"(34.044256569, -118.323876819)",633,F,5,South Los Angeles APC,10,Herb J. Wesson Jr.,74,"UNITED NEIGHBORHOODS OF THE HISTORIC ARLINGTON HEIGHTS, WEST ADAMS, AND JEFFERSON PARK COMMUNITY",WILSHIRE,23080,648,899,,12,19
1-410975381,12/31/2016 02:53:00 PM,12/31/2016 04:01:00 PM,SR Created,BOS,Bulky Items,Closed,Driver Self Report,,Y,NC,01/05/2017 12:00:00 AM,12/31/2016 04:01:00 PM,Y,N,"967 N FIGUEROA TER, 90012",967,N,FIGUEROA,TER,90012,34.06797177,-118.2441297,"(34.0679717701, -118.244129664)",634,G,1,Central APC,1,Gilbert Cedillo,46,HISTORIC CULTURAL NC,CENTRAL,22728,484,1368,,11,28
1-410969453,12/31/2016 02:52:00 PM,01/03/2017 07:42:00 AM,SR Created,BOS,Bulky Items,Closed,Mobile App,Android,Y,NC,01/03/2017 12:00:00 AM,01/03/2017 07:42:00 AM,Y,,"2218 N PARKSIDE AVE, 90031",2218,N,PARKSIDE,AVE,90031,34.0709528,-118.2000192,"(34.0709528048, -118.200019207)",635,C,1,East Los Angeles APC,1,Gilbert Cedillo,47,LINCOLN HEIGHTS NC,HOLLENBECK,23448,487,337,,11,1
1-410977051,12/31/2016 02:52:00 PM,01/04/2017 08:50:00 AM,SR Created,OCB,Graffiti Removal,Cancelled,Mobile App,Android,N,HBT,01/03/2017 08:48:00 AM,01/04/2017 08:50:00 AM,Y,N,"1321 N HOBART BLVD, 90027",1321,N,HOBART,BLVD,90027,34.09557375,-118.3058108,"(34.0955737482, -118.305810818)",593,H,5,Central APC,13,Mitch O'Farrell,34,EAST HOLLYWOOD NC,HOLLYWOOD,23445,428,456,,8,58
1-410976911,12/31/2016 02:52:00 PM,01/03/2017 02:13:00 PM,SR Created,BOS,Bulky Items,Closed,Call,,N,EV,01/03/2017 12:00:00 AM,01/03/2017 02:13:00 PM,Y,N,"8002 W ELLENBOGEN ST, 91040",8002,W,ELLENBOGEN,ST,91040,34.27115735,-118.3073523,"(34.2711573541, -118.307352306)",503,H,2,North Valley APC,7,Vacant,10,SUNLAND-TUJUNGA NC,FOOTHILL,3221,11,529,,1,7
1-410969316,12/31/2016 02:51:00 PM,01/04/2017 08:44:00 AM,SR Created,OCB,Graffiti Removal,Closed,Mobile App,Android,N,HBT,01/03/2017 08:43:00 AM,01/04/2017 08:44:00 AM,Y,N,"1445 N KINGSLEY DR, 90027",1445,N,KINGSLEY,DR,90027,34.09730912,-118.3032999,"(34.0973091213, -118.303299938)",593,J,5,Central APC,13,Mitch O'Farrell,34,EAST HOLLYWOOD NC,HOLLYWOOD,23445,428,456,,8,58
1-410976791,12/31/2016 02:50:00 PM,12/31/2016 04:01:00 PM,SR Created,BOS,Bulky Items,Closed,Driver Self Report,,Y,NC,01/05/2017 12:00:00 AM,12/31/2016 04:01:00 PM,Y,N,"905 N FIGUEROA TER, 90012",905,N,FIGUEROA,TER,90012,34.06642139,-118.2440053,"(34.066421391, -118.244005263)",634,G,2,Central APC,1,Gilbert Cedillo,46,HISTORIC CULTURAL NC,CENTRAL,22728,484,1368,,11,28
1-410974934,12/31/2016 02:50:00 PM,01/04/2017 10:52:00 AM,SR Created,OCB,Graffiti Removal,Closed,Mobile App,Android,N,HBT,01/03/2017 10:52:00 AM,01/04/2017 10:52:00 AM,Y,N,"1400 N NORMANDIE AVE, 90027",1400,N,NORMANDIE,AVE,90027,34.0966293,-118.3001586,"(34.0966293021, -118.300158635)",593,J,5,Central APC,13,Mitch O'Farrell,34,EAST HOLLYWOOD NC,NORTHEAST,23445,430,456,,8,58
1-410974951,12/31/2016 02:49:00 PM,01/03/2017 12:39:00 PM,SR Created,BOS,Bulky Items,Closed,Call,,N,NC,01/03/2017 12:00:00 AM,01/03/2017 12:39:00 PM,Y,N,"2522 E ALCAZAR ST, 90033",2522,E,ALCAZAR,ST,90033,34.06141405,-118.1962482,"(34.0614140547, -118.196248231)",635,C,2,East Los Angeles APC,14,Jose Huizar,,,HOLLENBECK,23450,508,335,,9,
1-410976685,12/31/2016 02:49:00 PM,01/04/2017 09:38:00 AM,SR Created,OCB,Graffiti Removal,Closed,Mobile App,Android,N,HBT,01/03/2017 09:37:00 AM,01/04/2017 09:38:00 AM,Y,N,"5100 DE LONGPRE AV, 90027",5100,,DE LONGPRE,AV,90027,34.0965861,-118.3012041,"(34.0965861004, -118.30120412)",593,J,5,Central APC,13,Mitch O'Farrell,34,EAST HOLLYWOOD NC,HOLLYWOOD,23447,428,456,,8,58
1-410974808,12/31/2016 02:48:00 PM,01/04/2017 10:21:00 AM,SR Created,OCB,Graffiti Removal,Closed,Mobile App,Android,N,HBT,01/03/2017 10:20:00 AM,01/04/2017 10:21:00 AM,Y,N,"5200 W SUNSET BLVD, 90027",5200,W,SUNSET,BLVD,90027,34.09793334,-118.3034301,"(34.0979333354, -118.303430131)",593,J,4,Central APC,13,Mitch O'Farrell,34,EAST HOLLYWOOD NC,HOLLYWOOD,23445,428,456,16,8,58
1-410969051,12/31/2016 02:48:00 PM,01/03/2017 09:32:00 AM,SR Created,BOS,Bulky Items,Closed,Call,,N,NC,01/03/2017 12:00:00 AM,01/03/2017 09:32:00 AM,Y,N,"2522 E ALCAZAR ST, 90033",2522,E,ALCAZAR,ST,90033,34.06141405,-118.1962482,"(34.0614140547, -118.196248231)",635,C,2,East Los Angeles APC,14,Jose Huizar,,,HOLLENBECK,23450,508,335,,9,
1-410974641,12/31/2016 02:47:00 PM,01/03/2017 09:25:00 AM,SR Created,BOS,Bulky Items,Closed,Call,,N,SLA,01/03/2017 12:00:00 AM,01/03/2017 09:25:00 AM,Y,N,"3754 W LOCKLAND DR, 90008",3754,W,LOCKLAND,DR,90008,34.00791802,-118.3400334,"(34.0079180235, -118.340033372)",673,E,3,South Los Angeles APC,8,Marqueece Harris-Dawson,79,EMPOWERMENT CONGRESS WEST AREA NDC,SOUTHWEST,22725,761,1025,7,14,54
1-410973400,12/31/2016 02:47:00 PM,01/04/2017 10:34:00 AM,SR Created,OCB,Graffiti Removal,Closed,Mobile App,iOS,Y,HBT,01/03/2017 10:33:00 AM,01/04/2017 10:34:00 AM,Y,N,"6434 W YUCCA ST, 90028",6434,W,YUCCA,ST,90028,34.10380506,-118.3305645,"(34.1038050613, -118.330564501)",593,F,4,Central APC,13,Mitch O'Farrell,29,HOLLYWOOD HILLS WEST NC,HOLLYWOOD,23446,415,334,,8,82
1-410974563,12/31/2016 02:47:00 PM,01/04/2017 08:47:00 AM,SR Created,OCB,Graffiti Removal,Cancelled,Mobile App,Android,N,HBT,01/03/2017 08:45:00 AM,01/04/2017 08:47:00 AM,Y,N,"5270 W SUNSET BLVD, 90027",5270,W,SUNSET,BLVD,90027,34.097934,-118.3050579,"(34.0979339969, -118.305057867)",593,H,4,Central APC,13,Mitch O'Farrell,34,EAST HOLLYWOOD NC,HOLLYWOOD,23445,428,456,16,8,58
1-410974504,12/31/2016 02:46:00 PM,01/06/2017 03:34:00 PM,SR Created,BOS,Electronic Waste,Closed,Mobile App,Android,N,NC,01/06/2017 12:00:00 AM,01/06/2017 03:34:00 PM,Y,,"5250 DE LONGPRE AV, 90027",5250,,DE LONGPRE,AV,90027,34.0965747,-118.3038557,"(34.0965747037, -118.303855727)",593,J,5,Central APC,13,Mitch O'Farrell,34,EAST HOLLYWOOD NC,HOLLYWOOD,23445,428,456,,8,58
1-410971771,12/31/2016 02:42:00 PM,12/31/2016 02:42:00 PM,SR Created,OCB,Graffiti Removal,Closed,Driver Self Report,,N,HBT,12/14/2016 12:00:00 AM,12/31/2016 02:42:00 PM,Y,,"5285 W BEVERLY BLVD, 90004",5285,W,BEVERLY,BLVD,90004,,,,593,F,7,Central APC,4,David Ryu,119,GREATER WILSHIRE NC,WILSHIRE,,,,,,
1-410972174,12/31/2016 02:42:00 PM,12/31/2016 02:42:00 PM,SR Created,OCB,Graffiti Removal,Closed,Driver Self Report,,N,HBT,12/14/2016 12:00:00 AM,12/31/2016 02:42:00 PM,Y,,"BEVERLY BLVD AT JUANITA AVE, 90004",,,,,90004,,,,594,A,7,Central APC,13,Mitch O'Farrell,53,RAMPART VILLAGE NC,OLYMPIC,,,,,,
1-410971621,12/31/2016 02:42:00 PM,12/31/2016 02:42:00 PM,SR Created,OCB,Graffiti Removal,Closed,Driver Self Report,,N,HBT,12/14/2016 12:00:00 AM,12/31/2016 02:42:00 PM,Y,,"4457 W BEVERLY BLVD, 90004",4457,W,BEVERLY,BLVD,90004,,,,593,H,7,Central APC,13,Mitch O'Farrell,55,WILSHIRE CENTER - KOREATOWN NC,OLYMPIC,,,,,,
1-410972090,12/31/2016 02:42:00 PM,12/31/2016 02:42:00 PM,SR Created,OCB,Graffiti Removal,Closed,Driver Self Report,,N,HBT,12/14/2016 12:00:00 AM,12/31/2016 02:42:00 PM,Y,,"BEVERLY BLVD AT JUANITA AVE, 90004",,,,,90004,,,,594,A,7,Central APC,13,Mitch O'Farrell,53,RAMPART VILLAGE NC,OLYMPIC,,,,,,
1-410971659,12/31/2016 02:42:00 PM,12/31/2016 02:42:00 PM,SR Created,OCB,Graffiti Removal,Closed,Driver Self Report,,N,HBT,12/14/2016 12:00:00 AM,12/31/2016 02:42:00 PM,Y,,"4451 W BEVERLY BLVD, 90004",4451,W,BEVERLY,BLVD,90004,,,,593,H,7,Central APC,13,Mitch O'Farrell,55,WILSHIRE CENTER - KOREATOWN NC,OLYMPIC,,,,,,
1-410972298,12/31/2016 02:42:00 PM,12/31/2016 02:42:00 PM,SR Created,OCB,Graffiti Removal,Closed,Driver Self Report,,N,HBT,12/14/2016 12:00:00 AM,12/31/2016 02:42:00 PM,Y,,"BEVERLY BLVD AT VERMONT AVE, 90004",,,,,90004,,,,594,A,7,Central APC,13,Mitch O'Farrell,53,RAMPART VILLAGE NC,OLYMPIC,,,,,,
1-410971913,12/31/2016 02:42:00 PM,12/31/2016 02:42:00 PM,SR Created,OCB,Graffiti Removal,Closed,Driver Self Report,,N,HBT,12/14/2016 12:00:00 AM,12/31/2016 02:42:00 PM,Y,,"3969 W BEVERLY BLVD, 90004",3969,W,BEVERLY,BLVD,90004,,,,594,A,7,Central APC,13,Mitch O'Farrell,55,WILSHIRE CENTER - KOREATOWN NC,RAMPART,,,,,,
1-410972061,12/31/2016 02:42:00 PM,05/09/2017 10:08:00 AM,SR Created,OCB,Graffiti Removal,Closed,Driver Self Report,,N,HBT,12/14/2016 12:00:00 AM,05/09/2017 10:08:00 AM,Y,,"3700 W BEVERLY BLVD, 90004",,W,BEVERLY,BLVD,90004,,,,594,A,7,Central APC,13,Mitch O'Farrell,53,RAMPART VILLAGE NC,OLYMPIC,,,,,,
1-410968591,12/31/2016 02:42:00 PM,12/31/2016 04:01:00 PM,SR Created,BOS,Bulky Items,Closed,Driver Self Report,,Y,NC,01/05/2017 12:00:00 AM,12/31/2016 04:01:00 PM,Y,N,"820 N CENTENNIAL ST, 90012",820,N,CENTENNIAL,ST,90012,34.06563428,-118.2464254,"(34.0656342839, -118.246425414)",634,F,2,Central APC,1,Gilbert Cedillo,46,HISTORIC CULTURAL NC,CENTRAL,22728,484,1368,,11,28
1-410972127,12/31/2016 02:42:00 PM,12/31/2016 02:42:00 PM,SR Created,OCB,Graffiti Removal,Closed,Driver Self Report,,N,HBT,12/14/2016 12:00:00 AM,12/31/2016 02:42:00 PM,Y,,"BEVERLY BLVD AT JUANITA AVE, 90004",,,,,90004,,,,594,A,7,Central APC,13,Mitch O'Farrell,53,RAMPART VILLAGE NC,OLYMPIC,,,,,,
1-410971734,12/31/2016 02:42:00 PM,12/31/2016 02:42:00 PM,SR Created,OCB,Graffiti Removal,Closed,Driver Self Report,,N,HBT,12/14/2016 12:00:00 AM,12/31/2016 02:42:00 PM,Y,,"4520 W BEVERLY BLVD, 90004",4520,W,BEVERLY,BLVD,90004,,,,593,H,7,Central APC,10,Herb J. Wesson Jr.,55,WILSHIRE CENTER - KOREATOWN NC,OLYMPIC,,,,,,
1-410971824,12/31/2016 02:42:00 PM,12/31/2016 02:42:00 PM,SR Created,OCB,Graffiti Removal,Closed,Driver Self Report,,N,HBT,12/14/2016 12:00:00 AM,12/31/2016 02:42:00 PM,Y,,"4282 W BEVERLY BLVD, 90004",4282,W,BEVERLY,BLVD,90004,,,,593,J,7,Central APC,10,Herb J. Wesson Jr.,55,WILSHIRE CENTER - KOREATOWN NC,OLYMPIC,,,,,,
1-410972024,12/31/2016 02:42:00 PM,12/31/2016 02:42:00 PM,SR Created,OCB,Graffiti Removal,Closed,Driver Self Report,,N,HBT,12/14/2016 12:00:00 AM,12/31/2016 02:42:00 PM,Y,,"3680 W BEVERLY BLVD, 90004",3680,W,BEVERLY,BLVD,90004,,,,594,A,7,Central APC,13,Mitch O'Farrell,53,RAMPART VILLAGE NC,OLYMPIC,,,,,,
1-410972076,12/31/2016 02:42:00 PM,05/09/2017 10:14:00 AM,SR Created,OCB,Graffiti Removal,Closed,Driver Self Report,,N,HBT,12/14/2016 12:00:00 AM,05/09/2017 10:14:00 AM,Y,,"3700 W BEVERLY BLVD, 90004",,W,BEVERLY,BLVD,90004,,,,594,A,7,Central APC,13,Mitch O'Farrell,53,RAMPART VILLAGE NC,OLYMPIC,,,,,,
1-410972251,12/31/2016 02:42:00 PM,12/31/2016 02:42:00 PM,SR Created,OCB,Graffiti Removal,Closed,Driver Self Report,,N,HBT,12/14/2016 12:00:00 AM,12/31/2016 02:42:00 PM,Y,,"BEVERLY BLVD AT VERMONT AVE, 90004",,,,,90004,,,,594,A,7,Central APC,13,Mitch O'Farrell,53,RAMPART VILLAGE NC,OLYMPIC,,,,,,
1-410971950,12/31/2016 02:42:00 PM,12/31/2016 02:42:00 PM,SR Created,OCB,Graffiti Removal,Closed,Driver Self Report,,N,HBT,12/14/2016 12:00:00 AM,12/31/2016 02:42:00 PM,Y,,"3708 W BEVERLY BLVD, 90004",3708,W,BEVERLY,BLVD,90004,,,,594,A,7,Central APC,13,Mitch O'Farrell,53,RAMPART VILLAGE NC,OLYMPIC,,,,,,
1-410971862,12/31/2016 02:42:00 PM,12/31/2016 02:42:00 PM,SR Created,OCB,Graffiti Removal,Closed,Driver Self Report,,N,HBT,12/14/2016 12:00:00 AM,12/31/2016 02:42:00 PM,Y,,"4281 W BEVERLY BLVD, 90004",4281,W,BEVERLY,BLVD,90004,,,,593,J,7,Central APC,13,Mitch O'Farrell,55,WILSHIRE CENTER - KOREATOWN NC,OLYMPIC,,,,,,
1-410971697,12/31/2016 02:42:00 PM,12/31/2016 02:42:00 PM,SR Created,OCB,Graffiti Removal,Closed,Driver Self Report,,N,HBT,12/14/2016 12:00:00 AM,12/31/2016 02:42:00 PM,Y,,"4520 W BEVERLY BLVD, 90004",4520,W,BEVERLY,BLVD,90004,,,,593,H,7,Central APC,10,Herb J. Wesson Jr.,55,WILSHIRE CENTER - KOREATOWN NC,OLYMPIC,,,,,,
1-410971987,12/31/2016 02:42:00 PM,12/31/2016 02:42:00 PM,SR Created,OCB,Graffiti Removal,Closed,Driver Self Report,,N,HBT,12/14/2016 12:00:00 AM,12/31/2016 02:42:00 PM,Y,,"3680 W BEVERLY BLVD, 90004",3680,W,BEVERLY,BLVD,90004,,,,594,A,7,Central APC,13,Mitch O'Farrell,53,RAMPART VILLAGE NC,OLYMPIC,,,,,,
1-410971899,12/31/2016 02:42:00 PM,02/15/2017 01:40:00 PM,SR Created,OCB,Graffiti Removal,Closed,Driver Self Report,,N,HBT,12/14/2016 12:00:00 AM,02/15/2017 01:40:00 PM,Y,,"4305 W BEVERLY BLVD, 90004",,W,BEVERLY,BLVD,90004,,,,593,J,7,Central APC,13,Mitch O'Farrell,55,WILSHIRE CENTER - KOREATOWN NC,OLYMPIC,,,,,,
1-410971810,12/31/2016 02:42:00 PM,05/09/2017 09:54:00 AM,SR Created,OCB,Graffiti Removal,Closed,Driver Self Report,,N,HBT,12/14/2016 12:00:00 AM,05/09/2017 09:54:00 AM,Y,,"4336 W BEVERLY BLVD, 90004",,W,BEVERLY,BLVD,90004,,,,593,J,7,Central APC,10,Herb J. Wesson Jr.,55,WILSHIRE CENTER - KOREATOWN NC,OLYMPIC,,,,,,
1-410964251,12/31/2016 02:39:00 PM,01/06/2017 04:04:00 PM,SR Created,BOS,Metal/Household Appliances,Closed,Call,,N,EV,01/06/2017 12:00:00 AM,01/06/2017 04:04:00 PM,Y,N,"8846 N DORRINGTON AVE, 91331",8846,N,DORRINGTON,AVE,91331,34.23065172,-118.4313171,"(34.2306517229, -118.431317134)",502,C,7,North Valley APC,6,Nury Martinez,6,ARLETA NC,MISSION,18907,139,453,,3,41
1-410966602,12/31/2016 02:39:00 PM,01/04/2017 11:16:00 AM,SR Created,BOS,Bulky Items,Closed,Mobile App,iOS,N,NC,01/04/2017 12:00:00 AM,01/04/2017 11:16:00 AM,Y,,"3249 N ANDRITA ST, 90065",3249,N,ANDRITA,ST,90065,34.1186071,-118.2429701,"(34.1186070962, -118.242970052)",594,G,1,East Los Angeles APC,13,Mitch O'Farrell,39,GLASSELL PARK NC,NORTHEAST,24030,388,476,,8,56
1-410963981,12/31/2016 02:36:00 PM,01/06/2017 01:32:00 PM,SR Created,BOS,Bulky Items,Closed,Call,,N,EV,01/06/2017 12:00:00 AM,01/06/2017 01:32:00 PM,Y,N,"8846 N DORRINGTON AVE, 91331",8846,N,DORRINGTON,AVE,91331,34.23065172,-118.4313171,"(34.2306517229, -118.431317134)",502,C,7,North Valley APC,6,Nury Martinez,6,ARLETA NC,MISSION,18907,139,453,,3,41
1-410962201,12/31/2016 02:35:00 PM,01/07/2017 02:35:00 PM,SR Created,BOS,Bulky Items,Closed,Call,,N,HB,01/07/2017 12:00:00 AM,01/07/2017 02:35:00 PM,Y,N,"956 W 11TH ST, 90731",956,W,11TH,ST,90731,33.73435628,-118.2980934,"(33.7343562807, -118.298093388)",824,A,6,Harbor APC,15,Joe Buscaino,95,CENTRAL SAN PEDRO NC,HARBOR,3342,977,1210,,15,36
1-410964671,12/31/2016 02:35:00 PM,01/06/2017 03:52:00 PM,SR Created,BOS,Electronic Waste,Closed,Call,,N,EV,01/06/2017 12:00:00 AM,01/06/2017 03:52:00 PM,Y,N,"8846 DORRINGTON AV, 91331",8846,,DORRINGTON,AV,91331,34.23074862,-118.4314307,"(34.2307486197, -118.431430732)",502,C,7,North Valley APC,6,Nury Martinez,6,ARLETA NC,MISSION,18907,139,453,,3,41
1-410962061,12/31/2016 02:34:00 PM,01/07/2017 02:35:00 PM,SR Created,BOS,Bulky Items,Closed,Call,,N,HB,01/07/2017 12:00:00 AM,01/07/2017 02:35:00 PM,Y,N,"956 W 11TH ST, 90731",956,W,11TH,ST,90731,33.73435628,-118.2980934,"(33.7343562807, -118.298093388)",824,A,6,Harbor APC,15,Joe Buscaino,95,CENTRAL SAN PEDRO NC,HARBOR,3342,977,1210,,15,36
1-410960098,12/31/2016 02:34:00 PM,01/11/2017 09:53:00 AM,SR Created,OCB,Graffiti Removal,Cancelled,Mobile App,Android,N,HBT,01/10/2017 09:51:00 AM,01/11/2017 09:53:00 AM,Y,N,"1100 N VERMONT AVE, 90029",1100,N,VERMONT,AVE,90029,34.09117786,-118.2915821,"(34.0911778586, -118.291582142)",594,A,5,Central APC,13,Mitch O'Farrell,34,EAST HOLLYWOOD NC,NORTHEAST,23447,433,1285,16,8,58
1-410959928,12/31/2016 02:33:00 PM,01/06/2017 03:14:00 PM,SR Created,BOS,Bulky Items,Closed,Mobile App,Android,Y,HB,01/06/2017 12:00:00 AM,01/06/2017 03:14:00 PM,Y,,"1107 E O ST, 90744",1107,E,O,ST,90744,33.79253892,-118.2493174,"(33.7925389206, -118.249317394)",794,G,4,Harbor APC,15,Joe Buscaino,93,WILMINGTON NC,HARBOR,3350,953,626,,15,15
